stop_id,stop_name,stop_lat,stop_lon,stop_code,stop_desc,zone_id,stop_url,location_type,parent_station,wheelchair_boarding,stop_timezone,platform_code
779481dc-ec1a-4651-9771-f0e97a5cacc9,A Coruña (Bus Station),43.353826,-8.403607,RUN,,,,,,,Europe/Madrid,
5d87f1c7-0862-42a3-9a35-e9c72b26b4fb,A1 Brampton Hut (Driver change - no drop off),52.331507,-0.250988,A1BH,,,,,,,Europe/London,
d3684b0e-b10c-4609-b905-a7681e03c272,Aabenraa FlixBus stop (Circkle K-tanken),55.065748,9.365509,AAA,,,,,,,Europe/Copenhagen,
357e465b-8a94-4c9a-9bae-cd0b5369f33b,Aachen station west (Henricistraße),50.783515,6.072513,ACH,,,,,,,Europe/Berlin,
92d7b08b-d81c-47a5-86e3-9bd0a9715481,Aalborg (Busterminal),57.041367,9.918595,AAB,,,,,,,Europe/Copenhagen,
dcc18bf2-9603-11e6-9066-549f350fcb0c,Aarhus C FlixBus stop,56.152223,10.208635,AAH,,,,,,,Europe/Copenhagen,
2e49e929-7bd2-4d40-805e-1cf5a76b8bed,Aberdeen Bus Station,57.144242,-2.095539,ADBS,,,,,,,Europe/London,
055563ba-be55-4e12-aea1-0cba8c8c7892,Abrantes (Bus Station),39.463342,-8.213524,AAE,,,,,,,Europe/Lisbon,
8308a8be-b493-4d65-858c-c2ae8c297217,Acri,39.488967,16.3809,ACR,,,,,,,Europe/Rome,
dcc35761-9603-11e6-9066-549f350fcb0c,Agen (Péage A62 - Le Passage),44.16665,0.606028,AGE,,,,,,,Europe/Paris,
af47102c-0222-4dad-a753-23994a95b37e,Agrigento,37.311261,13.586538,AGG,,,,,,,Europe/Rome,
dcc60f3f-9603-11e6-9066-549f350fcb0c,Agropoli,40.346532,14.998958,AGR,,,,,,,Europe/Rome,
dcbf91fb-9603-11e6-9066-549f350fcb0c,Ahlbeck station (Usedom),53.935996,14.188619,AHL,,,,,,,Europe/Berlin,
dcbfdfab-9603-11e6-9066-549f350fcb0c,Ahrenshoop,54.379826,12.41892,AHR,,,,,,,Europe/Berlin,
dcc049c8-9603-11e6-9066-549f350fcb0c,Aichach (Bäckerei Zametzer),48.462035,11.134387,AIC,,,,,,,Europe/Berlin,
f46d7d13-04ef-47f7-b0d5-f161f9386fb4,Aire de Montpertuis,45.921947,3.143878,AdMP,,,,,,,Europe/Paris,
724d01a9-0dec-4a27-913a-122e22680f8a,Aiud (petrol station Rompetrol/Partener),46.322483,23.717856,AIU,,,,,,,Europe/Bucharest,
dcc10721-9603-11e6-9066-549f350fcb0c,Aix-en-Provence (Krypton),43.510992,5.447616,AIX,,,,,,,Europe/Paris,
77ee7a56-1964-4b18-b6cf-e116e09b7b3d,Aix-les-Bains (Centre Commercial),45.656745,5.912518,AXB,,,,,,,Europe/Paris,
f649c213-f96c-448d-8669-c36bbc332f7c,Alassio,44.00853,8.173337,ALA,,,,,,,Europe/Rome,
043145a6-41e1-46c4-a5de-4527ffade74c,Alba Adriatica,42.832302,13.922844,ADI,,,,,,,Europe/Rome,
134ea077-f211-495c-a622-cd0c4a88a1f9,Alba Iulia (bus station Livio Dario),46.057661,23.577052,AI,,,,,,,Europe/Bucharest,
f2416e9a-1556-48c7-8069-d87c341068e7,Albena Bus Station,43.365143,28.067224,AEN,,,,,,,Europe/Sofia,
c8165c54-84e5-4654-a1ab-08d05a9f3ab1,Albenga,44.047909,8.214436,ABG,,,,,,,Europe/Rome,
fd04d2d2-c4ec-4dac-8781-f52f8b43330e,Albergaria-a-Velha (Bus Station),40.689244,-8.475399,ARH,,,,,,,Europe/Lisbon,
f9bdf4af-5dee-4e3f-b5f4-da8e87701eb3,Alberobello,40.785269,17.240571,ALO,,,,,,,Europe/Rome,
96792d82-bae9-487c-b95b-cb0bb0ff3bc4,Albufeira (Av Liberdade),37.091596,-8.254984,ALF,,,,,,,Europe/Lisbon,
dcc217e8-9603-11e6-9066-549f350fcb0c,Alessandria,44.908637,8.608076,ALE,,,,,,,Europe/Rome,
1e66ef05-cfe3-4aa6-89e0-976cb43b223a,Alexandria (Gară),43.964879,25.325458,ALX,,,,,,,Europe/Bucharest,
e30c47fe-6abc-47bb-8a9d-d6c6f5d3bb1a,Algeciras (Bus Station),36.126004,-5.448016,RAS,,,,,,,Europe/Madrid,
687eb82b-bc6a-45c5-93cc-3c186b7ecc06,Alicante (Bus Station),38.337817,-0.49137,ACT,,,,,,,Europe/Madrid,
a5f9f748-3e0a-476e-b563-696f577ef03b,Aljezur,37.316839,-8.802892,AJZ,,,,,,,Europe/Lisbon,
c12e3a96-b79f-453c-8d72-fc53e732d8b0,Almada (Metro Cova Piedade),38.667889,-9.164611,ALD,,,,,,,Europe/Lisbon,
d85a7a60-3453-4960-b5bd-07e33ad44cc9,Almancil,37.087105,-8.031853,ACI,,,,,,,Europe/Lisbon,
70dfb36e-198e-4f23-a82a-80103ecb11d2,Almeria (Bus Station),36.835356,-2.455161,ALI,,,,,,,Europe/Madrid,
dcbad6f0-9603-11e6-9066-549f350fcb0c,Alsfeld Pfefferhöhe,50.732885,9.241158,AFP,,,,,,,Europe/Berlin,
dcc46142-9603-11e6-9066-549f350fcb0c,Altamura,40.819117,16.559347,ALM,,,,,,,Europe/Rome,
d67abfd9-ef57-452d-b430-ae96627a9bf7,Amarante (Bus Station),41.266105,-8.072095,ATE,,,,,,,Europe/Lisbon,
9b6a1ccb-3ecb-11ea-8017-02437075395e,Ambrussum Sud,43.712078,4.130543,AMU,,,,,,,Europe/Paris,
8fe62385-9e01-4eb2-a21d-96ff645072e1,Amiens (Campus),49.874466,2.264624,AME,,,,,,,Europe/Paris,
7ed9675b-72b2-441f-8c52-c3233f96578a,Amsterdam Bijlmer Arena,52.310564,4.94656,ABA,,,,,,,Europe/Amsterdam,
dcbdd1b1-9603-11e6-9066-549f350fcb0c,Amsterdam Sloterdijk,52.389758,4.838497,AMD,,,,,,,Europe/Amsterdam,
dcc03f47-9603-11e6-9066-549f350fcb0c,Ancona,43.610365,13.502943,ANC,,,,,,,Europe/Rome,
dcc4623a-9603-11e6-9066-549f350fcb0c,Andria,41.240961,16.292604,AND,,,,,,,Europe/Rome,
f09ebbef-4177-46d1-90dc-6d25fc50e988,Andrijaševci aut. stajalište,45.225666,18.740653,NDR,,,,,,,Europe/Zagreb,
dcc1007f-9603-11e6-9066-549f350fcb0c,Angers (central bus station),47.464897,-0.557648,ANG,,,,,,,Europe/Paris,
dcc2ed2c-9603-11e6-9066-549f350fcb0c,Angoulême,45.653846,0.167294,ANL,,,,,,,Europe/Paris,
dcbf92e1-9603-11e6-9066-549f350fcb0c,Anklam central bus station,53.855963,13.701285,ANK,,,,,,,Europe/Berlin,
dcc11362-9603-11e6-9066-549f350fcb0c,Annecy (Central Bus Station),45.901664,6.120322,ANN,,,,,,,Europe/Paris,
c15c9ae9-47ea-430a-ac76-ac3f68525c20,Annemasse (Jean Monnet P+R),46.182176,6.246182,ANJM,,,,,,,Europe/Paris,
ce3841d7-7f79-40a2-a12a-fc171af17016,Antibes (Pôle d'échanges),43.586363,7.118931,ANB,,,,,,,Europe/Paris,
97ad0b6d-991a-46d5-bc57-276173e0cc39,Antwerp Rooseveltplaats (B5),51.219293,4.416975,ATW,,,,,,,Europe/Brussels,
dcc47678-9603-11e6-9066-549f350fcb0c,Aosta,45.735249,7.324412,AOT,,,,,,,Europe/Rome,
dcc52e01-9603-11e6-9066-549f350fcb0c,Aprilia,41.591916,12.639595,APR,,,,,,,Europe/Rome,
09a312c8-5613-429c-9e9c-de853c3910d8,Arad (bus station Europa Connect),46.201429,21.264501,ARAD,,,,,,,Europe/Bucharest,
3d80798b-e36b-4d02-a7c6-e8d6a3c2769e,Arco de Baulhe (Bus Station),41.481028,-7.956985,ACU,,,,,,,Europe/Lisbon,
14609a0c-72a3-4286-a17b-724972889e7a,Arendal (Harebakken bussterminal),58.473208,8.745565,AREN,,,,,,,Europe/Oslo,
507012eb-80c7-47c2-8361-a634969b7ef5,Arezzo (Viale dei Carabinieri),43.465682,11.868646,EIC,,,,,,,Europe/Rome,
6b15774b-bf2f-4154-8bf2-a8f53fb475fd,Argelès-sur-Mer (SNCF Station),42.544293,3.022028,ARG,,,,,,,Europe/Paris,
8005d5c5-bb32-43a0-aa9e-0d095ba64a15,Argenteuil,48.946925,2.256392,AGL,,,,,,,Europe/Paris,
5e91ba3d-2197-4008-9953-e2873a189a5d,"Arkadia, Park",52.087352,20.013579,ARK,,,,,,,Europe/Warsaw,
91fc602e-4e54-4f48-86b3-8894267c446c,Arlanda Airport Terminal 4 & 5,59.647823,17.928643,AF4,,,,,,,Europe/Stockholm,
dcc5362e-9603-11e6-9066-549f350fcb0c,Arlon Gare,49.680863,5.807538,ARL,,,,,,,Europe/Brussels,
a73aed7a-69b4-4c56-b155-96b50cdb3e9a,Armacao de Pera,37.104654,-8.358787,AOP,,,,,,,Europe/Lisbon,
dcbc52ce-9603-11e6-9066-549f350fcb0c,Arnhem Central Station (Sonsbeekzijde),51.985608,5.899662,AHM,,,,,,,Europe/Amsterdam,
dcbb8990-9603-11e6-9066-549f350fcb0c,Arnsberg train station,51.405015,8.066429,AR,,,,,,,Europe/Berlin,
a20cca35-c7fe-4d78-ad73-1156c7b553d3,Arpajon,48.586603,2.245392,ARP,,,,,,,Europe/Paris,
dcbbe36f-9603-11e6-9066-549f350fcb0c,Aschaffenburg (Goldbacher Straße),49.977752,9.14962,AB,,,,,,,Europe/Berlin,
bbcee08c-94fa-4bd6-b360-9c3d2123ffca,Ascoli Piceno,42.855251,13.588037,APC,,,,,,,Europe/Rome,
2eb47123-768c-461f-b073-1fa9a1645611,Assisi (Santa Maria degli Angeli),43.059353,12.585207,ASM,,,,,,,Europe/Rome,
dcc12b48-9603-11e6-9066-549f350fcb0c,Aubagne (Bus Station),43.295477,5.565252,AUB,,,,,,,Europe/Paris,
8febd745-c88e-4b5d-aa49-a55124236425,Aue station,50.590779,12.698353,AUE,,,,,,,Europe/Berlin,
dcbb0c6a-9603-11e6-9066-549f350fcb0c,Augsburg (Augsburg P+R Nord),48.40172,10.877042,A,,,,,,,Europe/Berlin,
2b5f7a42-d7b3-4b13-9a53-291c704c9165,Augusta,37.251433,15.204499,AUT,,,,,,,Europe/Rome,
c3f20e88-0583-4a4e-a4b2-8e845ef72212,"Augustów, Wojska Polskiego, Orlen/Kaufland",53.837979,22.973083,AUW,,,,,,,Europe/Warsaw,
1fd4fd86-b2bb-4aa7-be2a-7b71f76fbc0d,Auray - Pluneret,47.66805,-2.955151,AUP,,,,,,,Europe/Paris,
0c2e5797-e596-4290-8f38-2140d423ac65,Autohof Berg,50.371649,11.788589,AUG,,,,,,,Europe/Berlin,
0f5f3b5e-cea0-4fb1-ae50-f39396f5a27f,Autohof Bünde,52.192819,8.557109,BUN,,,,,,,Europe/Berlin,
306d4a5b-e041-49af-978c-a6a6c377c91f,Autohof Sangerhausen,51.450184,11.305396,AHSA,,,,,,,Europe/Berlin,
dcc12e73-9603-11e6-9066-549f350fcb0c,Auxerre,47.796624,3.584503,AUX,,,,,,,Europe/Paris,
5ce7c246-9c0e-4c34-959f-fcd32924b874,Aveiro  (Bus Station),40.644193,-8.639249,AVI,,,,,,,Europe/Lisbon,
dcc53821-9603-11e6-9066-549f350fcb0c,Avellino,40.923186,14.819069,AVL,,,,,,,Europe/Rome,
ae69bae9-4375-4486-847a-51c1559f944d,Avetrana,40.350977,17.723404,AVE,,,,,,,Europe/Rome,
5e38934e-b81c-43da-a1a0-f434cd944625,Avezzano,42.040766,13.42656,AVZ,,,,,,,Europe/Rome,
85fa00a5-63d1-44cd-b8be-a96eb0efa7d7,Aviemore (Railway Station),57.188083,-3.829272,AVIE,,,,,,,Europe/London,
7c9b9a0b-7ab5-4a64-ab85-5bb90bb23515,Avignon (Le Pontet),43.960626,4.855938,ALP,,,,,,,Europe/Paris,
dcc13025-9603-11e6-9066-549f350fcb0c,Avranches,48.689876,-1.369842,AVR,,,,,,,Europe/Paris,
dcbc038d-9603-11e6-9066-549f350fcb0c,Baabe (Rügen),54.36314,13.705249,BAA,,,,,,,Europe/Berlin,
a45e2a5a-4204-43c2-85a2-efc6f9ce858c,Babina Greda,45.115986,18.537808,BGR,,,,,,,Europe/Zagreb,
73168140-b0e3-45da-8d4c-d00c3098409b,Babina greda AC,45.115868,18.538962,QBAG,,,,,,,Europe/Zagreb,
c377dfb7-cc18-4060-9c72-4ce967ff97ef,Bacău (bus station Bistrita),46.571717,26.920485,BCU,,,,,,,Europe/Bucharest,
dcbfaf29-9603-11e6-9066-549f350fcb0c,Bad Doberan central bus station,54.108674,11.904997,DBR,,,,,,,Europe/Berlin,
96432898-7263-4cc0-b124-3bf757cefea9,Bad Hersfeld (FlixTrain),50.869892,9.716174,FBHF,,,,,,,Europe/Berlin,
7d46e3bc-8244-43aa-ab9e-ec45b5a857e1,Bad Oeynhausen (Sültebusch),52.205867,8.793333,BOH,,,,,,,Europe/Berlin,
d9cad23d-ae0c-4772-8f39-f7962d2c77f8,Bad Salzuflen central bus station,52.081957,8.748648,BSZ,,,,,,,Europe/Berlin,
a68f8102-37d2-452b-bf2a-a19e8ab4024c,Bad Schandau station (Nationalparkbahnhof),50.919438,14.138547,BSH,,,,,,,Europe/Berlin,
3206878f-013f-461c-9b14-825058cf6b33,Badajoz (Bus Station),38.866735,-6.974156,BDJ,,,,,,,Europe/Madrid,
dcc5fe86-9603-11e6-9066-549f350fcb0c,Baden-Baden (station),48.789499,8.191384,BAD,,,,,,,Europe/Berlin,
5b079070-eefc-43a2-a0c9-a391e0f20fc6,Baia Mare (Autogara Imperativ),47.648657,23.551498,BMR,,,,,,,Europe/Bucharest,
fb44259c-826e-4f9a-9988-f71fb6a8d34f,Balchik Bus Station,43.427821,28.160878,BLCH,,,,,,,Europe/Sofia,
347403ab-4a25-4839-b67d-3927046cf2e4,Balș (Monument),44.345962,24.119641,BPO,,,,,,,Europe/Bucharest,
dcbb23f9-9603-11e6-9066-549f350fcb0c,Bamberg train station,49.901694,10.900172,BA,,,,,,,Europe/Berlin,
aa675714-37a1-4c1f-8660-5f37ad6bc809,Bandol,43.137497,5.760744,BDL,,,,,,,Europe/Paris,
6fe36f5f-bc28-4856-97af-46f062924f6f,Bannemin,54.066068,13.85234,BAE,,,,,,,Europe/Berlin,
dcbf9414-9603-11e6-9066-549f350fcb0c,Bansin station (Usedom),53.964172,14.130538,BAN,,,,,,,Europe/Berlin,
b17f1b28-f048-4b96-aea5-69dff3946f59,Banská Bystrica (bus station),48.734613,19.158438,BBY,,,,,,,Europe/Bratislava,
dcc34bb9-9603-11e6-9066-549f350fcb0c,Barcelona (Bus Terminal Nord),41.394181,2.182959,BAC,,,,,,,Europe/Madrid,
329b68ec-ca3f-468f-9ec1-dacaaed74bd1,Barcelos (Bus Station),41.534831,-8.606825,BLO,,,,,,,Europe/Lisbon,
f9e9cea2-af07-4879-81e1-ded78d0a2294,Bardejov (bus station),49.297147,21.282134,BJV,,,,,,,Europe/Bratislava,
da5a9175-a054-4998-bc96-899ce4d425e9,Bardolino,45.546843,10.724347,BDO,,,,,,,Europe/Rome,
dcc051e2-9603-11e6-9066-549f350fcb0c,Bari (Via Capruzzi),41.11703,16.87138,IBA,,,,,,,Europe/Rome,
dcc3bc31-9603-11e6-9066-549f350fcb0c,Barletta,41.308405,16.289453,BTA,,,,,,,Europe/Rome,
086064da-8914-415f-83cc-8d6a087f5ed2,Basel Bad (FlixTrain),47.567793,7.606924,RB,,,,,,,Europe/Zurich,
dcbf8dd0-9603-11e6-9066-549f350fcb0c,Basel Euroairport FR,47.600729,7.531714,BEA,,,,,,,Europe/Paris,
dcbc827f-9603-11e6-9066-549f350fcb0c,Basel SBB (Meret Oppenheim-Street),47.546467,7.587736,BAS,,,,,,,Europe/Zurich,
7b4d9489-c0f1-4eba-b86a-b36c2645795c,Baska Voda,43.356488,16.956034,BVO,,,,,,,Europe/Zagreb,
dcc3b54d-9603-11e6-9066-549f350fcb0c,Bastogne (Gare Sud),49.999779,5.709641,BTG,,,,,,,Europe/Brussels,
bf4a06c8-ff58-446c-89d5-ac02fb87c676,Battipaglia (Ospedale),40.613778,14.972585,PLI,,,,,,,Europe/Rome,
9b6b09c2-3ecb-11ea-8017-02437075395e,"Bauska, Bus Station",56.407061,24.196072,BA5,,,,,,,Europe/Riga,
dcc05096-9603-11e6-9066-549f350fcb0c,Bautzen (August-Bebel-Platz),51.176247,14.432821,BAU,,,,,,,Europe/Berlin,
dcc1317e-9603-11e6-9066-549f350fcb0c,Bayonne (Quai de Lesseps),43.497877,-1.478955,BAY,,,,,,,Europe/Paris,
dcbae41c-9603-11e6-9066-549f350fcb0c,Bayreuth central train station,49.951106,11.577908,BT,,,,,,,Europe/Berlin,
710ffed2-c072-4f18-b2ff-2502390f7a18,Baćina,43.080362,17.388564,QBAC,,,,,,,Europe/Zagreb,
dcc4de52-9603-11e6-9066-549f350fcb0c,Baška,44.971836,14.755879,QBK,,,,,,,Europe/Zagreb,
80d7de21-61d2-4581-abb3-3c6aac319d76,Baško Polje,43.351179,16.961558,QBP,,,,,,,Europe/Zagreb,
d462f8e5-8f23-4279-ad4e-ece20c2d2ef3,Beaune (Péage Sud),47.00318,4.854347,BBE,,,,,,,Europe/Paris,
9b68fe40-3ecb-11ea-8017-02437075395e,Beauvais Sud (Délie),49.410446,2.113453,BVS,,,,,,,Europe/Paris,
301999c1-4cc2-4ec0-bb56-1bf72ff73229,Beclean,47.176554,24.180827,BEC,,,,,,,Europe/Bucharest,
e65856e6-9972-4783-9485-77b80b450541,Bedenica,46.035297,16.24526,BED,,,,,,,Europe/Zagreb,
dcc5f982-9603-11e6-9066-549f350fcb0c,Beelen (marketplace),51.930129,8.117522,BEE,,,,,,,Europe/Berlin,
d7a03c36-faad-4dd6-b83e-d0d44b4d178c,Beja,38.00976,-7.859343,BEJ,,,,,,,Europe/Lisbon,
256aec5a-377c-45b2-84a1-a7ff06ac459c,Beketinci autobusno stajalište,45.461203,18.517594,ZBN,,,,,,,Europe/Zagreb,
dcc132e7-9603-11e6-9066-549f350fcb0c,Belfort,47.629696,6.856167,BFT,,,,,,,Europe/Paris,
c17eed68-17b3-421f-a8f4-3f3786cb4fca,Belgrade bus station,44.810284,20.454158,BEO,,,,,,,Europe/Belgrade,
8919895d-ee91-45c1-a949-c5750a193dab,Beli Manastir,45.765535,18.596822,BMN,,,,,,,Europe/Zagreb,
ce7bef73-35d2-43c3-bbc2-b03657f91a64,Bellegarde - Valserhône (Péage),46.115109,5.794905,BGP,,,,,,,Europe/Paris,
41a6de9d-be75-4625-98ce-e281dee065b1,Bellinzona (Arbedo- Castione station),46.223756,9.041916,AEC,,,,,,,Europe/Zurich,
5b73c206-0111-47c6-b432-e6e1974c44f0,Belvedere Marittimo,39.635092,15.843211,BMT,,,,,,,Europe/Rome,
bc475f9e-4baf-4757-bfa1-0642bff9c90d,Benavente (Bus Station),41.999163,-5.677168,BNA,,,,,,,Europe/Madrid,
dcc5390d-9603-11e6-9066-549f350fcb0c,Benevento,41.131499,14.782848,BNV,,,,,,,Europe/Rome,
c7d5c43d-c243-4a09-813b-e526de1a3c12,Benidorm (Bus Station),38.548831,-0.124099,BNR,,,,,,,Europe/Madrid,
add5f613-1bdd-40eb-9b6f-def121e73bdd,Bensheim (FlixTrain),49.681167,8.616724,FBH,,,,,,,Europe/Berlin,
2b8ea7e4-3b1d-4a47-9547-aa5def3c3d93,Beravci 1 aut. stajalište,45.152402,18.438493,ZB1,,,,,,,Europe/Zagreb,
dcc45a6f-9603-11e6-9066-549f350fcb0c,Bergamo (Orio al Serio Airport - BGY),45.665814,9.697448,BGY,,,,,,,Europe/Rome,
dcbbfc7d-9603-11e6-9066-549f350fcb0c,Bergen auf Rügen,54.411749,13.431624,RUG,,,,,,,Europe/Berlin,
99e9d2d9-efae-4659-bdd1-391451505e9f,Berinovac,43.439343,17.105221,WBE,,,,,,,Europe/Zagreb,
dcbaaee6-9603-11e6-9066-549f350fcb0c,Berlin central bus station,52.507171,13.279399,B,,,,,,,Europe/Berlin,
dcc0604a-9603-11e6-9066-549f350fcb0c,Bern (Neufeld car terminal),46.963711,7.433698,BER,,,,,,,Europe/Zurich,
9b694820-3ecb-11ea-8017-02437075395e,Beroun (bus station),49.957618,14.074583,B3RN,,,,,,,Europe/Prague,
dcc1345c-9603-11e6-9066-549f350fcb0c,Besançon,47.246911,6.022603,BSN,,,,,,,Europe/Paris,
cb605261-cefe-4a9d-bfc2-3f1961cb8c94,Betina (Murter),43.82285,15.603528,BETN,,,,,,,Europe/Zagreb,
37c2c3d4-600e-402f-9556-9b8ae729d5a3,Bettolle,43.208529,11.801983,BTV,,,,,,,Europe/Rome,
cb7760ae-0c67-4c6b-a1ad-4fff78ec6f01,Bełchatów Szpital,51.375548,19.34844,BPI,,,,,,,Europe/Warsaw,
93b82368-69de-45f4-989d-3116c987692e,Biarritz (Halle Iraty),43.466097,-1.539247,BIAR,,,,,,,Europe/Paris,
f6576003-9683-4f21-9e28-c477f942f67f,"Białka Tatrzańska, Szkoła",49.38957,20.105094,BKA,,,,,,,Europe/Warsaw,
6750d2d0-3a20-463e-a0ff-917e71a32ca5,"Białogóra, ul. Osiedlowa",54.81485,17.96237,BAR,,,,,,,Europe/Warsaw,
e383decd-d064-423a-ab3b-600e6023edde,"Białystok, Bus Station",53.132833,23.135389,BIK,,,,,,,Europe/Warsaw,
dcc4cecf-9603-11e6-9066-549f350fcb0c,Bibinje,44.067657,15.292669,QBB,,,,,,,Europe/Zagreb,
5f9b291f-8890-4951-a0c6-cedb1e9a1469,Bibione (Bus Station),45.639106,13.053926,BIB,,,,,,,Europe/Rome,
dde40096-5b4f-40e0-878b-9c412cac88ea,Bicaz,46.908672,26.099037,BCZ,,,,,,,Europe/Bucharest,
dcbc5a46-9603-11e6-9066-549f350fcb0c,Bielefeld Brackwede train station,51.997974,8.499713,BI,,,,,,,Europe/Berlin,
7fd077ce-bf03-415d-988a-b4206eff3040,Bielefeld Central Station (FlixTrain),52.029313,8.53315,EBIL,,,,,,,Europe/Berlin,
9b6a55cb-3ecb-11ea-8017-02437075395e,Bielsk Podlaski,52.761876,23.189189,BID,,,,,,,Europe/Warsaw,
126792a4-71c5-452e-b04e-da7d7d8ce4cb,"Bielsko-Biała, Dworzec Autobusowy - dolna płyta",49.83123,19.042995,BBL,,,,,,,Europe/Warsaw,
51a5ef9c-1847-4bb3-8e4d-09a4392e1f6b,Bila Tserkva (79km of Kyiv-Odesa Highway),49.783071,30.20083,BLTS,,,,,,,Europe/Kyiv,
3314645f-7903-4bc9-b9ef-74ff161feca2,Bilbao (Bus Station),43.261055,-2.948689,BIL,,,,,,,Europe/Madrid,
1ce6a97a-d127-47f6-b927-89b3a9c13b40,Bilje autobusno stajalište,45.604187,18.744724,TZB,,,,,,,Europe/Zagreb,
1b7f8622-19a0-4964-868c-0a043e3470c0,Billund Airport,55.74661,9.146885,BUL,,,,,,,Europe/Copenhagen,
89cca85b-bb7b-449b-816d-a6ca0ac0975f,Bilo,43.62618,15.91884,QBIL,,,,,,,Europe/Zagreb,
dcbc00f2-9603-11e6-9066-549f350fcb0c,Binz (Rügen),54.405295,13.601299,BIN,,,,,,,Europe/Berlin,
dcc4b316-9603-11e6-9066-549f350fcb0c,Biograd na Moru bus station,43.937832,15.443678,QBI,,,,,,,Europe/Zagreb,
2f98b398-3211-43fd-8257-9f6e80c06463,Biorine,43.554412,16.826298,WBR,,,,,,,Europe/Zagreb,
5b2a7b8e-2af4-49d9-bf3c-55955afc3459,Birmingham Summer Row- Great Charles Street,52.481141,-1.90619,BMD,,,,,,,Europe/London,
dcc227da-9603-11e6-9066-549f350fcb0c,Bischofsgrün (Birnstengel),50.056723,11.806513,BSG,,,,,,,Europe/Berlin,
6412a028-2672-4fd4-a6a8-afc381034d3a,Bisignano,39.510733,16.290196,BIG,,,,,,,Europe/Rome,
a95fa497-df1c-4901-86c6-de332a622422,Bistrița (bus station Heniu),47.131361,24.48379,BTT,,,,,,,Europe/Bucharest,
ba4216ae-a4cd-4531-a5e2-84f285434eea,Bivio Cantinella,39.663273,16.450743,CLL,,,,,,,Europe/Rome,
7c0aada5-24c4-4a16-b87c-08bf8ea976a6,Bjelovar AS,45.89478,16.84498,ZBE,,,,,,,Europe/Zagreb,
e257f7dd-a580-4bcc-a179-d1dd6afbed16,Bjerkreim E39,58.584574,6.069981,BJKM,,,,,,,Europe/Oslo,
9b68df58-3ecb-11ea-8017-02437075395e,Blagoevgrad Central Bus Terminal,42.012961,23.087043,BOW,,,,,,,Europe/Sofia,
3c79e594-51a2-4b69-85f6-3acd926c7586,Blankaholm Vägskäl E22,57.589655,16.486022,BKH,,,,,,,Europe/Stockholm,
dcc3fe15-9603-11e6-9066-549f350fcb0c,Bled bus station,46.371189,14.106885,BLD,,,,,,,Europe/Ljubljana,
193429b9-df93-4902-90a1-1c24f9ed3933,Blois (Bus Station),47.586958,1.324166,BLS,,,,,,,Europe/Paris,
9b6bb3bf-3ecb-11ea-8017-02437075395e,Bobolice,53.95434,16.587395,BBI,,,,,,,Europe/Warsaw,
dcbff634-9603-11e6-9066-549f350fcb0c,Bocholt bus station,51.83407,6.620218,BOC,,,,,,,Europe/Berlin,
dcbaefef-9603-11e6-9066-549f350fcb0c,Bochum central station (Wittener Straße),51.47931,7.22485,BO,,,,,,,Europe/Berlin,
46b4bcfe-89af-4670-b670-616948f96e27,"Bogatynia, ul. Daszyńskiego (teren dworca PKS)",50.905744,14.957184,BGI,,,,,,,Europe/Warsaw,
a628d74b-5da3-491c-aa9d-eb5b92678a4c,"Bolesławiec, Dworzec Autobusowy",51.2649,15.558993,BLW,,,,,,,Europe/Warsaw,
9af90e65-a3c3-4481-afce-4329023da5ba,Bollène (Péage),44.289407,4.750713,BLL,,,,,,,Europe/Paris,
dcc03216-9603-11e6-9066-549f350fcb0c,Bologna (central bus station),44.50399,11.346852,BOL,,,,,,,Europe/Rome,
82c2031d-4239-44c3-86b2-2755b1491990,Bolzano South (Stazione FS),46.473782,11.326356,BLZ,,,,,,,Europe/Rome,
dcbb9d17-9603-11e6-9066-549f350fcb0c,Bonn UN Campus (Museumsmeile),50.712671,7.120409,BN,,,,,,,Europe/Berlin,
dcc55f92-9603-11e6-9066-549f350fcb0c,Borca di Cadore,46.43578,12.223588,BOR,,,,,,,Europe/Rome,
dcc06cc2-9603-11e6-9066-549f350fcb0c,Bordeaux Saint-Jean (Paludate),44.82975,-0.553934,BDX,,,,,,,Europe/Paris,
6737feb5-5ed0-4055-927c-07e76bc6a754,Bordighera,43.779392,7.662813,IGH,,,,,,,Europe/Rome,
442c1916-435c-4c69-9189-ba4a18e0a215,Borghetto S.Spirito (Lungomare),44.114734,8.246749,BGH,,,,,,,Europe/Rome,
dcbff510-9603-11e6-9066-549f350fcb0c,Borken train station,51.849038,6.864717,BRK,,,,,,,Europe/Berlin,
dcbfe4c9-9603-11e6-9066-549f350fcb0c,Born a. Darss (Mitte),54.387507,12.532119,BOD,,,,,,,Europe/Berlin,
2d091e3d-4c16-46a8-bd25-dae2a5b1c7b0,Borovo,45.401837,18.978261,XBO,,,,,,,Europe/Zagreb,
9ad9397d-e5a2-4b33-8765-3a86101763e5,Borås (Resecentrum) Flixbus Stop,57.720123,12.931395,BOS,,,,,,,Europe/Stockholm,
dcc4cbef-9603-11e6-9066-549f350fcb0c,Bosiljevo,45.410931,15.289252,QBS,,,,,,,Europe/Zagreb,
f22a1869-b0da-4e62-8bb8-83b13e5d320b,Botoșani (bus station),47.752634,26.64343,BSI,,,,,,,Europe/Bucharest,
dcc0af4f-9603-11e6-9066-549f350fcb0c,Bourges (central bus station),47.082474,2.386704,BOU,,,,,,,Europe/Paris,
9b69e5b5-3ecb-11ea-8017-02437075395e,Bradford Nelson Street,53.790631,-1.752577,BRF,,,,,,,Europe/London,
bc68b3d1-bfe0-49a9-88d1-88eb6d4ffd35,Braga (Centro de Transportes),41.555317,-8.425437,BRR,,,,,,,Europe/Lisbon,
19f7658f-0b83-4321-ac89-1ff1d9f88c3e,Branjin Vrh autobusno stajalište,45.794054,18.612594,ZBB,,,,,,,Europe/Zagreb,
dcc2cb4f-9603-11e6-9066-549f350fcb0c,Bratislava (bus station Mlynské Nivy),48.14679,17.128865,BTS,,,,,,,Europe/Bratislava,
dcc2a3d7-9603-11e6-9066-549f350fcb0c,Brașov (bus station Bartolomeu),45.659787,25.570016,QBV,,,,,,,Europe/Bucharest,
dcc219cc-9603-11e6-9066-549f350fcb0c,Breda Prinsenbeek,51.604088,4.723247,BRP,,,,,,,Europe/Amsterdam,
dcc06f26-9603-11e6-9066-549f350fcb0c,Breda central train station,51.596493,4.778302,BRE,,,,,,,Europe/Amsterdam,
dcbbd055-9603-11e6-9066-549f350fcb0c,Bregenz bus station,47.501994,9.739115,BGZ,,,,,,,Europe/Vienna,
9b69dd26-3ecb-11ea-8017-02437075395e,Brela,43.376119,16.92338,QBRE,,,,,,,Europe/Zagreb,
dcbb3fe6-9603-11e6-9066-549f350fcb0c,Bremen Fernbusterminal,53.084008,8.807204,HB,,,,,,,Europe/Berlin,
dcc0221c-9603-11e6-9066-549f350fcb0c,Brescia (SAIA bus station),45.533056,10.214444,BSC,,,,,,,Europe/Rome,
dcc13984-9603-11e6-9066-549f350fcb0c,Brest,48.38696,-4.48381,BST,,,,,,,Europe/Paris,
44342791-6e91-4b65-b28e-fc0d54277bc2,Breznički Hum,46.104337,16.280673,WBH,,,,,,,Europe/Zagreb,
2508c8e9-bdff-473c-8417-54e4dae03a36,Brezno (bus station),48.802071,19.629543,B1Z,,,,,,,Europe/Bratislava,
f3c3dfb2-35fa-49b0-b0df-332223447b15,Bridgend-Sarn,51.532104,-3.573363,BGW,,,,,,,Europe/London,
dcc1a425-9603-11e6-9066-549f350fcb0c,Brindisi,40.624179,17.929451,BRD,,,,,,,Europe/Rome,
9b6b7cb9-3ecb-11ea-8017-02437075395e,Bristol (Bond Street North),51.459513,-2.588487,BIO,,,,,,,Europe/London,
dcc543af-9603-11e6-9066-549f350fcb0c,Brive-la-Gaillarde (Centre Commercial Ouest),45.145925,1.482554,BGO,,,,,,,Europe/Paris,
dcbcb138-9603-11e6-9066-549f350fcb0c,Brixen/Vahrn (Bressanone/Varna),46.764069,11.642823,BZX,,,,,,,Europe/Rome,
dcc5b203-9603-11e6-9066-549f350fcb0c,Brno (bus station Hotel Grand),49.19341,16.614258,BNN,,,,,,,Europe/Prague,
9b689b6b-3ecb-11ea-8017-02437075395e,Brodarica aut. stajalište,43.681168,15.916505,QBRD,,,,,,,Europe/Zagreb,
dcc07028-9603-11e6-9066-549f350fcb0c,Bruges (Station Brugge),51.195501,3.216274,BRG,,,,,,,Europe/Brussels,
dcbae1a6-9603-11e6-9066-549f350fcb0c,Brunswick central station,52.251194,10.536665,BS,,,,,,,Europe/Berlin,
1c691f12-6f01-46ab-aca0-c5835c365228,Brussels Heysel (Baudouin Metro Station),50.897336,4.329521,BHY,,,,,,,Europe/Brussels,
dcbf8bd9-9603-11e6-9066-549f350fcb0c,Brussels-North train station,50.861947,4.358561,BNO,,,,,,,Europe/Brussels,
6aae34ac-9e9c-48bb-b1d4-2cac96649e9f,"Brzeg, Dworzec Autobusowy",50.853536,17.471993,BRZ,,,,,,,Europe/Warsaw,
9b6a8fc8-3ecb-11ea-8017-02437075395e,"Brzesko, dworzec autobusowy",49.971578,20.616378,BRZE,,,,,,,Europe/Warsaw,
f3fe478e-2678-4971-b5db-69340a906ba7,"Brzozów, Dworzec Autobusowy",49.694513,22.020491,BOO,,,,,,,Europe/Warsaw,
e1c71267-f21e-438b-b2b2-b4cf7e201e8a,Brăila (bus station PAX),45.280276,27.95603,BRL,,,,,,,Europe/Bucharest,
dcc4df4f-9603-11e6-9066-549f350fcb0c,Bršadin,45.362963,18.917465,QBD,,,,,,,Europe/Zagreb,
54c7a569-1af8-4252-aa35-eba0ff50b89b,Bucharest (bus station Militari),44.43294,26.006273,BM,,,,,,,Europe/Bucharest,
9752a5b0-1a7f-4545-b059-b4978533977b,Buching (center),47.61749,10.80781,BUC,,,,,,,Europe/Berlin,
dcbcd0d8-9603-11e6-9066-549f350fcb0c,Budapest Népliget bus station,47.474306,19.0985,BUD,,,,,,,Europe/Budapest,
8c1333d4-4636-4acc-91a9-cf8130828aab,Budimiri,43.565424,16.808407,WBU,,,,,,,Europe/Zagreb,
48c384dc-285d-4d6e-ae87-0fbfad8bb3cb,Bukovlje,45.184925,18.070113,QBJ,,,,,,,Europe/Zagreb,
5ba51949-db24-447c-8b7f-7e7c0acd910b,Bukowiec,49.311938,22.410679,BUI,,,,,,,Europe/Warsaw,
edd7306d-6c61-4251-844a-8bd4a0e42352,"Bukowina Tatrzańska, Kościuszki (Klin 06 i 07)",49.330278,20.097081,BT2,,,,,,,Europe/Warsaw,
b0d5b93c-4687-41c8-bf78-59dc999275d6,Bumbești-Jiu (vis-à-vis de Spital),45.180529,23.379063,BUJ,,,,,,,Europe/Bucharest,
acbb1926-1e7e-430d-a3cc-0edbd64d2cb5,Burgos (Bus Station),42.338244,-3.701226,BUG,,,,,,,Europe/Madrid,
9b69ce00-3ecb-11ea-8017-02437075395e,Bus Station Byala,42.875724,27.88328,BYLA,,,,,,,Europe/Sofia,
860dde6d-b297-4fec-9646-776d166d60d6,"Busko-Zdrój, dworzec autobusowy",50.460436,20.705597,BZD,,,,,,,Europe/Warsaw,
b8e2579f-d457-4e25-90f7-ce4cf4d31859,Busto Arsizio,45.632304,8.84514,BUT,,,,,,,Europe/Rome,
3e21bc1c-0e49-4df5-982f-cce981f76295,Buzău (bus station Nord),45.162924,26.814612,BUZ,,,,,,,Europe/Bucharest,
dcbccbe5-9603-11e6-9066-549f350fcb0c,"Bydgoszcz, dworzec autobusowy",53.122021,18.017502,BYD,,,,,,,Europe/Warsaw,
9b6a6c59-3ecb-11ea-8017-02437075395e,"Bytów, ul. Kochanowskiego",54.170498,17.486777,BYW,,,,,,,Europe/Warsaw,
c1db2403-fcc1-4b38-8e78-25d35dc6ce29,Bánovce nad Bebravou (bus station),48.721961,18.253106,B2B,,,,,,,Europe/Bratislava,
9554804a-78cc-4946-b62c-d52e82287850,Bârlad (bus station Romdantrans),46.215584,27.673227,BLE,,,,,,,Europe/Bucharest,
9b6b5196-3ecb-11ea-8017-02437075395e,Béziers (SNCF Station),43.336576,3.220587,BZR,,,,,,,Europe/Paris,
dcc06b80-9603-11e6-9066-549f350fcb0c,Böblingen central bus station,48.686504,9.003186,BB,,,,,,,Europe/Berlin,
dcbc50bf-9603-11e6-9066-549f350fcb0c,Bödefeld,51.249772,8.394026,BDF,,,,,,,Europe/Berlin,
ba91bf57-4f15-4b7e-8e1e-a0d2a0eba8cb,Băile Herculane (Railway station),44.863203,22.387981,BHE,,,,,,,Europe/Bucharest,
485f39fd-7bfb-4fb5-8437-50eebd3f0e74,C4T All4Trucks (Pre UK Check),50.941997,1.93326,C4T,,,,,,,Europe/Paris,
19658f4b-948c-4cd7-8445-328c9a5433f5,Cabourg,49.294182,-0.106584,CBG,,,,,,,Europe/Paris,
4cdcb3ee-709f-40de-9914-a91bb4617c25,Caceres (Bus Station),39.460171,-6.382407,CSR,,,,,,,Europe/Madrid,
dcc13bcd-9603-11e6-9066-549f350fcb0c,Caen (central bus station),49.176488,-0.346787,CAE,,,,,,,Europe/Paris,
e104cded-75d2-4235-96ab-1ae0520e2e07,Cagnano Varano,41.825085,15.776537,AGO,,,,,,,Europe/Rome,
a4c10f70-162a-47ab-ac75-a5032791e957,Cahors,44.451408,1.439587,CAH,,,,,,,Europe/Paris,
a3e359c9-60e7-4dc5-94e9-0c7564a444da,Calafat (high school Independenta),43.990434,22.940579,CFT,,,,,,,Europe/Bucharest,
dcc13e03-9603-11e6-9066-549f350fcb0c,Calais (P&O Ferry),50.97456,1.87865,CPO,,,,,,,Europe/Paris,
d6842b7f-90fb-4a4a-a2f3-7f9b2c7b2d90,Caldas da Rainha (Bus Station),39.405868,-9.134818,RAI,,,,,,,Europe/Lisbon,
d26edcf8-e382-4e7c-a22c-19983aa2a71d,Calopezzati,39.578822,16.819171,CZZ,,,,,,,Europe/Rome,
cf8b0df5-4b56-4a08-873c-107a732486d8,Caltanissetta (Via Rochester),37.487484,14.05809,TTA,,,,,,,Europe/Rome,
a0a50227-d81d-4431-aebc-78626e527511,Cambridge (Trumpington Park and Ride),52.167398,0.107904,CTPR,,,,,,,Europe/London,
d392ec80-b147-47b3-ab27-54eb622d76d4,Caminha,41.877311,-8.839837,AHH,,,,,,,Europe/Lisbon,
ba95794d-32f9-47fb-9d1c-40adfd799ab1,Campobasso,41.558568,14.66939,CMB,,,,,,,Europe/Rome,
4b065faf-55c1-4e05-8bcc-3c2f6f5ca4b1,Candela (distr.AGIP),41.149817,15.526915,CND,,,,,,,Europe/Rome,
818fb349-0836-4573-9844-913b1bcdc5f1,Canicattì,37.355844,13.849981,CCT,,,,,,,Europe/Rome,
64f3ab00-d8a7-442f-91f9-ff62cdd55349,Cannes (Le Cannet),43.570703,7.014855,CNN,,,,,,,Europe/Paris,
78e263f0-b4d1-4185-87e4-02dc56862a9b,Caporice,43.59566,16.730939,WCA,,,,,,,Europe/Zagreb,
575878e7-95eb-4b29-8944-46a4daff79eb,Caracal (ROMVAG parking lot),44.108141,24.367568,CCA,,,,,,,Europe/Bucharest,
e0e3ea8d-ab76-425d-8c12-8e2fe2b5f14d,Caransebeș (bus station Nadina),45.408885,22.223617,CNA,,,,,,,Europe/Bucharest,
dcc07247-9603-11e6-9066-549f350fcb0c,Carcassonne,43.215458,2.347785,CAR,,,,,,,Europe/Paris,
efed9747-2b35-4f24-8a85-b90401ec5b35,Cardiff Royal Welsh College of Music,51.486791,-3.183915,CGF,,,,,,,Europe/London,
51af1111-942b-48b7-9a08-e179cbbf3fd8,Carei (vis-à-vis Policlinica/Spitalul Municipal),47.681754,22.464885,CAI,,,,,,,Europe/Bucharest,
f21eda77-5971-4799-a2f9-682f6b5a0347,Cariati,39.50661,16.93651,CTI,,,,,,,Europe/Rome,
6dc7b9e1-2d18-41d3-9f44-a829cf39da58,Carlisle (Halston Hotel),54.892722,-2.931916,CRLS,,,,,,,Europe/London,
ef38c719-8c0b-4590-b143-66d324cef577,Casamassima,40.958918,16.917231,SSI,,,,,,,Europe/Rome,
f984ff9b-e0fe-45f9-85c2-7a53d1ddc454,Cascais (Alcabideche),38.737523,-9.394962,CAX,,,,,,,Europe/Lisbon,
dcc31259-9603-11e6-9066-549f350fcb0c,Caserta,41.068959,14.326765,CAS,,,,,,,Europe/Rome,
dcc5e4fd-9603-11e6-9066-549f350fcb0c,Cassino,41.485309,13.832052,CSI,,,,,,,Europe/Rome,
238051fe-c5cd-4a2b-8b4f-ab2d43d4a9fe,Castelo Branco (Bus Station),39.818732,-7.489239,CBS,,,,,,,Europe/Lisbon,
9b6818fb-3ecb-11ea-8017-02437075395e,Castets,43.877078,-1.143187,CTX,,,,,,,Europe/Paris,
52655aad-5268-43fc-bd78-63ed53478504,Castrovillari,39.817408,16.200213,CVL,,,,,,,Europe/Rome,
073d9b2c-d715-4265-99ee-7add178b747b,Catania (Via D'Amico),37.508701,15.099201,NTA,,,,,,,Europe/Rome,
d5fcab08-3a32-4b47-9499-c6ad1a4ee4f8,Catanzaro,38.905359,16.580895,CTZ,,,,,,,Europe/Rome,
66bf23b1-6f91-4c40-9c76-8ce76a695cb9,Cattolica,43.963114,12.739627,CTT,,,,,,,Europe/Rome,
386ac306-9e57-46e0-84cb-263d0f9d14ab,Cavalaire-sur-Mer,43.173156,6.532728,CLM,,,,,,,Europe/Paris,
a716d318-506f-45b0-98e2-1cbc6fea8a99,Cefalù (Via Gramsci),38.033375,14.0202,CFL,,,,,,,Europe/Rome,
05ecca43-91a1-43f3-8e26-87cb7c78560e,Ceglie Messapica,40.646856,17.521696,CGE,,,,,,,Europe/Rome,
dcbadba6-9603-11e6-9066-549f350fcb0c,Celle central bus station,52.61989,10.06316,CE,,,,,,,Europe/Berlin,
173d6250-4c6c-40ff-a9c8-331c463a82c3,Celorico da Beira,40.62681,-7.40206,CDE,,,,,,,Europe/Lisbon,
e874be67-12eb-4c92-86b5-8f0cb078b513,Ceriale,44.092633,8.229801,CIL,,,,,,,Europe/Rome,
dcc3bf92-9603-11e6-9066-549f350fcb0c,Cerignola,41.260371,15.907776,CR,,,,,,,Europe/Rome,
91a69e30-0f4b-47dd-a23f-1c66dccbec41,Cerna autobusno stajalište,45.180591,18.692058,QCE,,,,,,,Europe/Zagreb,
9a118c51-ebd2-4072-8239-15905d27147d,Cervia,44.232356,12.368798,CVA,,,,,,,Europe/Rome,
dcc3f157-9603-11e6-9066-549f350fcb0c,Cesena Accoglienza,44.167916,12.280738,CSN,,,,,,,Europe/Rome,
dcc4a430-9603-11e6-9066-549f350fcb0c,Cesena Karl Marx,44.144858,12.248472,CSM,,,,,,,Europe/Rome,
235915d5-350a-4d43-b98c-f4206ee72e75,Cesenatico (Carducci 137),44.196924,12.408886,CCU,,,,,,,Europe/Rome,
7a7c57c3-2992-4180-aef8-76045eba6545,Cetraro Marina,39.512959,15.941738,CMA,,,,,,,Europe/Rome,
8c51cc17-cc0e-4429-b66f-35e4f88c3bbf,Chalon-sur-Saône (Bus Station),46.780992,4.844335,CSS,,,,,,,Europe/Paris,
dcc07383-9603-11e6-9066-549f350fcb0c,Chambéry (Central Bus Station),45.56998,5.91742,CHA,,,,,,,Europe/Paris,
87e7ff8e-5026-4fb1-8241-7e3e2debbeda,Chamonix,45.917132,6.867276,CMX,,,,,,,Europe/Paris,
dcc076f4-9603-11e6-9066-549f350fcb0c,Charleroi Gare du Sud,50.403772,4.437987,CHI,,,,,,,Europe/Brussels,
6fde725c-6c0c-4861-9d35-0cb778d7ee76,Chateaulin,48.21592,-4.050362,CEA,,,,,,,Europe/Paris,
478d2f61-1b41-4c82-a6cd-70c2dd5306d6,Chaves,41.740503,-7.476177,CEH,,,,,,,Europe/Lisbon,
dcc225de-9603-11e6-9066-549f350fcb0c,Cheb (bus station),50.074612,12.379693,CHB,,,,,,,Europe/Prague,
dcbb411a-9603-11e6-9066-549f350fcb0c,Chemnitz central bus station,50.84052,12.9264,C,,,,,,,Europe/Berlin,
9b6baaf9-3ecb-11ea-8017-02437075395e,Chernihiv (Chernihiv-1 Bus Station),51.485423,31.268496,CH,,,,,,,Europe/Kyiv,
9b69e9c5-3ecb-11ea-8017-02437075395e,Chernivtsi (Central Bus Station),48.264883,25.951953,CEI,,,,,,,Europe/Kyiv,
37e44672-96f0-47fc-8d37-f7a38740d2da,Chesterfield Coach Station,53.234011,-1.428652,CEF,,,,,,,Europe/London,
9b6a3d38-3ecb-11ea-8017-02437075395e,"Chełm, Al. Armii Krajowej/KFC 05 i 06",51.13705,23.468146,CEM,,,,,,,Europe/Warsaw,
dcc5f12c-9603-11e6-9066-549f350fcb0c,Chieti,42.356888,14.138587,CHT,,,,,,,Europe/Rome,
a74d76c2-af59-4418-9d09-ee525410819a,Chisinau (Airport),46.938933,28.931998,CSNU,,,,,,,Europe/Chisinau,
7bc303a3-439d-41c1-8865-bcae9ef078f7,Chivasso Centro (motorway A4 westbound),45.209846,7.889444,CVH,,,,,,,Europe/Rome,
ed85b871-d52a-45ac-930f-c4846e96cbbf,"Choczewo, Dworzec PKS",54.740299,17.891306,COZ,,,,,,,Europe/Warsaw,
3dae2d2e-a2e7-4208-85aa-370d71b94ab5,"Chojnice, Dworzec Autobusowy",53.68997,17.577116,CJC,,,,,,,Europe/Warsaw,
d6036a29-8af5-46a8-9bbc-88726d60ab64,Chomutov (bus station),50.460144,13.408781,C1H,,,,,,,Europe/Prague,
1c243da8-1c68-409c-a3c6-366fd2220b81,Chorzow (Chorzów) AKS,50.290113,18.963461,AKS,,,,,,,Europe/Warsaw,
09c22fc0-298e-4900-832c-039abb3fa9f9,"Chrzanów, Dworzec ZKKM",50.1427,19.411507,CRW,,,,,,,Europe/Warsaw,
dcbc7463-9603-11e6-9066-549f350fcb0c,Chur station train station (Bahnhofplatz),46.852917,9.529111,CHU,,,,,,,Europe/Zurich,
dd47c5e7-a30b-4fc0-a81a-d17703d46dfe,Châlons-en-Champagne (Pôle d'échanges SNCF Station),48.955118,4.348217,CCC,,,,,,,Europe/Paris,
cd652e44-4098-4328-80eb-e5251af1e76f,Château-Thierry,49.059275,3.394898,CHY,,,,,,,Europe/Paris,
dcc3ac83-9603-11e6-9066-549f350fcb0c,Châtellerault,46.833426,0.534398,CHL,,,,,,,Europe/Paris,
d9272ef2-4539-43ae-a97b-45511d8e2321,"Chłapowo, 04 i 31",54.807632,18.376019,CPZ,,,,,,,Europe/Warsaw,
0a26b33e-949c-4515-9032-a5b94b9ce75a,"Ciechocinek, dworzec autobusowy",52.880347,18.782992,CCH,,,,,,,Europe/Warsaw,
6d2ed4c4-ffbb-430c-b2df-3f36fbc7e27a,"Cieszyn, Dworzec Autobusowy",49.750566,18.638556,CIE,,,,,,,Europe/Warsaw,
01bdb24e-43df-4cd0-af1c-ea523ac49f5e,Ciriè,45.224215,7.606527,CIRI,,,,,,,Europe/Rome,
64bce092-0523-42b1-9fb9-441e7e44241f,Cirò Marina (SP 7 adiacente Eurospin),39.36853,17.113985,CMR,,,,,,,Europe/Rome,
b9c04288-6148-402f-b6e2-fa5c663f55c3,Cisna,49.213026,22.328205,CI5,,,,,,,Europe/Warsaw,
ce069c28-352c-40f3-b7ca-3114a9bd7d77,Cista Provo,43.504135,16.947754,CTP,,,,,,,Europe/Zagreb,
7b9f36b1-51f6-408e-86e1-595c5347884a,Cista Velika,43.533953,16.871852,WCV,,,,,,,Europe/Zagreb,
f028dbb7-0ad6-4bab-a7a5-3fba65acd133,Cittadella,45.651129,11.776526,CIT,,,,,,,Europe/Rome,
4c39fab4-b2a3-4e60-84f6-7854bbe40f52,Civitanova Marche (CC Cuore Adriatico),43.294422,13.703864,MRH,,,,,,,Europe/Rome,
dcc055c8-9603-11e6-9066-549f350fcb0c,Clermont-Ferrand (Bus Station),45.770757,3.082247,CLF,,,,,,,Europe/Paris,
b38263da-3618-4ac7-a0fe-7a771bb6d2fa,Cluj-Napoca (bus station Beta),46.78597,23.580822,CLJ,,,,,,,Europe/Bucharest,
dcbb069b-9603-11e6-9066-549f350fcb0c,Coblenz central train station (Neversstraße),50.349318,7.589667,KO,,,,,,,Europe/Berlin,
c9e8bf88-9d2e-46a6-a8e5-17129eb020cc,Coimbra (Rua do Padrao),40.220224,-8.439456,COI,,,,,,,Europe/Lisbon,
dcc079e9-9603-11e6-9066-549f350fcb0c,Colmar,48.073754,7.347802,COL,,,,,,,Europe/Paris,
dcc54142-9603-11e6-9066-549f350fcb0c,Cologne Airport CGN (Terminal 2),50.881001,7.117833,CGN,,,,,,,Europe/Berlin,
9b6bf8b3-3ecb-11ea-8017-02437075395e,Comiso (Via Ghandi),36.953932,14.602013,GHD,,,,,,,Europe/Rome,
ffef7a6f-c7b7-4576-88ba-6a73770f0ac9,Como,45.80898,9.073305,CMO,,,,,,,Europe/Rome,
31012995-c9e3-4198-8ae1-facee6a2e57e,Compiègne Sud (Péage - Covoiturage),49.321538,2.697519,CPS,,,,,,,Europe/Paris,
69cd1e5e-b143-4b9c-a416-9e4793ccb8c8,Concarneau Nord,47.922,-3.901626,CNO,,,,,,,Europe/Paris,
dcbab50a-9603-11e6-9066-549f350fcb0c,Constance Allmannsdorf,47.682148,9.202582,KNA,,,,,,,Europe/Berlin,
cb775ddd-34c7-4702-b393-fba3f56b9785,Constance central bus station,47.672084,9.163411,KNZ,,,,,,,Europe/Berlin,
12ce502a-9269-4323-b08a-b0ab6d452d69,Constanța (bus station Sud),44.170542,28.632342,COE,,,,,,,Europe/Bucharest,
dcbd0b4b-9603-11e6-9066-549f350fcb0c,Copenhagen central train station (Ingerslevsgade),55.670153,12.565466,KHG,,,,,,,Europe/Copenhagen,
612c61e7-ed36-4f93-9ec2-90bb292e2288,Corato,41.158658,16.402105,COT,,,,,,,Europe/Rome,
1979f5ae-9e90-4ca5-bc29-58e6d0020e73,Cordoba (Bus Station),37.888981,-4.789924,CRD,,,,,,,Europe/Madrid,
bde89194-135a-4432-97eb-078cd5966694,Corigliano (Distributore AGIP),39.624242,16.516243,CGR,,,,,,,Europe/Rome,
4cff9210-8924-4eb8-8315-2eb842344c14,Cormano - Cusano Milanino (motorway A4 westbound),45.541907,9.176725,NLM,,,,,,,Europe/Rome,
dcc569ad-9603-11e6-9066-549f350fcb0c,Cortina d'Ampezzo,46.53906,12.137848,COR,,,,,,,Europe/Rome,
7ff08cfb-3f3f-4b2e-867f-e35b7c2452cf,Cosenza (Autostazione),39.304464,16.253361,COS,,,,,,,Europe/Rome,
5324b879-7145-4d4e-b116-048599222487,Cosne-Cours-sur-Loire (Zone commerciale),47.382562,2.915838,CCL,,,,,,,Europe/Paris,
dcc07b19-9603-11e6-9066-549f350fcb0c,Cottbus bus station,51.75047,14.327465,CB,,,,,,,Europe/Berlin,
dcc47766-9603-11e6-9066-549f350fcb0c,Courmayeur,45.791382,6.970375,CMY,,,,,,,Europe/Rome,
0634980d-a9ab-4fa8-9834-d55c943b88d6,Coventry (Pool Meadow),52.410294,-1.506861,CY,,,,,,,Europe/London,
fee7af08-fab1-4895-8740-e25cea94aad7,Covilha (Bus Station),40.273822,-7.498146,IHA,,,,,,,Europe/Lisbon,
a3bff1da-2eb6-497d-81e6-e0769678ea89,Craiova (bus station Pelendava Nord),44.32823,23.817588,CRO,,,,,,,Europe/Bucharest,
d3d3a71f-6d30-441c-95c2-4988eb4af1b0,Cremona,45.142191,10.017759,CRE,,,,,,,Europe/Rome,
dcc29113-9603-11e6-9066-549f350fcb0c,Crikvenica (Bus Station),45.172523,14.692295,QCR,,,,,,,Europe/Zagreb,
2e593f40-7aa5-4347-8ffd-f09339e9e342,Cristuru Secuiesc,46.291192,25.036897,CRST,,,,,,,Europe/Bucharest,
f235a9d0-18b7-43a0-90bb-b459007cc8b3,Crotone,39.084388,17.115038,CRA,,,,,,,Europe/Rome,
ef344930-fef0-430c-bb26-52b97e27aa8e,Cuneo (Movicentro),44.386615,7.535725,CN,,,,,,,Europe/Rome,
ba97af8a-f2cd-4776-bcfe-8dd44e119841,Cupra Marittima,43.025035,13.858654,CUM,,,,,,,Europe/Rome,
cf36e5eb-27b3-46a9-9c0b-aaa963d9e2bb,Czarna Górna,49.324291,22.668881,CZG,,,,,,,Europe/Warsaw,
9b6c0028-3ecb-11ea-8017-02437075395e,"Czchów, Miasto 38 i 65",49.834391,20.679193,CZH,,,,,,,Europe/Warsaw,
064f370c-3ba2-4a84-b0f5-3eec1c72736d,"Czorsztyn, przy Remizie 01 i Zamkowa 02",49.437696,20.328992,CZO,,,,,,,Europe/Warsaw,
dcc595c6-9603-11e6-9066-549f350fcb0c,"Częstochowa, Dworzec Autobusowy",50.805079,19.118984,CZA,,,,,,,Europe/Warsaw,
43ec4031-0ad3-4d75-be2b-d26288ccb67a,"Człuchów, Al. Wojska Polskiego",53.67083,17.365925,CZL,,,,,,,Europe/Warsaw,
8349ffe7-3369-4ef6-92d3-ee769fd29f7f,Câmpulung Moldovenesc (Str. Viitorului 11),47.532659,25.556538,CMP,,,,,,,Europe/Bucharest,
159085c9-a756-4e81-a0b3-45629a9887c5,Călărași,44.204078,27.314263,CAA,,,,,,,Europe/Bucharest,
dcc45b64-9603-11e6-9066-549f350fcb0c,DON'T USE Arezzo,43.466076,11.87476,ARZ,,,,,,,Europe/Rome,
1c92adcf-a23f-4efc-b61a-d9c155e0dbe3,Darda autobusno stajalište,45.630163,18.687313,ZDA,,,,,,,Europe/Zagreb,
dcbabf60-9603-11e6-9066-549f350fcb0c,Darmstadt central train station,49.870919,8.628607,DA,,,,,,,Europe/Berlin,
9b6b078d-3ecb-11ea-8017-02437075395e,"Daugavpils, Bus Station",55.871254,26.525593,DVP,,,,,,,Europe/Riga,
6855bc81-2a1c-4300-a3a9-4666873b7610,De Efteling (Kaatsheuvel),51.653139,5.0425,EFT,,,,,,,Europe/Amsterdam,
1b0af250-8590-4423-8958-7af8f2e6ab39,Deauville (Train Station),49.359267,0.083892,DEA,,,,,,,Europe/Paris,
63a5dfde-9ab3-4fde-ac87-ac1b0f17f415,Debrecen bus station,47.525562,21.618112,DBC,,,,,,,Europe/Budapest,
dcbc1b72-9603-11e6-9066-549f350fcb0c,Deggendorf bus station,48.838885,12.949869,DEG,,,,,,,Europe/Berlin,
2cf5d02f-afd0-4769-bc8a-4602a0be9359,Dej (Railway station),47.141376,23.894282,DEJ,,,,,,,Europe/Bucharest,
dcc08eb1-9603-11e6-9066-549f350fcb0c,Delft Station,52.006766,4.35685,DEF,,,,,,,Europe/Amsterdam,
dcbb9b5d-9603-11e6-9066-549f350fcb0c,Delmenhorst (Riedeweg),53.03158,8.65375,DEL,,,,,,,Europe/Berlin,
7013d866-bbcf-40e7-8851-7388f09411af,Delnice (bus station),45.392924,14.795514,DNI,,,,,,,Europe/Zagreb,
dcc27deb-9603-11e6-9066-549f350fcb0c,Deva (bus station Plus Com),45.88462,22.909,QDV,,,,,,,Europe/Bucharest,
fd49159b-1c35-4af2-a1bd-a48f44e10fc7,Diamante (are di servizio TAMOIL),39.691791,15.817432,DNE,,,,,,,Europe/Rome,
8a05ee65-e68f-4dc6-8b3a-59a73e9fdef6,Diano Marina,43.9044,8.077887,DNR,,,,,,,Europe/Rome,
dcc14221-9603-11e6-9066-549f350fcb0c,Dieppe (Central bus station),49.921523,1.080578,DIE,,,,,,,Europe/Paris,
71b20274-41ec-40d5-902e-a3ca15d99a00,Dierhagen Ost,54.310499,12.355468,DHO,,,,,,,Europe/Berlin,
46852fb9-ba04-4879-8481-315b137cf523,Differdange,49.520709,5.899611,DFD,,,,,,,Europe/Luxembourg,
dcc09441-9603-11e6-9066-549f350fcb0c,Dijon (Bus Station),47.323534,5.0279,DIJ,,,,,,,Europe/Paris,
4aee50c3-ad4b-4c61-8572-896e31e78b5f,Disneyland Paris - Chessy Sud,48.86661,2.783156,DPC,,,,,,,Europe/Paris,
20ba5b3c-d714-48d7-9d84-7396d67478f6,Dobbiaco,46.724461,12.22614,DBO,,,,,,,Europe/Rome,
dcc4825c-9603-11e6-9066-549f350fcb0c,Dole (Péage de Choisey - A39),47.064098,5.447277,DOL,,,,,,,Europe/Paris,
e8af504b-c22b-43c4-9b02-daf1e285b6c4,Doli,42.816706,17.777879,DLI,,,,,,,Europe/Zagreb,
8448a2c2-95c0-4868-86bf-4f0631435eb9,Dolný Kubín (bus station),49.217254,19.295992,DKB,,,,,,,Europe/Bratislava,
1b7fff53-7e47-4600-9f45-69caeaef68da,Donaueschingen (bus station),47.948749,8.497568,DON,,,,,,,Europe/Berlin,
5784249a-87f1-4106-af55-d6313ecea8f8,Donji Andrijevci,45.187427,18.295785,QDA,,,,,,,Europe/Zagreb,
dcc506b7-9603-11e6-9066-549f350fcb0c,Donji Miholjac bus station,45.759244,18.166099,QDM,,,,,,,Europe/Zagreb,
be65416c-0e27-4206-8f7e-1b3225772199,Donovaly (centrum),48.878523,19.22362,DNV,,,,,,,Europe/Bratislava,
dcbc7336-9603-11e6-9066-549f350fcb0c,Dornbirn station,47.418166,9.740724,DOB,,,,,,,Europe/Vienna,
dcbaeef4-9603-11e6-9066-549f350fcb0c,Dortmund central bus station,51.51954,7.459387,DO,,,,,,,Europe/Berlin,
14aa766b-48d0-4d84-ab4c-c2e610d731a4,Dover (DFDS Ferry),51.12922,1.34172,DFDS,,,,,,,Europe/London,
dcc31844-9603-11e6-9066-549f350fcb0c,Drachten (Vallaat),53.106497,6.126321,DRA,,,,,,,Europe/Amsterdam,
71aae4d0-38fe-409f-bdcd-8031dbd046e4,Drage autobusno stajalište,43.886244,15.543217,QDR,,,,,,,Europe/Zagreb,
7fe6db0b-7e34-41ea-87f8-d51a82619ab7,Dramalj,45.195176,14.672475,YDR,,,,,,,Europe/Zagreb,
39fbab46-9fac-49bb-9349-42c27e5acb43,Drammen Bangeløkka,59.730835,10.216465,DRAM,,,,,,,Europe/Oslo,
dcbb7a42-9603-11e6-9066-549f350fcb0c,Dresden central station (Bayrische Straße),51.039615,13.731438,DDH,,,,,,,Europe/Berlin,
ea80e74b-130c-4bf1-bdbe-dc0c4aef48fc,Drobeta-Turnu Severin (bus station Drobeta),44.63132,22.673118,DTS,,,,,,,Europe/Bucharest,
c59a0fa8-e3eb-49c8-959a-27f933949856,Drohobych,49.355296,23.543034,DRHB,,,,,,,Europe/Kyiv,
9b6b0d20-3ecb-11ea-8017-02437075395e,Druskininkai (druskininku Autobusu Parkas),54.012306,23.975675,DRU,,,,,,,Europe/Vilnius,
6b5ffef9-273d-48f2-b40d-51d49e49537a,Drvenik,43.158316,17.24845,DRN,,,,,,,Europe/Zagreb,
8454fb8f-c81f-4cae-9a83-fc1494f01078,Duba,43.176861,17.171364,QDUB,,,,,,,Europe/Zagreb,
6939b0a2-1e46-4b28-aca1-8a061dd4c9b5,Dubci,43.402547,16.891571,WDU,,,,,,,Europe/Zagreb,
dcc4b4bb-9603-11e6-9066-549f350fcb0c,Dubrovnik bus station,42.662809,18.083547,QDU,,,,,,,Europe/Zagreb,
5c65af3c-f4b5-4154-9e0e-4978814e1a0a,Dugi Rat,43.444396,16.640486,WDR,,,,,,,Europe/Zagreb,
83ecacca-11fd-4280-a57b-4ae1be76aa7b,Dugopolje,43.586563,16.573578,ZDU,,,,,,,Europe/Zagreb,
dcbbe873-9603-11e6-9066-549f350fcb0c,Duisburg central train station,51.428346,6.771195,DU,,,,,,,Europe/Berlin,
61f2655d-56c7-4972-aa0b-1b85be7503f5,Dundee (Overgate Center -West Marketgait),56.458718,-2.974059,DUND,,,,,,,Europe/London,
6a5518e7-2e7b-4c6f-898f-fe92b1ad8a45,Dunfermline (Halbeath Park and Ride),56.084459,-3.390977,HPR,,,,,,,Europe/London,
ae0bff14-8ff8-4dba-8176-62f0e2d345d1,Dunkerque Port (DFDS Ferry),51.0202,2.18986,DQP,,,,,,,Europe/Paris,
a55f7230-fdfd-477b-93d7-181e424404a7,"Duszniki-Zdrój, ZEM 22 i 73",50.405114,16.385332,DUS,,,,,,,Europe/Warsaw,
d7f6a686-6348-49ee-8adc-3416557868c9,"Dziwnówek, Kołobrzeska",54.032444,14.808306,DZK,,,,,,,Europe/Warsaw,
dcbaca96-9603-11e6-9066-549f350fcb0c,Düsseldorf central bus station,51.222865,6.79542,D,,,,,,,Europe/Berlin,
9b6a747a-3ecb-11ea-8017-02437075395e,"Dębica, Dworzec Autobusowy",50.053874,21.406455,DIC,,,,,,,Europe/Warsaw,
2e05605d-d524-440d-be4e-e105aa0468ab,"Dębki, ul. Letniskowa nr 127",54.82617,18.085508,DEK,,,,,,,Europe/Warsaw,
9b6ada6d-3ecb-11ea-8017-02437075395e,"Dębno, Baczewskiego",52.738341,14.709258,DEN,,,,,,,Europe/Warsaw,
9b6a733c-3ecb-11ea-8017-02437075395e,"Dźwirzyno, ul. Wyzwolenia",54.159508,15.400665,DWI,,,,,,,Europe/Warsaw,
dcc6116d-9603-11e6-9066-549f350fcb0c,Eboli,40.611648,15.048115,EBL,,,,,,,Europe/Rome,
d9c5d2d7-2656-485c-968a-35ae34373143,Edinburgh St Andrew's House,55.953867,-3.1836,EBSA,,,,,,,Europe/London,
dcc15c7e-9603-11e6-9066-549f350fcb0c,Eindhoven Station (John F. Kennedylaan),51.44555,5.480948,EDV,,,,,,,Europe/Amsterdam,
ab7a1f60-f3d3-4b74-aa65-55c0b7e6b5ca,Eisenach (FlixTrain),50.976984,10.332135,UEI,,,,,,,Europe/Berlin,
9530768a-ecb2-4e14-956f-d2bdd153a42e,Eisenberg (Saasa),50.970896,11.874016,ESA,,,,,,,Europe/Berlin,
9a45366a-9d4c-4fbb-8bb2-db9d947db03b,"Elbląg, Dworzec Autobusowy",54.152175,19.414913,EBD,,,,,,,Europe/Warsaw,
6fcc9d23-c930-4ab9-af1d-3be7c730f2c1,Elsterwerda (FlixTrain),51.459817,13.516503,BEW,,,,,,,Europe/Berlin,
dcbbe0a3-9603-11e6-9066-549f350fcb0c,Emden central bus station,53.369041,7.196602,EMD,,,,,,,Europe/Berlin,
dcbfcbb4-9603-11e6-9066-549f350fcb0c,Engen (Grub/McDonald's),47.856125,8.791945,ENG,,,,,,,Europe/Berlin,
5e9e19ec-f63e-44ec-858c-47d67c2cc252,Enköping station,59.644738,17.089958,ENK,,,,,,,Europe/Stockholm,
40910a14-f3ad-4561-9596-ea670eb6a16d,Enna (Bassa),37.56073,14.294962,NNA,,,,,,,Europe/Rome,
dcbcdd11-9603-11e6-9066-549f350fcb0c,Enschede (central station),52.221628,6.889476,ENS,,,,,,,Europe/Amsterdam,
e2bd7d2f-2d40-4dec-901f-f4dcc15d2f6c,Epinal (Bus Station),48.17775,6.442095,EPI,,,,,,,Europe/Paris,
dcbbe1ef-9603-11e6-9066-549f350fcb0c,Erfurt central train station,50.974126,11.040614,EF,,,,,,,Europe/Berlin,
dcbb8099-9603-11e6-9066-549f350fcb0c,Erlangen train station (Parkplatzstraße),49.596497,11.00006,ER,,,,,,,Europe/Berlin,
a00c031f-70c0-4601-8f19-3c799d6fd62d,Erstfeld Gotthard Service Station South,46.8488,8.632181,STAS,,,,,,,Europe/Zurich,
979c9fa9-57c2-4af6-b28f-d01b6d1c0f2d,Esch-sur-Alzette,49.507332,5.991181,ESC,,,,,,,Europe/Luxembourg,
eb619789-dde0-4bdd-8dfd-69f670d9142b,"Espoo, Westendinasema",60.168379,24.804476,EOO,,,,,,,Europe/Helsinki,
bf2eaf54-753e-472a-8bb6-a3b322d95290,Esposende (Bus Station),41.5383,-8.7789,ESR,,,,,,,Europe/Lisbon,
dcbaf468-9603-11e6-9066-549f350fcb0c,Essen central train station (Freiheit),51.450253,7.01461,E,,,,,,,Europe/Berlin,
551147d9-ccf0-41ca-8b97-7d4fa71c67df,Etretat,49.70462,0.20915,ETR,,,,,,,Europe/Paris,
d8bd9a60-8b25-43af-8294-03da1836cb16,Evora,38.568472,-7.918427,EVR,,,,,,,Europe/Lisbon,
d2a36520-4722-40c8-adec-d17ec0a85603,Exeter (Stover Court- Bampfylde Street),50.72696,-3.523503,EXET,,,,,,,Europe/London,
a5f33a0a-2ff9-4907-9f2a-6e6ae238717c,"Ełk, Dąbrowskiego - PKS 01 i PKP 02",53.825298,22.360769,ELK,,,,,,,Europe/Warsaw,
c59ef4d7-dc6f-4afa-8fd1-58d3af5ae65d,Fafe (Bus Station),41.449402,-8.176115,FAF,,,,,,,Europe/Lisbon,
3076bd7a-3720-43df-b4b5-e29fdb86a77b,Faro,37.011779,-7.930716,FAV,,,,,,,Europe/Lisbon,
1303e3a0-530f-4f7e-8d55-468309b1e4ef,Fasano,40.841008,17.358133,FSN,,,,,,,Europe/Rome,
6e8e191e-e05a-449a-8252-6c3ec32caa4c,Fatima,39.632229,-8.681145,FBS,,,,,,,Europe/Lisbon,
58ff1a6a-cbc9-48a7-a467-f5b6d0819f8f,Feda terminal,58.264853,6.84554,FEDA,,,,,,,Europe/Oslo,
7443f267-8b7b-4a03-973a-150e274fbba2,Feldkirch station,47.241415,9.603384,FEL,,,,,,,Europe/Vienna,
2f40e1a2-ab0f-4592-897c-8f6ef5224ee2,Ferrandina Scalo,40.516495,16.474849,INA,,,,,,,Europe/Rome,
dcc19905-9603-11e6-9066-549f350fcb0c,Ferrara,44.842838,11.604776,FER,,,,,,,Europe/Rome,
4f3656cd-cc5b-48b5-a04b-21afaa4ad479,Fetești (cathedral station),44.411463,27.825832,FET,,,,,,,Europe/Bucharest,
6605a01c-58ba-40fd-9bb5-9be91bc257ed,Figueira da Foz,40.147918,-8.849014,FDF,,,,,,,Europe/Lisbon,
2539e8c8-79de-4721-b165-af08c019661d,Filiași (hotel bus station),44.556088,23.512959,FIL,,,,,,,Europe/Bucharest,
bd75cebc-92a6-42c7-a76d-f5ccb09fdaa3,Finale Ligure,44.16887,8.340819,FLI,,,,,,,Europe/Rome,
cd430f86-3e02-4506-b275-c7a76f99e483,Firmo,39.726554,16.262598,CVF,,,,,,,Europe/Rome,
fb0b3178-7868-4185-abf0-6e240b8f4fa5,Fisciano,40.774084,14.792644,FSA,,,,,,,Europe/Rome,
9ee49a33-a0a9-4909-bcdb-5a661b8c78f6,Flekkefjord rutebilstasjon,58.294892,6.666873,FKF,,,,,,,Europe/Oslo,
dcbcde95-9603-11e6-9066-549f350fcb0c,Flensburg central train station,54.775223,9.437259,FL,,,,,,,Europe/Berlin,
dcbcdfc1-9603-11e6-9066-549f350fcb0c,Florence (Villa Costanza),43.755014,11.172638,FIV,,,,,,,Europe/Rome,
aa82ef57-2aed-4e77-9669-c72266592573,Focșani (bus station),45.710678,27.178153,FCS,,,,,,,Europe/Bucharest,
dcc0472b-9603-11e6-9066-549f350fcb0c,Foggia,41.465945,15.553421,FOG,,,,,,,Europe/Rome,
ab7d211d-1114-421a-9cbc-10704c9b5bd9,Fokserød (Sandefjord),59.177691,10.209271,FOKS,,,,,,,Europe/Oslo,
dcc4a116-9603-11e6-9066-549f350fcb0c,Foligno,42.95325,12.708145,FOL,,,,,,,Europe/Rome,
dcc31f56-9603-11e6-9066-549f350fcb0c,Folkestone (Eurotunnel),51.09574,1.121821,FOCA,,,,,,,Europe/London,
dcc213f2-9603-11e6-9066-549f350fcb0c,Forbach (central bus station),49.188723,6.900089,FOR,,,,,,,Europe/Paris,
dcc3ab79-9603-11e6-9066-549f350fcb0c,Forlì (Autostazione),44.223316,12.055246,FRL,,,,,,,Europe/Rome,
32796026-0e2d-4373-ac65-ab5a3fa6a7de,Fossano,44.549933,7.71833,FSS,,,,,,,Europe/Rome,
2f49b8b4-b4bb-49b9-8feb-30c0ca601a83,Francavilla Fontana,40.529435,17.573373,FVF,,,,,,,Europe/Rome,
dcbabe0c-9603-11e6-9066-549f350fcb0c,Frankfurt central train station,50.104394,8.662577,F,,,,,,,Europe/Berlin,
9b6942d9-3ecb-11ea-8017-02437075395e,Františkovy Lázně (městské sady),50.120831,12.349108,FTL,,,,,,,Europe/Prague,
3dd37092-ad6a-4015-bacb-e5a65086442f,Frascineto,39.831791,16.255739,FRN,,,,,,,Europe/Rome,
dcbab968-9603-11e6-9066-549f350fcb0c,Freiburg (im Breisgau) central station,47.995688,7.840469,FR,,,,,,,Europe/Berlin,
bdcaf029-e851-4a40-812f-dd3882c9812a,Freistadt (Busterminal Stifterplatz),48.507757,14.501375,FSP,,,,,,,Europe/Vienna,
10adf593-6fad-4655-9949-a23ab421d03e,Freudenstadt ZOB,48.467214,8.411775,FRE,,,,,,,Europe/Berlin,
1fcc4c7f-a025-4e7f-a86e-79040e7748a4,Freyung bus station,48.806475,13.547595,FEY,,,,,,,Europe/Berlin,
dcc329e1-9603-11e6-9066-549f350fcb0c,Fribourg (Poya),46.815737,7.155162,FRI,,,,,,,Europe/Zurich,
dcbabade-9603-11e6-9066-549f350fcb0c,Friedrichshafen,47.652758,9.473237,FN,,,,,,,Europe/Berlin,
dcc4af28-9603-11e6-9066-549f350fcb0c,Frosinone,41.628628,13.326842,FRO,,,,,,,Europe/Rome,
e5054ac6-764a-43fb-8ce8-682a52bc1077,Fréjus (Péage Ouest),43.456308,6.68948,FJS,,,,,,,Europe/Paris,
65c6fc7f-17e5-4cc3-b597-360d1f629f1e,Frösunda (towards Arlanda),59.372128,18.020111,FDN,,,,,,,Europe/Stockholm,
e28f8aa1-723d-4bb2-947a-0a544d091e53,Frýdek-Místek (bus station),49.67861,18.351241,F1M,,,,,,,Europe/Prague,
853f56d9-e31e-410b-a8b6-76c98aeede5a,Frýdlant (bus station),50.920083,15.081032,FAN,,,,,,,Europe/Prague,
d39ec3fd-a7a9-4868-960c-8f4aa4c9c926,Fulda (FlixTrain),50.554587,9.683728,FFU,,,,,,,Europe/Berlin,
34051f65-919d-4f1f-be1b-bee9058a0eaa,Fundão,40.135908,-7.503646,FUO,,,,,,,Europe/Lisbon,
bd5bef32-14e6-4d2f-a537-3408144f7d71,Fårbo Vägskäl E22,57.382898,16.481636,FAO,,,,,,,Europe/Stockholm,
1ca9fe29-e6ab-4891-847e-9907f2f3add6,Fécamp (Bus Station),49.759243,0.375221,FEC,,,,,,,Europe/Paris,
dcc32afa-9603-11e6-9066-549f350fcb0c,Fürth Main Station,49.470301,10.991233,FUE,,,,,,,Europe/Berlin,
dcc39c62-9603-11e6-9066-549f350fcb0c,Füssen (Kemptener Straße),47.56804,10.675807,FUS,,,,,,,Europe/Berlin,
dcc2a9ac-9603-11e6-9066-549f350fcb0c,Făgăraș (bus station Făgăraș),45.840974,24.971899,QFG,,,,,,,Europe/Bucharest,
b705c8e5-3823-4607-91ab-a4c2888f63e9,Fălticeni (Autogara Ceztrans),47.45959,26.30612,FAL,,,,,,,Europe/Bucharest,
ad3f6984-c136-4e7a-b00a-f7d8295ff7f7,Galați (bus station Metropoli),45.442266,28.059764,GAI,,,,,,,Europe/Bucharest,
4344883e-6281-4143-81c9-4e3e0b121d03,Galdo (Svincolo Lauria Sud),40.020107,15.886157,GAL,,,,,,,Europe/Rome,
1ab6e97c-3133-496c-9622-6c4dd58fbc55,Gallipoli,40.055112,17.996561,GLP,,,,,,,Europe/Rome,
dbca6808-2bc2-439d-a96f-7c3e71bc5e78,Gamleby,57.892044,16.391297,GBF,,,,,,,Europe/Stockholm,
dcc46e4f-9603-11e6-9066-549f350fcb0c,Gardaland,45.452609,10.714955,GLD,,,,,,,Europe/Rome,
dcbbb5ad-9603-11e6-9066-549f350fcb0c,Garmisch-Partenkirchen station (Bahnhofstraße),47.491033,11.09813,GAP,,,,,,,Europe/Berlin,
9b6a684d-3ecb-11ea-8017-02437075395e,"Garwolin, Dworzec Autobusowy",51.895711,21.617534,GWO,,,,,,,Europe/Warsaw,
62afd481-0056-4c19-aaf3-a8ac52d5dc9e,Garčin,45.182506,18.179717,QGC,,,,,,,Europe/Zagreb,
540d384c-569c-4c00-91c0-9e58ac4a3dc8,Gatwick Airport (North Terminal),51.15987,-0.175036,LGWN,,,,,,,Europe/London,
dcbcd754-9603-11e6-9066-549f350fcb0c,"Gdańsk, Dworzec Autobusowy",54.356152,18.642736,GDN,,,,,,,Europe/Warsaw,
0cdde44e-e945-4e63-83fe-13e09a57691e,"Gdynia, dworzec autobusowy",54.521992,18.529541,GDY,,,,,,,Europe/Warsaw,
dcbc13a4-9603-11e6-9066-549f350fcb0c,Gelsenkirchen (ZOB),51.505747,7.100346,GEZ,,,,,,,Europe/Berlin,
dcc0627e-9603-11e6-9066-549f350fcb0c,Geneva (central bus station),46.208522,6.146928,GEN,,,,,,,Europe/Zurich,
dcc02ea8-9603-11e6-9066-549f350fcb0c,Genoa (Fanti d'Italia/Principe bus station),44.41599,8.919045,GNF,,,,,,,Europe/Rome,
dcbbe99b-9603-11e6-9066-549f350fcb0c,Gera central train station,50.883509,12.079057,G,,,,,,,Europe/Berlin,
dcbffdd5-9603-11e6-9066-549f350fcb0c,Ghent Dampoort (Bus parking),51.053533,3.740522,GET,,,,,,,Europe/Brussels,
99162e3c-e2e6-40b4-8e55-6aa4498bbcfc,Gheorgheni (Biserica),46.723326,25.60056,GHR,,,,,,,Europe/Bucharest,
90971d56-975b-46f0-ab59-a3c64ef8dd8d,Giardini Naxos,37.818685,15.265822,TAO,,,,,,,Europe/Rome,
dcbbd625-9603-11e6-9066-549f350fcb0c,Gießen (Mathematikum),50.580739,8.666946,GI,,,,,,,Europe/Berlin,
d7e895ab-9531-4a47-beec-a40ef11cf6ba,Ginjal,40.363706,-7.341026,GIA,,,,,,,Europe/Lisbon,
fc388685-6e62-43d7-88ff-a3e8147c0363,Gioia Tauro,38.415207,15.908281,GIN,,,,,,,Europe/Rome,
dcc3b197-9603-11e6-9066-549f350fcb0c,Girona Airport (GRO),41.896679,2.766083,GIR,,,,,,,Europe/Madrid,
d99ebf3a-78fa-4af2-97ff-ffb38006b7b5,Giulianova - Mosciano Sant'Angelo,42.713356,13.908597,GMA,,,,,,,Europe/Rome,
97408152-5e99-4374-9c1e-9bd3ffab223a,Givors (South Lyon),45.591055,4.771928,GIV,,,,,,,Europe/Paris,
9b6a36b5-3ecb-11ea-8017-02437075395e,"Giżycko, ul. Kolejowa nr 04",54.032024,21.776934,GIZ,,,,,,,Europe/Warsaw,
9b6a7745-3ecb-11ea-8017-02437075395e,Glasgow (Buchanan Bus Station),55.865274,-4.250601,GAS,,,,,,,Europe/London,
b71ce042-3342-4970-a00b-d311ffbb0b7f,Glavina Donja,43.443805,17.196951,WGD,,,,,,,Europe/Zagreb,
55bd2ce7-265f-433e-a9ed-ec1789f5f3ed,"Gliwice, Centrum Przesiadkowe",50.302802,18.676778,GCP,,,,,,,Europe/Warsaw,
cb8de308-2075-405e-9421-ffd764e57fb9,"Gniezno, Parking, ul. Łaskiego",52.538121,17.589126,GPT,,,,,,,Europe/Warsaw,
b2f43bc4-f424-4433-a3e6-856dd5f09e86,Golden Sands,43.275192,28.03791,GDS,,,,,,,Europe/Sofia,
9b6858e8-3ecb-11ea-8017-02437075395e,"Goleniów, Dworzec PKS nr 18",53.560418,14.839246,GOW,,,,,,,Europe/Warsaw,
dcc4f2f2-9603-11e6-9066-549f350fcb0c,Gornja Vrba,45.174886,18.064463,QGV,,,,,,,Europe/Zagreb,
8e1ddb48-c0a0-44bf-aee3-e8da1a11ee22,Gornji Kneginec,46.25437,16.370522,GKN,,,,,,,Europe/Zagreb,
8f6a2557-011a-4092-b411-9f84a8bb2c6a,"Gorzów Wielkopolski, dworzec autobusowy",52.728477,15.227842,GOR,,,,,,,Europe/Warsaw,
dcc4b633-9603-11e6-9066-549f350fcb0c,Gospić,44.548309,15.368141,QGO,,,,,,,Europe/Zagreb,
71d87f69-454f-4400-a096-1b8f847b35b2,Gotha (FlixTrain),50.939073,10.712543,UGO,,,,,,,Europe/Berlin,
dcc300fc-9603-11e6-9066-549f350fcb0c,Gothenburg (Nils Ericson Terminalen),57.710421,11.971896,GOE,,,,,,,Europe/Stockholm,
dcbfdb6f-9603-11e6-9066-549f350fcb0c,Graal-Müritz,54.249142,12.245504,GRA,,,,,,,Europe/Berlin,
0d3d8096-1ecf-4950-87ed-d2df748bf7bd,Gradac,43.104658,17.349058,YGR,,,,,,,Europe/Zagreb,
1174312d-2a84-4904-af7a-dd2a916f977a,Gradište 1 aut. stajalište,45.143206,18.705202,ZS1,,,,,,,Europe/Zagreb,
cdf5aee6-9a78-468c-84c7-8d395c6ac70f,Granada (Bus Station),37.200138,-3.613957,GND,,,,,,,Europe/Madrid,
dcc5bceb-9603-11e6-9066-549f350fcb0c,Gravina in Puglia,40.827255,16.421845,GRP,,,,,,,Europe/Rome,
8b76dea4-11c1-45fe-9a62-e365917ae24d,Graz P&R Webling,47.036483,15.409932,GRW,,,,,,,Europe/Vienna,
78fcd87c-de55-430d-a036-3aece86138ba,Grebaštica aut. stajalište,43.636633,15.965868,QGG,,,,,,,Europe/Zagreb,
dcbbfa60-9603-11e6-9066-549f350fcb0c,Greifswald central bus station,54.093568,13.369863,HGW,,,,,,,Europe/Berlin,
dcc0fda5-9603-11e6-9066-549f350fcb0c,Grenoble (Central Bus Station),45.192828,5.713938,GBL,,,,,,,Europe/Paris,
1cc54676-8da8-42e3-bdad-af593db37b5f,Grimstad (Øygårdsdalen),58.340645,8.570336,GRIM,,,,,,,Europe/Oslo,
4bea9bd8-d3c8-4068-836e-4fbe0a70613a,Grindsted Rutebilstation,55.759491,8.931358,GSD,,,,,,,Europe/Copenhagen,
44117041-0cf6-4976-8e6d-97c9e94ca8e0,"Grodzisk Wielkopolski, ul. Kolejowa",52.229678,16.364045,GGW,,,,,,,Europe/Warsaw,
dcbc6d4a-9603-11e6-9066-549f350fcb0c,Groningen central station,53.211648,6.566523,GRO,,,,,,,Europe/Amsterdam,
eb364201-0390-4d77-92cb-4cb78c0fd9e2,Grottaglie,40.529089,17.440847,GRT,,,,,,,Europe/Rome,
dcc58ac0-9603-11e6-9066-549f350fcb0c,Grottaminarda,41.069023,15.059945,GTM,,,,,,,Europe/Rome,
591d3e86-df8b-4939-8128-7d8e8da86a47,Grottammare,42.990341,13.867964,GMM,,,,,,,Europe/Rome,
4ea7d941-be51-4060-aab7-dcd7a59e7d33,Grubine,43.430041,17.164042,WGR,,,,,,,Europe/Zagreb,
92333f38-3f59-4bd3-80d7-08aed24e877e,"Grudziądz, Dworzec Kolejowy 03",53.48262,18.76171,GDK,,,,,,,Europe/Warsaw,
4df02adc-6183-4334-a256-83200122e45c,Grums,59.352202,13.112779,GUS,,,,,,,Europe/Stockholm,
9b6bb387-3ecb-11ea-8017-02437075395e,Grzybowo ul. Kołobrzeska przy Szkolnej,54.159117,15.491733,GRY,,,,,,,Europe/Warsaw,
aa491be6-5901-4d50-8d64-438110de13f0,Gränna,58.0024,14.451865,GGG,,,,,,,Europe/Stockholm,
62f1480b-66e6-43b5-86ce-f6a9b6caf57c,Guarda (Bus Station),40.534596,-7.26317,GUA,,,,,,,Europe/Lisbon,
ef7edb03-a53a-40c0-9dbd-33037d72d886,Guardia Piemontese (area servizio Q8),39.467883,15.975153,GPM,,,,,,,Europe/Rome,
9b6a63ad-3ecb-11ea-8017-02437075395e,"Gubin, Dworzec Autobusowy",51.950012,14.72602,GBN,,,,,,,Europe/Warsaw,
f55312c1-7fe4-4ae8-a685-05652b8b1a8d,Guimaraes (Bus Station),41.441034,-8.303229,GMR,,,,,,,Europe/Lisbon,
8bfc09f8-2f77-4a23-b537-de247eb90a83,Gundinci 1 aut. stajalište,45.150107,18.49182,QG1,,,,,,,Europe/Zagreb,
1600bbf2-fef6-4982-ae0d-010ea0d2df56,Gura Humorului (Autogara Daily Motors),47.552073,25.88388,GHU,,,,,,,Europe/Bucharest,
dcbcfef4-9603-11e6-9066-549f350fcb0c,Győr bus station,47.681389,17.636528,GYO,,,,,,,Europe/Budapest,
dcbc0545-9603-11e6-9066-549f350fcb0c,Göhren (Rügen),54.345715,13.738117,GOH,,,,,,,Europe/Berlin,
dcc09d56-9603-11e6-9066-549f350fcb0c,Görlitz (bus station),51.148253,14.976764,GR,,,,,,,Europe/Berlin,
dcbae97c-9603-11e6-9066-549f350fcb0c,Göttingen central bus station,51.534945,9.926184,GTT,,,,,,,Europe/Berlin,
94d2176a-4d6a-4845-ba6a-f4b97f008ed8,Gütersloh Central Station (FlixTrain),51.906994,8.384737,EGLO,,,,,,,Europe/Berlin,
9fc53320-0d1d-42c4-9e37-6cf8f779b349,Găești (CEC bank),44.719319,25.324671,GAE,,,,,,,Europe/Bucharest,
09400208-d6a0-4e26-9122-423960e1d00a,Haderslev Busstation,55.252755,9.489645,HAV,,,,,,,Europe/Copenhagen,
9fdfaf67-9a33-4b1a-96b2-163b0df79c57,Haga Norra (towards Arlanda),59.362546,18.02611,HNN,,,,,,,Europe/Stockholm,
14ecd707-256b-4b26-8e89-290998442a2b,Haga Södra,59.353855,18.037221,HSD,,,,,,,Europe/Stockholm,
4f780e00-0cf8-48cc-b9df-4d5322715f75,Hagondange,49.253941,6.167932,HGE,,,,,,,Europe/Paris,
7bc5d786-569b-4f30-9173-a964d0a3bb83,Halblech (center),47.631087,10.820801,HBL,,,,,,,Europe/Berlin,
dcbb27d4-9603-11e6-9066-549f350fcb0c,Halle (Saale) central bus station,51.477534,11.984321,HAL,,,,,,,Europe/Berlin,
dcc39041-9603-11e6-9066-549f350fcb0c,Halmstad (Resecentrum) Flixbus Stop,56.670016,12.865489,HMS,,,,,,,Europe/Stockholm,
dcbada9a-9603-11e6-9066-549f350fcb0c,Hamburg central bus station,53.551767,10.011657,HH,,,,,,,Europe/Berlin,
bfed86f1-7013-4584-b698-93580cd9e222,Hamm (Westf) Central Station (FlixTrain),51.67829,7.808612,EHM,,,,,,,Europe/Berlin,
95f592e5-e4bc-4843-97ed-17a9001b030f,Hanau Central Station (FlixTrain),50.121508,8.929718,FH N,,,,,,,Europe/Berlin,
571ccc44-c964-4d48-bed2-992214dfa35d,Handlová (centrum),48.727982,18.759976,H1C,,,,,,,Europe/Bratislava,
dcbb2109-9603-11e6-9066-549f350fcb0c,Hanover central bus station,52.378922,9.740987,H,,,,,,,Europe/Berlin,
4bdc726e-ba7b-457d-bb07-83ec24dc9455,Harrachov (Sklárna),50.780672,15.419735,H1S,,,,,,,Europe/Prague,
017f7dd6-9b2e-4439-8e8f-b03afad6e999,Harthill Services (Eastbound),55.863826,-3.758275,HHSS,,,,,,,Europe/London,
9b6a414e-3ecb-11ea-8017-02437075395e,Haskovo,41.933052,25.561396,HSK,,,,,,,Europe/Sofia,
dcc531f9-9603-11e6-9066-549f350fcb0c,Hasselt Station,50.931727,5.326435,HAS,,,,,,,Europe/Brussels,
dcbac076-9603-11e6-9066-549f350fcb0c,Heidelberg central train station,49.406053,8.673417,HD,,,,,,,Europe/Berlin,
dcbf6e33-9603-11e6-9066-549f350fcb0c,Heilbronn central train station,49.141512,9.206945,HN,,,,,,,Europe/Berlin,
dcc5fcea-9603-11e6-9066-549f350fcb0c,Heiligenhafen (Wilhelmsplatz),54.371944,10.986181,HEH,,,,,,,Europe/Berlin,
a5b2891c-4efc-45d1-afe5-e6bc5d28922c,"Helleland (Skjerpeveien) Eigersund, Rogaland",58.526768,6.126325,EGER,,,,,,,Europe/Oslo,
dcc39148-9603-11e6-9066-549f350fcb0c,Helsingborg,56.042698,12.695847,HSB,,,,,,,Europe/Stockholm,
9b6b38dd-3ecb-11ea-8017-02437075395e,Helsinki Bus Station (Kamppi),60.169405,24.933535,HKK,,,,,,,Europe/Helsinki,
9b6b1ee3-3ecb-11ea-8017-02437075395e,Hendaye,43.351134,-1.783269,HDY,,,,,,,Europe/Paris,
15414b1c-a955-4ce4-9b45-2df7e10e941e,Herford (FlixTrain),52.119295,8.664089,EHFD,,,,,,,Europe/Berlin,
dcbf94ff-9603-11e6-9066-549f350fcb0c,Heringsdorf station (Usedom),53.949396,14.169608,HGD,,,,,,,Europe/Berlin,
dcbc14a0-9603-11e6-9066-549f350fcb0c,Herne central bus station,51.544482,7.218346,HER,,,,,,,Europe/Berlin,
683b248f-8da1-4d89-9deb-746c7455f448,Herning FlixBus stop,56.131728,8.978066,HNG,,,,,,,Europe/Copenhagen,
dcbaeb7e-9603-11e6-9066-549f350fcb0c,Hildesheim central bus station,52.159141,9.950779,HI,,,,,,,Europe/Berlin,
dcbc9ef1-9603-11e6-9066-549f350fcb0c,Himmelkron (service area),50.05431,11.62295,HIM,,,,,,,Europe/Berlin,
dcbc0833-9603-11e6-9066-549f350fcb0c,Hof central train station,50.308409,11.924688,HO,,,,,,,Europe/Berlin,
037c4c20-63b7-4211-82c4-4be690f2e54c,Holstebro Trafikterminal,56.364364,8.620707,HLS,,,,,,,Europe/Copenhagen,
dcbb844d-9603-11e6-9066-549f350fcb0c,Homburg (Saar) central train station,49.327597,7.33821,HOM,,,,,,,Europe/Berlin,
6485b212-0b5a-4738-898f-88362250972e,Honfleur (Central Bus Station),49.418804,0.238384,HON,,,,,,,Europe/Paris,
39e7e424-36ad-4c23-a6b9-26691d093c8e,Horsens Trafikterminal,55.862028,9.836924,HRS,,,,,,,Europe/Copenhagen,
bb6105f8-0f85-46ba-a31f-3628dc616551,Hradec Králové (Terminal),50.216934,15.812995,HRK,,,,,,,Europe/Prague,
30bc1f5d-c1b2-4acc-a0f7-1fe1dba5fd03,Hreljin,45.285799,14.591865,YHR,,,,,,,Europe/Zagreb,
9b6a6366-3ecb-11ea-8017-02437075395e,"Hrubieszów, Piłsudskiego, Stokrotka",50.803584,23.899246,HRU,,,,,,,Europe/Warsaw,
f701e77d-923e-4069-8aa8-b82b99a85846,Huedin,46.863765,23.029964,HDN,,,,,,,Europe/Bucharest,
8cf137d5-fc8c-4bfc-9c23-6a22d0d7069f,Huelva (Bus Station),37.257426,-6.956984,HUA,,,,,,,Europe/Madrid,
b3be5a45-1d87-4146-b776-caff0a080d15,"Humniska, Środek",49.6803,22.044862,HMN,,,,,,,Europe/Warsaw,
67e9fac4-7ccf-4f67-a5d1-5f633dd84a12,Hunedoara,45.758038,22.909119,HUN,,,,,,,Europe/Bucharest,
dcc14409-9603-11e6-9066-549f350fcb0c,Hyères,43.116885,6.1339,HYE,,,,,,,Europe/Paris,
04ea607e-4d6f-4ad4-a8ac-849623b776fb,Håneskrysset E18,58.165641,8.090559,HONE,,,,,,,Europe/Oslo,
4626d5e3-8ee0-42d9-9739-082fa58f6b90,Iași (Vest bus station),47.173745,27.554224,IASI,,,,,,,Europe/Bucharest,
5116975b-42bc-4dee-84b7-ebe5b725ff3a,Iernut (statie bus),46.450732,24.235291,IER,,,,,,,Europe/Bucharest,
4c777cf7-b611-4839-8556-e2b88790373f,Igea Marina (bus stop 40),44.133729,12.483143,IMO,,,,,,,Europe/Rome,
fedb5723-1a8c-4d09-9341-4e49f30106fc,Igrane,43.199,17.1391,YIG,,,,,,,Europe/Zagreb,
dcc054d6-9603-11e6-9066-549f350fcb0c,Ilmenau (bus station),50.686033,10.922204,ILM,,,,,,,Europe/Berlin,
9b3a5b38-8aa4-47a9-ac44-b045508712e4,"Ilowa (Iłowa), Orlen restauracja Rivista",51.52385,15.215358,ILA,,,,,,,Europe/Warsaw,
dcc41f5e-9603-11e6-9066-549f350fcb0c,Imotski Autobusni kolodvor,43.445886,17.221169,QIM,,,,,,,Europe/Zagreb,
e92873f1-a105-4b73-b0fa-cb34a042c441,Imperia,43.890415,8.039467,IMP,,,,,,,Europe/Rome,
9b6ba629-3ecb-11ea-8017-02437075395e,Industrial Park Hohenlohe / Kochertalbahn,49.205785,9.682048,KUE,,,,,,,Europe/Berlin,
dcbc91b1-9603-11e6-9066-549f350fcb0c,Ingolstadt (Nordbahnhof),48.772328,11.432825,IN,,,,,,,Europe/Berlin,
dcbcb402-9603-11e6-9066-549f350fcb0c,Innsbruck Südbahnstraße,47.258351,11.39982,INN,,,,,,,Europe/Vienna,
1f2b61e4-9e6c-4a01-8f3b-c99833f1944c,"Inowrocław, Laubitza",52.799743,18.262939,INW,,,,,,,Europe/Warsaw,
9b6c1ded-3ecb-11ea-8017-02437075395e,Interlaken Station East,46.690472,7.870361,I-E,,,,,,,Europe/Zurich,
7695f95d-cc3c-4a16-af45-d382859f4f6f,International Interconnection Hub,42.077505,-4.210196,SRX,,,,,,,Europe/Madrid,
7c34dfd8-1c2e-4caa-829f-ebae7b815ca1,Inverness (Bus Station),57.480797,-4.224986,INVE,,,,,,,Europe/London,
a01bfa7f-9e7e-4af8-b615-6ea8e4270928,Irun (Bus Station),43.339476,-1.80124,IRU,,,,,,,Europe/Madrid,
efd38601-e969-4fe6-9d30-52c5b02fbba4,Isernia,41.597532,14.235631,ISR,,,,,,,Europe/Rome,
dcbc5f82-9603-11e6-9066-549f350fcb0c,Isselburg Autohof,51.819003,6.44582,ISS,,,,,,,Europe/Berlin,
9674a98e-6915-4e77-b0de-d4790a0f454d,Ivanić Grad AS,45.707331,16.39651,ZGA,,,,,,,Europe/Zagreb,
9b6a644b-3ecb-11ea-8017-02437075395e,Ivano-Frankivsk (Bus Station No.2),48.94395,24.690572,IVF,,,,,,,Europe/Kyiv,
9b6a8396-3ecb-11ea-8017-02437075395e,Izmir bus station,38.43075,27.213881,IZ1,,,,,,,Europe/Istanbul,
286f40e4-550a-409b-8ca6-eeeda2ecea4c,Jablonec nad Nisou (bus station),50.722748,15.174021,J1S,,,,,,,Europe/Prague,
bc3d6764-f7ac-4f54-a9c3-9df70d928e51,Jadranovo,45.232828,14.626495,YJA,,,,,,,Europe/Zagreb,
9b6a4031-3ecb-11ea-8017-02437075395e,Jaen,37.771241,-3.787139,JEN,,,,,,,Europe/Madrid,
d88f2739-f1ab-4894-b175-8df592e015c8,Jantar nr 22 i 53,54.331817,19.025904,JNT,,,,,,,Europe/Warsaw,
9b6a6126-3ecb-11ea-8017-02437075395e,"Janów Lubelski, Dworzec Autobusowy",50.706579,22.410094,XJL,,,,,,,Europe/Warsaw,
1dcf6c68-1278-45c2-8f58-82fdfc989578,"Jarosław, Dworzec Autobusowy",50.011359,22.676247,JDA,,,,,,,Europe/Warsaw,
9b6b209d-3ecb-11ea-8017-02437075395e,"Jastrowie, ul. Mickiewicza 36",53.418564,16.817292,JAS,,,,,,,Europe/Warsaw,
e2dbd74b-5c60-46d1-b446-13675dc60823,"Jastrzębia Góra, Pucka 08",54.830858,18.300646,JGD,,,,,,,Europe/Warsaw,
1df51b9a-686e-471b-9585-7cec351d2bc7,"Jastrzębie-Zdrój, Dworzec Główny ul. Sybiraków",49.955408,18.602411,JDG,,,,,,,Europe/Warsaw,
981b7311-702a-4c55-a66d-552892259287,"Jasło, Metzgera 22 i 81A",49.737626,21.469911,JSM,,,,,,,Europe/Warsaw,
f15213ee-2fce-47bc-bdeb-5288297267c5,"Jelenia Góra, 1-go Maja ""Dworzec Kolejowy"" 03",50.902462,15.75443,JEG,,,,,,,Europe/Warsaw,
9b6b085a-3ecb-11ea-8017-02437075395e,"Jelgava, Railway Station",56.640913,23.731936,JEA,,,,,,,Europe/Riga,
0afb53d0-cb5b-47f7-9869-9d107438a329,Jelšava (námestie),48.630222,20.235172,J1N,,,,,,,Europe/Bratislava,
dcbb590e-9603-11e6-9066-549f350fcb0c,Jena bus station (Paradies station),50.925717,11.587604,J,,,,,,,Europe/Berlin,
17d4064b-4d7c-4d4f-af6a-e7fddebd68b3,Jenbach station,47.387696,11.7781,JEB,,,,,,,Europe/Vienna,
495e7c26-0f7b-45de-a147-6e7eccad76f4,Jerez de la Frontera,36.679449,-6.126666,JER,,,,,,,Europe/Madrid,
a7e242f5-c024-499d-9d24-5837ea2f0d39,Jezera (Murter),43.789892,15.632318,JZR,,,,,,,Europe/Zagreb,
dcc272ee-9603-11e6-9066-549f350fcb0c,Jihlava (bus station),49.399515,15.581137,JIH,,,,,,,Europe/Prague,
f9b862d0-5f70-4e5d-9488-b41657232c3b,Jindřichův Hradec (bus station),49.154076,15.004813,JHR,,,,,,,Europe/Prague,
cdb3b67f-b5b8-45e4-a50f-d4445630ac58,Jirkov (bus station),50.498425,13.450141,J1V,,,,,,,Europe/Prague,
c40670ba-7a59-4507-851a-e27f5342644d,Jičín (bus station),50.434106,15.355318,JIC,,,,,,,Europe/Prague,
2f290738-4483-4356-b4a0-37db4911cc08,Järva Krog (towards Arlanda),59.378064,18.013536,JKN,,,,,,,Europe/Stockholm,
9b6b18d0-3ecb-11ea-8017-02437075395e,"Jõhvi, Bus Station",59.35787,27.417956,JOH,,,,,,,Europe/Tallinn,
dcc3929a-9603-11e6-9066-549f350fcb0c,Jönköping (ReseCentrum) Flixbus Stop,57.784265,14.164449,JON,,,,,,,Europe/Stockholm,
dcbb4a14-9603-11e6-9066-549f350fcb0c,Kaiserslautern central train station,49.436595,7.767545,KL,,,,,,,Europe/Berlin,
9b6b1899-3ecb-11ea-8017-02437075395e,"Kalisz Pomorski, Toruńska nr 7",53.300167,15.911467,KPM,,,,,,,Europe/Warsaw,
9b6a75ab-3ecb-11ea-8017-02437075395e,"Kalisz, Dworzec Autobusowy",51.743151,18.068372,KIZ,,,,,,,Europe/Warsaw,
126b2eb8-1fda-4ac3-960c-e93197279121,Kalmar Station,56.66159,16.359355,KLM,,,,,,,Europe/Stockholm,
9b6bd7e9-3ecb-11ea-8017-02437075395e,Kalush,49.012482,24.352525,KSH,,,,,,,Europe/Kyiv,
ee92bdc6-5d19-41a5-a668-553b23c5e97a,Kamenjak,43.464724,17.04972,WKN,,,,,,,Europe/Zagreb,
00308c11-2e6c-44e5-916f-f6286ebbb339,Kamenmost,43.429554,17.172177,WKM,,,,,,,Europe/Zagreb,
9b6acd19-3ecb-11ea-8017-02437075395e,"Kamienna Góra, Dworzec Autobusowy",50.784618,16.022722,KNG,,,,,,,Europe/Warsaw,
9b6a7307-3ecb-11ea-8017-02437075395e,Kamień Pomorski Dworzec Autobusowy,53.96595,14.772412,KKP,,,,,,,Europe/Warsaw,
9b6a416a-3ecb-11ea-8017-02437075395e,Kardzali,41.633533,25.377623,KRDZ,,,,,,,Europe/Sofia,
dcc29305-9603-11e6-9066-549f350fcb0c,Karlovac (Bus Station),45.488384,15.550233,QKL,,,,,,,Europe/Zagreb,
dcc224e0-9603-11e6-9066-549f350fcb0c,Karlovy Vary (Terminal),50.229908,12.863974,KB,,,,,,,Europe/Prague,
3a60555c-ef49-4287-bef1-e9d69314d8db,Karlskoga (bus station),59.326894,14.511848,KAA,,,,,,,Europe/Stockholm,
9b6837d7-3ecb-11ea-8017-02437075395e,Karlskrona,56.165521,15.586784,KARL,,,,,,,Europe/Stockholm,
dcbacb9f-9603-11e6-9066-549f350fcb0c,Karlsruhe central train station,48.991468,8.400453,KA,,,,,,,Europe/Berlin,
dd5e6677-34c6-4be2-86c6-3fbdfb6ec5e7,Karlstad (bus station),59.379174,13.492887,KAR,,,,,,,Europe/Stockholm,
eff16fde-bdbe-4d97-8d4c-17624e686cfa,"Karpacz, Bachus",50.775121,15.757708,KPZ,,,,,,,Europe/Warsaw,
834f61c1-edc1-4b39-8ea8-991652302845,"Karwia, Wojska Polskiego 22 i 13",54.83052,18.212253,KRW,,,,,,,Europe/Warsaw,
dcbb8a76-9603-11e6-9066-549f350fcb0c,Kassel (Wilhelmshöhe train station),51.31227,9.44807,KS,,,,,,,Europe/Berlin,
dcbd04b6-9603-11e6-9066-549f350fcb0c,Katowice Sądowa Dworzec,50.259179,19.010395,KTW,,,,,,,Europe/Warsaw,
9b6b03bb-3ecb-11ea-8017-02437075395e,Kaunas bus station,54.889395,23.928025,KAU,,,,,,,Europe/Vilnius,
9b6a68bb-3ecb-11ea-8017-02437075395e,"Kazimierz Dolny, Dworzec Autobusowy",51.323569,21.9482,KZD,,,,,,,Europe/Warsaw,
c095f0d7-bcc6-43dc-a9d8-696fa466e804,Kaštel Sucurac,43.550806,16.431554,QKS,,,,,,,Europe/Zagreb,
dcbac756-9603-11e6-9066-549f350fcb0c,Kehl train station,48.576428,7.807702,KHL,,,,,,,Europe/Berlin,
dcbb6501-9603-11e6-9066-549f350fcb0c,Kempten (Allgäu),47.719819,10.317048,KE,,,,,,,Europe/Berlin,
47ae38fc-bd1a-4ff6-9823-8ef279d9635a,Khmelnytskyi (BS-1),49.43229,27.025532,KHM,,,,,,,Europe/Kyiv,
9563e4ca-0972-4805-a7b0-62d52b86793c,"Kielce, dworzec autobusowy",50.875679,20.621443,KCE,,,,,,,Europe/Warsaw,
dcbd0906-9603-11e6-9066-549f350fcb0c,Klagenfurt central train station (bus station),46.616335,14.311549,KLA,,,,,,,Europe/Vienna,
dcbcae2d-9603-11e6-9066-549f350fcb0c,Klausen (Chiusa) station,46.641651,11.572782,BZK,,,,,,,Europe/Rome,
dcc4f762-9603-11e6-9066-549f350fcb0c,Klek,42.946044,17.564909,QKE,,,,,,,Europe/Zagreb,
a348d416-9480-451f-8812-4cb330339966,Kljenovac,43.457079,17.066529,WKL,,,,,,,Europe/Zagreb,
c86781ff-622d-49b5-96d2-e893ac751e06,"Kluszkowce, Kluszkowce 32 i Kluszkowce Borek 57",49.450932,20.295312,KLU,,,,,,,Europe/Warsaw,
9b6aa1bf-3ecb-11ea-8017-02437075395e,Klášterec nad Ohří (bus station),50.387178,13.192641,KNOA,,,,,,,Europe/Prague,
870f904b-23e1-4cf8-9780-b9a44d23c092,Kneževo autobusno stajalište,45.838687,18.646192,ZKE,,,,,,,Europe/Zagreb,
dcc422e4-9603-11e6-9066-549f350fcb0c,Knin bus station,44.03548,16.198036,QKN,,,,,,,Europe/Zagreb,
a40c8ad3-679b-49de-9e7e-432bd9b3368a,Knöstad (E18 Bytespunkten),59.24854,12.833021,KNO,,,,,,,Europe/Stockholm,
dcc18970-9603-11e6-9066-549f350fcb0c,Kolding bus station,55.492308,9.483467,KOL,,,,,,,Europe/Copenhagen,
9b6a6468-3ecb-11ea-8017-02437075395e,Kolomyia (Bus Station),48.524925,25.026592,KMA,,,,,,,Europe/Kyiv,
b3c18829-90ca-45ac-9cf1-31b92b8f85d8,"Konin, Dworzec PKP 350 - 02",52.231226,18.24945,KNN,,,,,,,Europe/Warsaw,
e36bb1b8-7f52-446f-a432-8731e6e5f0cd,Koper Banka,45.543984,13.730632,KPB,,,,,,,Europe/Ljubljana,
dcc516ae-9603-11e6-9066-549f350fcb0c,Koprivnica bus station,46.164827,16.817504,QKV,,,,,,,Europe/Zagreb,
dcc42598-9603-11e6-9066-549f350fcb0c,Korenica,44.743868,15.706596,QKR,,,,,,,Europe/Zagreb,
dcc2e318-9603-11e6-9066-549f350fcb0c,Kornwestheim,48.862463,9.179332,KWH,,,,,,,Europe/Berlin,
9b6a63fd-3ecb-11ea-8017-02437075395e,Korosten (Bus Station),50.952204,28.637166,KRSN,,,,,,,Europe/Kyiv,
1f5788d0-6d79-4569-a4ee-e1ffccd7696c,Korswandt,53.918875,14.164759,KWD,,,,,,,Europe/Berlin,
53ca45bb-c724-482b-937c-c8291fb68a41,Kortrijk (Kinepolis XPO),50.805027,3.276925,KRT,,,,,,,Europe/Brussels,
4cc53fcd-dee1-4e85-81fb-1aa3a2abb6cc,Koserow,54.050042,13.999013,KOW,,,,,,,Europe/Berlin,
9b6ada8a-3ecb-11ea-8017-02437075395e,"Kostrzyn nad Odrą, ul. Dworcowa 22 i 17",52.590261,14.647152,KOZ,,,,,,,Europe/Warsaw,
b581af3b-6e1f-40cd-95af-15eda4de6c0f,"Koszalin,  Dworzec Autobusowy",54.189635,16.170632,KIN,,,,,,,Europe/Warsaw,
9b6a3d1d-3ecb-11ea-8017-02437075395e,Kovel (Bus Station),51.219793,24.711049,KEL,,,,,,,Europe/Kyiv,
fce5c9e1-a4ab-41d1-908b-c3a78e6d39dc,Kozarac autobusno stajalište,45.720363,18.675075,ZKO,,,,,,,Europe/Zagreb,
4c66fdfb-9764-4bec-83a4-ae010d0fbd45,Kočeta,43.523027,16.053355,QKOC,,,,,,,Europe/Zagreb,
6e15fdad-072e-4518-984c-06896c09c3b5,"Kołobrzeg, punkt odpraw, ul. Kolejowa",54.18147,15.571972,KDA,,,,,,,Europe/Warsaw,
2f49ebbe-31ab-4e11-a910-bca8886a3666,Košice (bus station),48.721522,21.267569,KOS,,,,,,,Europe/Bratislava,
2e945a72-272e-4865-a147-13b15a2b0ac3,Kožino autobusna stanica,44.171218,15.194234,WKZ,,,,,,,Europe/Zagreb,
0411bb51-01d1-4d5b-88f4-49908e102843,Kraków Dworzec Autobusowy Czyżyny,50.075099,20.015349,KWC,,,,,,,Europe/Warsaw,
dcbd0e26-9603-11e6-9066-549f350fcb0c,"Kraków, Dworzec Autobusowy MDA",50.067614,19.94951,KRK,,,,,,,Europe/Warsaw,
9b6a6348-3ecb-11ea-8017-02437075395e,"Krasnystaw, Dworzec Autobusowy",50.986239,23.171599,K5T,,,,,,,Europe/Warsaw,
b3565b98-3c48-4ff6-9927-e75788a0ab07,"Kraśnik, Przystanek Kraśnik",50.922439,22.227272,KRN,,,,,,,Europe/Warsaw,
dcbc0ba5-9603-11e6-9066-549f350fcb0c,Krefeld central bus station,51.32466,6.569686,KR,,,,,,,Europe/Berlin,
9b684730-3ecb-11ea-8017-02437075395e,Kristiansand rutebilstasjon,58.144956,7.989392,KRIS,,,,,,,Europe/Oslo,
eb6950c9-97bd-4486-bdf2-ca7401b0c911,Kristinehamn (ReseCentrum),59.316499,14.108322,KRI,,,,,,,Europe/Stockholm,
e3cb0d7e-5cd8-4691-827e-1f1a5d9107ee,Krivodol,43.435421,17.122144,QKD,,,,,,,Europe/Zagreb,
efcb0ce0-ce4e-4d07-9cdf-00bbc9d61181,Križišće,45.260713,14.611116,YKR,,,,,,,Europe/Zagreb,
5789ee4a-09da-4724-b03c-af55caa3a6a6,Krk (Ulica Slavka Nikolića),45.028656,14.567096,KRR,,,,,,,Europe/Zagreb,
0dca7499-d85a-41f6-ab4b-7377f25f795f,Kroměříž (Milíčovo náměstí),49.296589,17.390574,K1Z,,,,,,,Europe/Prague,
9b6892ab-3ecb-11ea-8017-02437075395e,Krosno Odrzańskie,52.055704,15.094493,KR2,,,,,,,Europe/Warsaw,
846cd7b1-83e6-47be-a80c-584d2de59e50,"Krosno, Dworzec Autobusowy",49.695184,21.74746,KRO,,,,,,,Europe/Warsaw,
c00cff55-4070-47e5-be9f-2168ad8ff6a8,Krościenko nad Dunajcem - Rynek,49.440581,20.428762,KRD,,,,,,,Europe/Warsaw,
f60cf7d7-b5ce-46b0-97a3-9c69a9a42c8d,Krvavica,43.32774,16.985227,QKI,,,,,,,Europe/Zagreb,
1d9c09a0-cab2-44d6-a40f-05fc8bfc417f,Krynica Morska Dworzec Autobusowy,54.38081,19.445887,KRM,,,,,,,Europe/Warsaw,
4f82691a-9ff2-44b4-af23-ea79b7bc82ef,"Krynica-Zdrój, Hawana 01 i 76",49.424371,20.957098,KRY,,,,,,,Europe/Warsaw,
e9311b56-ffa0-4c50-a2e0-7ecb61caee47,"Kudowa Zdrój, ul. Główna 11, Dworzec PKP",50.4307,16.244467,KUD,,,,,,,Europe/Warsaw,
9b6840e8-3ecb-11ea-8017-02437075395e,Kungälv resecentrum E6,57.871296,11.967452,Kgv,,,,,,,Europe/Stockholm,
dcc41e60-9603-11e6-9066-549f350fcb0c,Kutina bus station,45.479599,16.772601,QKU,,,,,,,Europe/Zagreb,
8e198f4f-9910-462d-a8ca-21fb57f844cd,Kuševac autobusno stajalište,45.348715,18.422665,WKU,,,,,,,Europe/Zagreb,
25ceb178-cbc9-4248-9c8f-066fff4b7891,Kyiv (Kyiv Bus Station),50.442721,30.493251,KYI,,,,,,,Europe/Kyiv,
528ed2a4-d710-446f-a700-eb2595704112,Kölpinsee station,54.035125,14.0226,KNS,,,,,,,Europe/Berlin,
dcbfb791-9603-11e6-9066-549f350fcb0c,Kühlungsborn Ost train station,54.147957,11.75903,KBO,,,,,,,Europe/Berlin,
6de8a3e3-a347-4bce-a0bd-f766f7be1aea,"Kąty Rybackie, Janosikówka",54.33578,19.213852,KJA,,,,,,,Europe/Warsaw,
2ccf33c5-ecb0-47d1-a1b5-b4e743e837c1,"Kłodzko, Kościuszki (Targowisko) 15 i 16",50.437457,16.648529,KLO,,,,,,,Europe/Warsaw,
dcc3f73e-9603-11e6-9066-549f350fcb0c,L'Aquila,42.360361,13.377405,LAQ,,,,,,,Europe/Rome,
d7734cdc-8424-4f92-ac97-7a1d03830e99,La Baule,47.288565,-2.391516,LBL,,,,,,,Europe/Paris,
caf0da1d-ec0c-4f0c-96c5-ae2876203ded,La Jonquera,42.405744,2.871518,LAJO,,,,,,,Europe/Madrid,
dcc0a8be-9603-11e6-9066-549f350fcb0c,La Rochelle (Pôle d'échanges Jean Moulin),46.152918,-1.14093,LAR,,,,,,,Europe/Paris,
dcc2f7c0-9603-11e6-9066-549f350fcb0c,La Spezia (Via Carducci),44.113766,9.847507,SP,,,,,,,Europe/Rome,
3251585b-e2d7-42ff-867d-9a524344e454,Lagonegro (Dilinergie),40.133557,15.763602,LNR,,,,,,,Europe/Rome,
ebc6e937-2043-4b61-a051-1c035b615c19,Lagos,37.107361,-8.676404,RLG,,,,,,,Europe/Lisbon,
36911654-4476-4f03-bd73-19fad871cd4f,Laigueglia,43.981755,8.158948,LGL,,,,,,,Europe/Rome,
678850d5-fe1a-47f3-ba37-5c3d8f5c8a1a,Lamezia Terme,38.92096,16.255419,LMZ,,,,,,,Europe/Rome,
dcbcac4d-9603-11e6-9066-549f350fcb0c,Lana (Lido),46.608785,11.175297,BZL,,,,,,,Europe/Rome,
f4a78e0d-1468-40ce-ae0d-8c07b48c3362,Lancaster (University),54.01025,-2.78538,LANC,,,,,,,Europe/London,
a66e8745-929c-4ef4-93b0-e501a9607c88,Lanciano,42.26599,14.43387,LCO,,,,,,,Europe/Rome,
dcbb87b3-9603-11e6-9066-549f350fcb0c,Landau (Pfalz) central train station,49.196735,8.125738,LD,,,,,,,Europe/Berlin,
1d28ee97-ad7e-4b32-b4cc-919179aa8c8e,Langon (Péage Ouest),44.544518,-0.262519,LGO,,,,,,,Europe/Paris,
1eea41e7-0473-453b-b962-5e27acfe6cbb,Langres (North Tollgate),47.936025,5.287282,LNN,,,,,,,Europe/Paris,
d17fdbbd-6d03-42c3-8c0e-e966929d7439,Lapalisse (RN7 aire des vérités),46.246352,3.611507,LAP,,,,,,,Europe/Paris,
ab3103f5-9153-4b07-855c-15162b3d9484,Larvik (Farriseidet),59.055305,10.008371,LVK,,,,,,,Europe/Oslo,
dcc05da5-9603-11e6-9066-549f350fcb0c,Lausanne (P+R Vélodrome),46.536324,6.623189,LAU,,,,,,,Europe/Zurich,
4e0822b3-77a8-46b5-8674-63c6e4d810bc,Laval (Bus Station),48.076139,-0.759644,LAL,,,,,,,Europe/Paris,
dcc5be1b-9603-11e6-9066-549f350fcb0c,Lavello,41.051769,15.793953,LVL,,,,,,,Europe/Rome,
5faeba35-2aab-4e17-a394-98f3f69528d3,Lazise,45.506675,10.73488,LZS,,,,,,,Europe/Rome,
dcc14569-9603-11e6-9066-549f350fcb0c,Le Havre (central bus station),49.492236,0.126149,LEH,,,,,,,Europe/Paris,
095188d7-3889-4f6f-a1b3-9e483c2fa18c,Le Lavandou,43.138194,6.364211,LOU,,,,,,,Europe/Paris,
dcc14685-9603-11e6-9066-549f350fcb0c,Le Mans,48.017473,0.149493,LEM,,,,,,,Europe/Paris,
dcc33cde-9603-11e6-9066-549f350fcb0c,Le Mont Saint-Michel,48.612077,-1.50914,LMS,,,,,,,Europe/Paris,
dcc1a2f6-9603-11e6-9066-549f350fcb0c,Lecce,40.363064,18.168364,LCC,,,,,,,Europe/Rome,
646a9915-5646-4504-9b47-6df213aa7654,Lecco,45.855744,9.396452,LCT,,,,,,,Europe/Rome,
9b698006-3ecb-11ea-8017-02437075395e,Leeds (Kirkgate),53.795576,-1.537214,LEE,,,,,,,Europe/London,
dcbbefbb-9603-11e6-9066-549f350fcb0c,Leer ZOB,53.230905,7.464173,LER,,,,,,,Europe/Berlin,
131ebf3e-8499-47f4-98b5-269d7e36e415,"Legnica, Dworzec Autobusowy",51.212909,16.166565,LGC,,,,,,,Europe/Warsaw,
8de58594-a599-42ea-a170-b01e3c4f85ff,Legoland (Billund),55.735001,9.132273,LEL,,,,,,,Europe/Copenhagen,
9b69e4e3-3ecb-11ea-8017-02437075395e,Leicester (Fosse Park),52.598953,-1.177798,LET,,,,,,,Europe/London,
dcbad0e0-9603-11e6-9066-549f350fcb0c,Leipzig central train station,51.345057,12.384724,L,,,,,,,Europe/Berlin,
ea2165b8-9656-44bb-beb9-e75e8dc79ec9,Leiria (Bus Station),39.745175,-8.805293,LEI,,,,,,,Europe/Lisbon,
2fbe82c3-5340-46a7-abef-2618ef074086,Lekenik,45.584971,16.21036,LKK,,,,,,,Europe/Zagreb,
3286f04e-089a-4b4c-8a44-e4beda540b9b,Leon (Bus Station),42.593408,-5.579101,LEX,,,,,,,Europe/Madrid,
5494958f-17cf-4cbf-aca1-71feabeb3c5a,Les Ulis,48.683284,2.188614,ULS,,,,,,,Europe/Paris,
73192ec5-b578-43e4-8133-e3e2f7a2c0a4,Lesina,41.860553,15.355066,LIA,,,,,,,Europe/Rome,
d65f2dd3-ff1a-4b65-aecf-7023dfd04a50,"Lesko, Dworzec Autobusowy",49.475988,22.32522,LSK,,,,,,,Europe/Warsaw,
15ece947-4901-4c5d-b701-d7460306e387,"Leszno, Dworzec Autobusowy",51.844227,16.566782,LEO,,,,,,,Europe/Warsaw,
dcbc9b53-9603-11e6-9066-549f350fcb0c,Leutkirch station,47.826803,10.017229,LEU,,,,,,,Europe/Berlin,
dcc0a9fe-9603-11e6-9066-549f350fcb0c,Leuven Station (Perron 15),50.884089,4.714237,LVN,,,,,,,Europe/Brussels,
dcbac956-9603-11e6-9066-549f350fcb0c,Leverkusen (Mitte station),51.032368,6.991052,K,,,,,,,Europe/Berlin,
3f6f3c5a-bff8-404e-a9a3-1e25ca32263c,Levoča (bus station),49.018881,20.586786,L2V,,,,,,,Europe/Bratislava,
dcc45202-9603-11e6-9066-549f350fcb0c,Liberec (bus station),50.763871,15.046145,LBC,,,,,,,Europe/Prague,
b21e9b82-eb37-48a4-ab37-65d3f0350da9,Lido di Jesolo,45.508669,12.640006,LDJ,,,,,,,Europe/Rome,
dcbf8aeb-9603-11e6-9066-549f350fcb0c,Lille,50.639197,3.076202,LIL,,,,,,,Europe/Paris,
dcc0636f-9603-11e6-9066-549f350fcb0c,Limburg a. d. Lahn (ICE Station),50.381778,8.09525,LIM,,,,,,,Europe/Berlin,
dcc148a5-9603-11e6-9066-549f350fcb0c,Limoges (central bus station),45.835897,1.268347,LES,,,,,,,Europe/Paris,
0ca088ef-7d9d-44b6-baa0-cf9ea1b6bf73,Lindau (Blaukreuzstrasse),47.552715,9.708916,LBQ,,,,,,,Europe/Berlin,
dcc39396-9603-11e6-9066-549f350fcb0c,Linköping (Fjärrbussterminal) Flixbus Stop,58.418175,15.621091,LKO,,,,,,,Europe/Stockholm,
dcc5abc6-9603-11e6-9066-549f350fcb0c,Linz Industriezeile,48.299634,14.322007,LII,,,,,,,Europe/Vienna,
dcbd1d67-9603-11e6-9066-549f350fcb0c,Linz central train station (Wissensturm),48.290632,14.288931,LIW,,,,,,,Europe/Vienna,
7485d109-0894-4e7a-bca8-30533346741a,"Lipno, Dworzec Autobusowy",52.847743,19.1795,LPN,,,,,,,Europe/Warsaw,
46d0cce3-232b-4ff0-82ba-31904ed08c8e,Liptovský Mikuláš (bus station),49.09082,19.607525,LMI,,,,,,,Europe/Bratislava,
9a30aab4-4caa-4ee6-9e33-739752be7cd0,Lisbon (Oriente),38.76793,-9.100857,LBO,,,,,,,Europe/Lisbon,
5d6c907a-5699-46e6-a0c0-8cb0fe626e2f,Litomyšl (bus station),49.866535,16.311329,LT0,,,,,,,Europe/Prague,
84f3d1ce-374f-49bd-9d51-3d3a1a198e84,Liverpool (One Bus Station),53.40188,-2.987914,LVP,,,,,,,Europe/London,
d173639f-74e7-43ff-b75f-48dc4f77c461,Livingston (Deer Park),55.914896,-3.526478,LVDP,,,,,,,Europe/London,
dcc1a081-9603-11e6-9066-549f350fcb0c,Livorno (Piazza Dante),43.553777,10.335535,LV,,,,,,,Europe/Rome,
dcbd25cc-9603-11e6-9066-549f350fcb0c,Liège Guillemins,50.62405,5.568636,LUT,,,,,,,Europe/Brussels,
d532a3e7-3cc6-4e57-a601-a6fd88900bd4,Ljuba,43.490159,17.099923,WLJ,,,,,,,Europe/Zagreb,
dcbd21fc-9603-11e6-9066-549f350fcb0c,Ljubljana bus station,46.057722,14.510167,LBJ,,,,,,,Europe/Ljubljana,
dcc43bc7-9603-11e6-9066-549f350fcb0c,Ljubuški bus station,43.198271,17.549289,QLU,,,,,,,Europe/Sarajevo,
abb6ef5a-94c7-49f3-a945-f09534527e46,Ljungby (Busstation) Flixbus Stop,56.831941,13.937341,LJU,,,,,,,Europe/Stockholm,
dcc3ad95-9603-11e6-9066-549f350fcb0c,Lloret de Mar (Bus Station),41.701087,2.84235,LLO,,,,,,,Europe/Madrid,
a17109ed-05e2-4362-aead-95eeb01569d7,Loano (dir. Ovest),44.133019,8.26172,LNO,,,,,,,Europe/Rome,
b387079a-6fdd-4b23-8328-85709fec3e70,Locorotondo,40.755648,17.318169,LCN,,,,,,,Europe/Rome,
ac6eb6fd-bac5-406f-8af4-1eeb5d08c3d8,London Finchley Road (Stop CL),51.547914,-0.180742,LFR,,,,,,,Europe/London,
9b6be210-3ecb-11ea-8017-02437075395e,London Hammersmith Bridge Road,51.492232,-0.225715,LHA,,,,,,,Europe/London,
9b6a34b8-3ecb-11ea-8017-02437075395e,"London Heathrow Airport (Central Bus Station, T2 and T3)",51.471267,-0.453333,LHR,,,,,,,Europe/London,
8ba1bb5b-593c-4005-9f85-e8f2aefb0f48,London Marble Arch,51.511998,-0.157442,LMB,,,,,,,Europe/London,
9b6a8a0d-3ecb-11ea-8017-02437075395e,London Stratford- Montifichet Road Stop U,51.543563,-0.003804,LSTR,,,,,,,Europe/London,
dcc0f769-9603-11e6-9066-549f350fcb0c,London Victoria Coach Station,51.492186,-0.149079,LVC,,,,,,,Europe/London,
dcc55ba7-9603-11e6-9066-549f350fcb0c,Longarone,46.267257,12.3016,LGRE,,,,,,,Europe/Rome,
64e78ca8-5549-41cd-8aaf-97d9e8ec00aa,Loreto,43.448053,13.620278,LRE,,,,,,,Europe/Rome,
dcc149bb-9603-11e6-9066-549f350fcb0c,Lorient (central bus station),47.755365,-3.364491,LOR,,,,,,,Europe/Paris,
e0ba2cdf-7df4-435a-af0b-8bad82d84dce,Louny (bus station),50.354808,13.804554,L1Y,,,,,,,Europe/Prague,
6ac9ffce-6723-42ef-be90-8bbed96b90e2,Lourdes (Bus Station SNCF),43.100244,-0.041102,LRD,,,,,,,Europe/Paris,
6448076c-0549-4d46-af38-f13d791575cc,Lourosa,40.973352,-8.53669,LUA,,,,,,,Europe/Lisbon,
7edbbda3-bc82-4e60-9be0-cddbd9ee5130,Lovinac,44.390119,15.682438,LVNC,,,,,,,Europe/Zagreb,
329c11ba-c2a2-4b2a-b2d0-2caf42fe36f4,Lovrec,43.487969,16.98468,QLV,,,,,,,Europe/Zagreb,
9b6b7a52-3ecb-11ea-8017-02437075395e,"Lubartów, DH Jubilat",51.462587,22.608655,L5T,,,,,,,Europe/Warsaw,
9b6ad544-3ecb-11ea-8017-02437075395e,"Lubawka, ul. Kombatantów",50.706271,16.00101,LBW,,,,,,,Europe/Warsaw,
17192d26-a05b-4d5e-bc9c-e9581ba5c73d,Lubenec (u dálnice),50.136219,13.320215,LNC,,,,,,,Europe/Prague,
3920384b-f434-48e8-a879-4bb6796388e7,"Lubin, Dworzec Autobusowy",51.402306,16.201353,LUI,,,,,,,Europe/Warsaw,
deff7f45-3d10-4bb0-a5bd-7ddc327d9f41,"Lublin, Dworzec Lublin nr 3420",51.231567,22.56598,LBI,,,,,,,Europe/Warsaw,
dcc2fc18-9603-11e6-9066-549f350fcb0c,Lucca,43.83843,10.505039,LUC,,,,,,,Europe/Rome,
dcbc87a8-9603-11e6-9066-549f350fcb0c,Lugano (Via Ciani),46.02244,8.963193,LUG,,,,,,,Europe/Zurich,
da1c779d-b9af-4474-8cda-80320fcb2b6f,Lugoj (MOL petrol station),45.675536,21.909051,QLM,,,,,,,Europe/Bucharest,
dcc47c34-9603-11e6-9066-549f350fcb0c,Lund (Centralen),55.708531,13.187669,LUN,,,,,,,Europe/Stockholm,
dcc5dfdb-9603-11e6-9066-549f350fcb0c,Lunel,43.688418,4.13342,LUL,,,,,,,Europe/Paris,
ecc9c968-d901-4e17-8eb2-9aaaff514ad6,"Lutowiska, Ośrodek Zdrowia",49.254354,22.690337,LWA,,,,,,,Europe/Warsaw,
9b6a3ce8-3ecb-11ea-8017-02437075395e,Lutsk Bus Station,50.760471,25.354688,LTK,,,,,,,Europe/Kyiv,
dcc5d357-9603-11e6-9066-549f350fcb0c,"Luxembourg, P+R Bouillon",49.599985,6.105047,LUX,,,,,,,Europe/Luxembourg,
e7c8ed17-43b8-4766-8c0c-3f215ae7aca9,Luzern (Landenberg),47.046915,8.315742,LUZ,,,,,,,Europe/Zurich,
35b53a7c-4cab-4446-bd3d-f7f62213b9e0,Luzzi,39.448136,16.260571,LZI,,,,,,,Europe/Rome,
ccb91939-36f1-4614-a55e-8a286a3efe5b,Lučenec (bus station),48.334347,19.668063,L1N,,,,,,,Europe/Bratislava,
dcc4c90f-9603-11e6-9066-549f350fcb0c,Lviv (Stryiskyi Bus Station),49.786781,24.016486,LVS,,,,,,,Europe/Kyiv,
30c10b2a-9677-4eea-ba1a-7319569e161d,Lyngdal (Rom terminal),58.156139,7.102171,LGDL,,,,,,,Europe/Oslo,
dcc0aca2-9603-11e6-9066-549f350fcb0c,Lyon Perrache (Central Bus Station - Galerie D),45.749276,4.827632,LYO,,,,,,,Europe/Paris,
75a0f982-b111-4328-bdff-db3e45d44111,Lyon Saint Exupéry Airport,45.718496,5.078983,SXP,,,,,,,Europe/Paris,
888179e8-112b-4ba0-ae48-e03a38bf9138,Lysaker stasjon,59.912911,10.638137,LYSA,,,,,,,Europe/Oslo,
dcbac26f-9603-11e6-9066-549f350fcb0c,Lörrach central train station,47.615973,7.665964,LRR,,,,,,,Europe/Berlin,
d4487cdf-1dfe-4528-aaa8-3abf02c50ed1,Lübeck Holstentor,53.865664,10.679335,HLHT,,,,,,,Europe/Berlin,
b56b93fe-7463-4eab-804f-ad1aab7fb43a,Lüneburg (FlixTrain),53.249789,10.419764,ALBG,,,,,,,Europe/Berlin,
bd08a4aa-065a-4f7c-b443-29b13bbf6b1c,"Lębork, Dworcowa",54.533396,17.74826,LRK,,,,,,,Europe/Warsaw,
147b8195-7848-46f2-a504-64489182927b,M6 Rugby (Driver change - no drop off),52.41019,-1.247324,M6RB,,,,,,,Europe/London,
dcbd7a02-9603-11e6-9066-549f350fcb0c,Maastricht (International Bus Station),50.852543,5.705562,MST,,,,,,,Europe/Amsterdam,
99a03c3e-e34b-4207-b27f-3024f74f8df1,Macedo de Cavaleiros,41.539487,-6.971677,MEC,,,,,,,Europe/Lisbon,
91fa80a3-269a-4e91-ac52-080801240622,Macerata (Autostazione),43.299722,13.444112,MNE,,,,,,,Europe/Rome,
765c44fe-f070-4e9c-8238-71c078e8734f,Madrid (South Bus Station),40.395255,-3.677876,MAD,,,,,,,Europe/Madrid,
dcbb26d9-9603-11e6-9066-549f350fcb0c,Magdeburg central bus station,52.13118,11.62435,MD,,,,,,,Europe/Berlin,
7dc992eb-de2b-4ba3-a176-2d078917f473,Maglie,40.121817,18.305321,MGL,,,,,,,Europe/Rome,
dcbb7f98-9603-11e6-9066-549f350fcb0c,Mainz central train station (exit West),50.000435,8.258504,MZ,,,,,,,Europe/Berlin,
dcc42696-9603-11e6-9066-549f350fcb0c,Makarska bus station,43.29799,17.01849,MKK,,,,,,,Europe/Zagreb,
5e27bb0b-8dfe-4399-be62-b23800957ce7,Malaga (Bus Station),36.712426,-4.434925,MGA,,,,,,,Europe/Madrid,
dcc4d8d8-9603-11e6-9066-549f350fcb0c,Malinska,45.122428,14.526459,QML,,,,,,,Europe/Zagreb,
dcbd7d00-9603-11e6-9066-549f350fcb0c,Malmö central train station FlixBus stop,55.607909,13.000309,MAL,,,,,,,Europe/Stockholm,
d513c47c-16ad-4f48-be57-bf0da5289345,Manchester (Shudehill Interchange),53.485286,-2.238568,MHI,,,,,,,Europe/London,
18988422-f436-497a-8d7f-c58616f512a9,Mandal (Marnarkrysset),58.032396,7.484979,MAND,,,,,,,Europe/Oslo,
6b744e4e-e86c-4b11-ba5a-109b4d2b74d0,Mandatoriccio,39.524763,16.893097,MDT,,,,,,,Europe/Rome,
354346f6-234c-4ddf-baa7-b7fd73b2920e,Manduria,40.406607,17.642372,MND,,,,,,,Europe/Rome,
dcc3aa12-9603-11e6-9066-549f350fcb0c,Manfredonia,41.626458,15.913033,MFD,,,,,,,Europe/Rome,
28a57702-08c4-4219-980f-9f5420cf590d,Mangualde,40.604482,-7.757226,MGE,,,,,,,Europe/Lisbon,
dcbac575-9603-11e6-9066-549f350fcb0c,Mannheim central bus station,49.47808,8.472819,MA,,,,,,,Europe/Berlin,
dcc59b9c-9603-11e6-9066-549f350fcb0c,Mantua (Strada Cipata),45.162408,10.812224,MNT,,,,,,,Europe/Rome,
919c7fa8-f1f8-44d1-8403-4d5fab461fed,Marbella (Bus Station),36.519653,-4.892437,MBA,,,,,,,Europe/Madrid,
dcbc700c-9603-11e6-9066-549f350fcb0c,Marburg central train station (Krummbogen),50.817354,8.774438,MR,,,,,,,Europe/Berlin,
dcbd7eba-9603-11e6-9066-549f350fcb0c,Maribor bus station,46.558917,15.655222,MRB,,,,,,,Europe/Ljubljana,
dcc041d9-9603-11e6-9066-549f350fcb0c,Marienberg (Reitzenhainer Straße),50.648005,13.159747,MAB,,,,,,,Europe/Berlin,
9b6b03e0-3ecb-11ea-8017-02437075395e,"Marijampole, autobusų stotis",54.556594,23.363455,MRP,,,,,,,Europe/Vilnius,
c81bc48f-ecf3-41ff-beba-7263e87526c8,Marina autobusno stajalište,43.520988,16.137941,QMX,,,,,,,Europe/Zagreb,
654542aa-8b03-449d-a019-d868c64a8065,Marinha Grande,39.745453,-8.931279,MHD,,,,,,,Europe/Lisbon,
dcbfc41f-9603-11e6-9066-549f350fcb0c,Markdorf (Ravensburger Straße),47.719829,9.391456,MDF,,,,,,,Europe/Berlin,
dcc226e2-9603-11e6-9066-549f350fcb0c,Marktredwitz station,50.003986,12.082828,MAK,,,,,,,Europe/Berlin,
dcbcaa4d-9603-11e6-9066-549f350fcb0c,Marling (Marlengo),46.657776,11.144922,BZG,,,,,,,Europe/Rome,
dcc2e206-9603-11e6-9066-549f350fcb0c,Marseille (central bus station St Charles),43.304081,5.37999,MAA,,,,,,,Europe/Paris,
e7813085-5122-4af6-8aa8-ebe960a72aa1,Martigny,46.10525,7.080065,MGY,,,,,,,Europe/Zurich,
d75d96f3-caf4-42f9-91f0-fc788cb65c65,Martina Franca,40.705875,17.34186,MF,,,,,,,Europe/Rome,
fa792e35-b0fd-41bb-862b-25d7012e2b73,Martinsicuro,42.885944,13.914014,MSI,,,,,,,Europe/Rome,
4ca12bcf-cb68-4120-ba9f-3370fa1c14eb,Massa (CC Carrefour),44.021453,10.110448,MSSC,,,,,,,Europe/Rome,
dcc3f548-9603-11e6-9066-549f350fcb0c,Matera,40.677114,16.590159,MAT,,,,,,,Europe/Rome,
1d1209af-c6db-4eea-ab69-0520f6dab874,Mece autobusno stajalište,45.621007,18.718269,ZME,,,,,,,Europe/Zagreb,
1ecb27fb-2237-4d6e-bd68-82b3064bb60b,Medgidia (Blvd. Independentei 69),44.26066,28.2627,MGD,,,,,,,Europe/Bucharest,
8c21e3f0-420e-4a6d-94a2-5d8348c0e04b,Mediaș (Autogara BAT),46.160995,24.351988,MDI,,,,,,,Europe/Bucharest,
8a124fab-88b4-48f0-b5b6-26297a08ffa7,"Medyka, Granica",49.802276,22.940362,MEX,,,,,,,Europe/Warsaw,
dcbab81d-9603-11e6-9066-549f350fcb0c,Meersburg,47.695249,9.271471,MBK,,,,,,,Europe/Berlin,
a0df420d-2846-416d-a7e7-ccf8b600855c,Meja,45.293212,14.585574,YME,,,,,,,Europe/Zagreb,
cfef8c93-6375-4fb0-bc2b-c4fabd9d5f67,Melgaço (Bus Staion),42.10988,-8.26167,MGG,,,,,,,Europe/Lisbon,
dcbc9487-9603-11e6-9066-549f350fcb0c,Memmingen Allgäu airport,47.989529,10.232261,MMF,,,,,,,Europe/Berlin,
dcbb680f-9603-11e6-9066-549f350fcb0c,Memmingen central bus station,47.98401,10.18656,MM,,,,,,,Europe/Berlin,
dcc359c2-9603-11e6-9066-549f350fcb0c,Mendig (Rasthof),50.38234,7.27016,MDG,,,,,,,Europe/Berlin,
dcbca8e9-9603-11e6-9066-549f350fcb0c,Meran (Merano) - Terme,46.668917,11.159333,BZM,,,,,,,Europe/Rome,
eaa329bd-d24e-4cfc-bb87-f2fdf2b5e1ad,Merida (Bus Station),38.914315,-6.357948,MDA,,,,,,,Europe/Madrid,
dcbc0f08-9603-11e6-9066-549f350fcb0c,Merseburg bus station,51.356425,11.991397,MER,,,,,,,Europe/Berlin,
dcbc0aab-9603-11e6-9066-549f350fcb0c,Merzig bus station,49.437092,6.634771,MRZ,,,,,,,Europe/Berlin,
dcbb8c61-9603-11e6-9066-549f350fcb0c,Meschede bus station,51.349065,8.280059,MES,,,,,,,Europe/Berlin,
682f1f0b-ebbd-424b-8e95-58f88bb23901,Messina,38.186057,15.560744,MSN,,,,,,,Europe/Rome,
3b6d0648-b164-45d0-81c8-6a242b9f93a9,Metaponto,40.369274,16.814631,MTO,,,,,,,Europe/Rome,
dcc4b935-9603-11e6-9066-549f350fcb0c,Metković,43.053861,17.642044,QME,,,,,,,Europe/Zagreb,
dcbd8097-9603-11e6-9066-549f350fcb0c,Metz (central bus station),49.110164,6.183766,MTZ,,,,,,,Europe/Paris,
dcc43ef0-9603-11e6-9066-549f350fcb0c,Međugorje,43.195392,17.678533,QMD,,,,,,,Europe/Sarajevo,
e1c42be5-8f52-4d6f-91f2-deb180600b6f,Middelfart (Strib rasteplads),55.512173,9.767246,MIF,,,,,,,Europe/Copenhagen,
9b69e565-3ecb-11ea-8017-02437075395e,Middlesbrough (Bus Station),54.576085,-1.239545,MIB,,,,,,,Europe/London,
67e1c554-6141-49de-a044-6dbc8ba76785,"Miedzywodzie, ul. Armii Krajowej",54.004167,14.694389,MIW,,,,,,,Europe/Warsaw,
1191f632-567a-4c7a-86c1-3ca06ef64b1a,Miedzyzdroje,53.927667,14.45042,MIE,,,,,,,Europe/Warsaw,
9b6a7449-3ecb-11ea-8017-02437075395e,"Mielec, Dworzec Przesiadkowy",50.291745,21.431021,MDP,,,,,,,Europe/Warsaw,
be4cf34f-4367-421c-9358-6d34dca65e06,"Mielno, ul. Lechitów",54.254918,16.054884,MNO,,,,,,,Europe/Warsaw,
4b6a56d1-4b50-46b1-97a6-f2af837e1c95,Miercurea Ciuc (Autogara Csiki Trans),46.361885,25.792771,MCI,,,,,,,Europe/Bucharest,
30fa088f-7197-4ecf-9088-070aa9a6ccd6,"Mikoszewo, Centrum nr 14 i 61",54.333196,18.969094,MIK,,,,,,,Europe/Warsaw,
9b6a367f-3ecb-11ea-8017-02437075395e,"Mikołajki, Plac Kościelny",53.802816,21.570451,MKL,,,,,,,Europe/Warsaw,
dcbc484a-9603-11e6-9066-549f350fcb0c,Milan (Lampugnano bus station),45.489719,9.127528,MIO,,,,,,,Europe/Rome,
d4c1ca2b-e9e4-4001-b9fe-b03ec7916c07,Milazzo,38.19734,15.258125,MZZ,,,,,,,Europe/Rome,
dcc59eba-9603-11e6-9066-549f350fcb0c,Millau (Central Bus Station),44.102213,3.074826,MIL,,,,,,,Europe/Paris,
87b7b3d2-5e7d-4d25-9a2d-d43497e214a8,Mimice,43.405192,16.809525,WMM,,,,,,,Europe/Zagreb,
c896d1bd-2df0-4e65-b533-d7d8c40e77a8,Mirabilandia,44.331973,12.269094,MRL,,,,,,,Europe/Rome,
bfff0033-3665-4bd5-b472-f2b2174a7745,Mirandela,41.481527,-7.181319,MDL,,,,,,,Europe/Lisbon,
dade3fde-f55c-4a8b-a3a0-44bab1594e18,Mirto Crosia,39.60485,16.776629,MKR,,,,,,,Europe/Rome,
7b8345bc-4bd3-46fb-8f59-7f09ffc3fd1e,Misano Adriatico (Bus stop 61),43.984881,12.69007,MSA,,,,,,,Europe/Rome,
b646ae22-eecf-47b5-a079-47cff5459ed5,Miskolc Bus station,48.104812,20.791117,MKC,,,,,,,Europe/Budapest,
f29ab151-14e1-47b7-8f83-1b22a0bb9cea,Misterhult Vägskäl E22,57.477014,16.517757,MSH,,,,,,,Europe/Stockholm,
4f751c6c-87a1-4e05-b2f7-0cb0ffe4ce61,Mittenwald train station (Mühlenweg),47.440197,11.266275,MWB,,,,,,,Europe/Berlin,
9b6a6b5d-3ecb-11ea-8017-02437075395e,"Międzyrzec Podlaski, ul. Brzeska",51.986575,22.791077,MPD,,,,,,,Europe/Warsaw,
9b6bb965-3ecb-11ea-8017-02437075395e,Międzyrzecz,52.444605,15.592787,MCZ,,,,,,,Europe/Warsaw,
e5347c42-ab26-457c-bb2c-fd8057359e4d,Mjölby station,58.321181,15.132065,MJB,,,,,,,Europe/Stockholm,
a7478c38-1243-46be-b91b-7faa7ec4a475,Mladá Boleslav (bus station),50.419683,14.916227,MLA,,,,,,,Europe/Prague,
dcc1a55b-9603-11e6-9066-549f350fcb0c,Modena (Terminal via Gottardi),44.630647,10.950426,MOD,,,,,,,Europe/Rome,
82b76f86-2c26-45c5-850d-d37cdf1ba652,Modica,36.866807,14.757047,ODC,,,,,,,Europe/Rome,
c427e385-5386-43f5-9857-31f9b8ceb2c1,Modugno,41.087106,16.776608,MDU,,,,,,,Europe/Rome,
b1a593e5-1bbb-4856-802f-11f436853875,Moita da Serra,40.28693,-8.083931,EDO,,,,,,,Europe/Lisbon,
52b369a2-ec5a-40da-89b1-6a4d97ed2e85,Mola di Bari,41.055432,17.079056,MLR,,,,,,,Europe/Rome,
f1e782c4-ad49-4809-9b19-607c7d9e23a1,Mongrassano,39.538553,16.222954,MGS,,,,,,,Europe/Rome,
dcc45d4c-9603-11e6-9066-549f350fcb0c,Monopoli,40.948739,17.289121,MNP,,,,,,,Europe/Rome,
dcc0b6bb-9603-11e6-9066-549f350fcb0c,Mons Av. Léo Collard,50.459535,3.936132,MON,,,,,,,Europe/Brussels,
690940e0-9a21-428f-8812-f13953d8140e,Monselice - Colli Euganei,45.237636,11.754913,MCU,,,,,,,Europe/Rome,
8586965e-0803-4afa-8e9e-96341edf1310,Montabaur (ICE station),50.443835,7.825168,MTB,,,,,,,Europe/Berlin,
758fd64a-02f4-4183-ab2d-a14ef63fa20e,Montana bus station,43.40763,23.229183,MO,,,,,,,Europe/Sofia,
dcc354e2-9603-11e6-9066-549f350fcb0c,Montargis Ouest (Tollgate at motorway exit 18),47.992301,2.677124,MOT,,,,,,,Europe/Paris,
f6d1c60b-d77d-462b-b01a-a5756469fe5b,Montauban (Aussone),44.044706,1.389712,MTA,,,,,,,Europe/Paris,
dcc271f0-9603-11e6-9066-549f350fcb0c,Montbéliard (Acropole),47.508905,6.80187,MBL,,,,,,,Europe/Paris,
7bb3753b-bf84-4dd7-ba8f-d1a4167d3845,Monte Gordo,37.182186,-7.451808,ONT,,,,,,,Europe/Lisbon,
4f178907-0312-40f0-aa39-ca381cb06374,Montecatini,43.879821,10.781404,MTM,,,,,,,Europe/Rome,
dcc0b9bc-9603-11e6-9066-549f350fcb0c,Montpellier (Sabines),43.583932,3.860233,MTP,,,,,,,Europe/Paris,
e4b86abb-5ef1-4e0c-b495-1c6fc1c03411,Montélimar (Péage Sud),44.479406,4.76361,MOI,,,,,,,Europe/Paris,
c3fd816e-3efa-4fa0-a79e-1b6eb3151811,Monção (Bus Station),42.076488,-8.489499,MNC,,,,,,,Europe/Lisbon,
d4f84e91-7ad2-4746-b4e9-a70774ed904a,Mormanno,39.901927,15.976179,MRN,,,,,,,Europe/Rome,
4a339e86-7937-497e-a435-65fd4e966d4a,Mortagua,40.397288,-8.229828,MTG,,,,,,,Europe/Lisbon,
119b96fe-b99e-416c-9c6a-13c6bab0de31,Moss (Mosseporten senter),59.4453,10.702597,MOP,,,,,,,Europe/Oslo,
6ad22099-0c34-48f8-8a78-79d2310c4bea,Most (1. náměstí),50.50109,13.638766,M1N,,,,,,,Europe/Prague,
dcc2db39-9603-11e6-9066-549f350fcb0c,Moulins (Central Bus Station),46.56235,3.338828,MOL,,,,,,,Europe/Paris,
97228872-5f77-40d4-8120-6960b0e40fcb,Mrnjavci,43.494159,17.003203,WMN,,,,,,,Europe/Zagreb,
b4500646-ffa5-4a4b-8d30-8e723933da1e,"Mrzeżyno, ul. Kołobrzeska 3152Z 09T i 10T",54.145153,15.304985,MRE,,,,,,,Europe/Warsaw,
be435268-25ea-4761-91e8-5e3ff5814eb1,"Mrągowo, Curie-Skłodowskiej – Dworzec 01",53.862744,21.295299,MCW,,,,,,,Europe/Warsaw,
c2625c1d-cbb0-4dd5-aee2-1b71afab605b,Muccia,43.075432,13.063033,MCC,,,,,,,Europe/Rome,
9b6a651f-3ecb-11ea-8017-02437075395e,Mukachevo (Bus Station),48.439267,22.731323,MUK,,,,,,,Europe/Kyiv,
dcc0fb55-9603-11e6-9066-549f350fcb0c,Mulhouse (bus station),47.742877,7.342869,MLH,,,,,,,Europe/Paris,
dcbabbfa-9603-11e6-9066-549f350fcb0c,Munich central bus station,48.14248,11.55001,M,,,,,,,Europe/Berlin,
