stop_id,stop_name,stop_lat,stop_lon,stop_code,stop_desc,zone_id,stop_url,location_type,parent_station,wheelchair_boarding,stop_timezone,platform_code
779481dc-ec1a-4651-9771-f0e97a5cacc9,A Coruña (Bus Station),43.353826,-8.403607,RUN,,,,,,,Europe/Madrid,
357e465b-8a94-4c9a-9bae-cd0b5369f33b,Aachen station west (Henricistraße),50.783515,6.072513,ACH,,,,,,,Europe/Berlin,
92d7b08b-d81c-47a5-86e3-9bd0a9715481,Aalborg (Busterminal),57.041367,9.918595,AAB,,,,,,,Europe/Copenhagen,
2e49e929-7bd2-4d40-805e-1cf5a76b8bed,Aberdeen Bus Station,57.144242,-2.095539,ADBS,,,,,,,Europe/London,
dcc10721-9603-11e6-9066-549f350fcb0c,Aix-en-Provence (Krypton),43.510992,5.447616,AIX,,,,,,,Europe/Paris,
134ea077-f211-495c-a622-cd0c4a88a1f9,Alba Iulia (bus station Livio Dario),46.057661,23.577052,AI,,,,,,,Europe/Bucharest,
dcc217e8-9603-11e6-9066-549f350fcb0c,Alessandria,44.908637,8.608076,ALE,,,,,,,Europe/Rome,
e30c47fe-6abc-47bb-8a9d-d6c6f5d3bb1a,Algeciras (Bus Station),36.126004,-5.448016,RAS,,,,,,,Europe/Madrid,
687eb82b-bc6a-45c5-93cc-3c186b7ecc06,Alicante (Bus Station),38.337817,-0.49137,ACT,,,,,,,Europe/Madrid,
dcc46142-9603-11e6-9066-549f350fcb0c,Altamura,40.819117,16.559347,ALM,,,,,,,Europe/Rome,
8fe62385-9e01-4eb2-a21d-96ff645072e1,Amiens (Campus),49.874466,2.264624,AME,,,,,,,Europe/Paris,
7ed9675b-72b2-441f-8c52-c3233f96578a,Amsterdam Bijlmer Arena,52.310564,4.94656,ABA,,,,,,,Europe/Amsterdam,
dcbdd1b1-9603-11e6-9066-549f350fcb0c,Amsterdam Sloterdijk,52.389758,4.838497,AMD,,,,,,,Europe/Amsterdam,
dcc03f47-9603-11e6-9066-549f350fcb0c,Ancona,43.610365,13.502943,ANC,,,,,,,Europe/Rome,
dcc4623a-9603-11e6-9066-549f350fcb0c,Andria,41.240961,16.292604,AND,,,,,,,Europe/Rome,
dcc1007f-9603-11e6-9066-549f350fcb0c,Angers (central bus station),47.464897,-0.557648,ANG,,,,,,,Europe/Paris,
ce3841d7-7f79-40a2-a12a-fc171af17016,Antibes (Pôle d'échanges),43.586363,7.118931,ANB,,,,,,,Europe/Paris,
dcc52e01-9603-11e6-9066-549f350fcb0c,Aprilia,41.591916,12.639595,APR,,,,,,,Europe/Rome,
09a312c8-5613-429c-9e9c-de853c3910d8,Arad (bus station Europa Connect),46.201429,21.264501,ARAD,,,,,,,Europe/Bucharest,
507012eb-80c7-47c2-8361-a634969b7ef5,Arezzo (Viale dei Carabinieri),43.465682,11.868646,EIC,,,,,,,Europe/Rome,
8005d5c5-bb32-43a0-aa9e-0d095ba64a15,Argenteuil,48.946925,2.256392,AGL,,,,,,,Europe/Paris,
dcbc52ce-9603-11e6-9066-549f350fcb0c,Arnhem Central Station (Sonsbeekzijde),51.985608,5.899662,AHM,,,,,,,Europe/Amsterdam,
dcbb8990-9603-11e6-9066-549f350fcb0c,Arnsberg train station,51.405015,8.066429,AR,,,,,,,Europe/Berlin,
dcbbe36f-9603-11e6-9066-549f350fcb0c,Aschaffenburg (Goldbacher Straße),49.977752,9.14962,AB,,,,,,,Europe/Berlin,
dcbb0c6a-9603-11e6-9066-549f350fcb0c,Augsburg (Augsburg P+R Nord),48.40172,10.877042,A,,,,,,,Europe/Berlin,
5ce7c246-9c0e-4c34-959f-fcd32924b874,Aveiro  (Bus Station),40.644193,-8.639249,AVI,,,,,,,Europe/Lisbon,
7c9b9a0b-7ab5-4a64-ab85-5bb90bb23515,Avignon (Le Pontet),43.960626,4.855938,ALP,,,,,,,Europe/Paris,
c377dfb7-cc18-4060-9c72-4ce967ff97ef,Bacău (bus station Bistrita),46.571717,26.920485,BCU,,,,,,,Europe/Bucharest,
d9cad23d-ae0c-4772-8f39-f7962d2c77f8,Bad Salzuflen central bus station,52.081957,8.748648,BSZ,,,,,,,Europe/Berlin,
3206878f-013f-461c-9b14-825058cf6b33,Badajoz (Bus Station),38.866735,-6.974156,BDJ,,,,,,,Europe/Madrid,
dcc5fe86-9603-11e6-9066-549f350fcb0c,Baden-Baden (station),48.789499,8.191384,BAD,,,,,,,Europe/Berlin,
5b079070-eefc-43a2-a0c9-a391e0f20fc6,Baia Mare (Autogara Imperativ),47.648657,23.551498,BMR,,,,,,,Europe/Bucharest,
dcbb23f9-9603-11e6-9066-549f350fcb0c,Bamberg train station,49.901694,10.900172,BA,,,,,,,Europe/Berlin,
b17f1b28-f048-4b96-aea5-69dff3946f59,Banská Bystrica (bus station),48.734613,19.158438,BBY,,,,,,,Europe/Bratislava,
dcc34bb9-9603-11e6-9066-549f350fcb0c,Barcelona (Bus Terminal Nord),41.394181,2.182959,BAC,,,,,,,Europe/Madrid,
dcc051e2-9603-11e6-9066-549f350fcb0c,Bari (Via Capruzzi),41.11703,16.87138,IBA,,,,,,,Europe/Rome,
dcc3bc31-9603-11e6-9066-549f350fcb0c,Barletta,41.308405,16.289453,BTA,,,,,,,Europe/Rome,
086064da-8914-415f-83cc-8d6a087f5ed2,Basel Bad (FlixTrain),47.567793,7.606924,RB,,,,,,,Europe/Zurich,
dcbf8dd0-9603-11e6-9066-549f350fcb0c,Basel Euroairport FR,47.600729,7.531714,BEA,,,,,,,Europe/Paris,
dcbc827f-9603-11e6-9066-549f350fcb0c,Basel SBB (Meret Oppenheim-Street),47.546467,7.587736,BAS,,,,,,,Europe/Zurich,
dcbae41c-9603-11e6-9066-549f350fcb0c,Bayreuth central train station,49.951106,11.577908,BT,,,,,,,Europe/Berlin,
9b68fe40-3ecb-11ea-8017-02437075395e,Beauvais Sud (Délie),49.410446,2.113453,BVS,,,,,,,Europe/Paris,
dcc132e7-9603-11e6-9066-549f350fcb0c,Belfort,47.629696,6.856167,BFT,,,,,,,Europe/Paris,
c17eed68-17b3-421f-a8f4-3f3786cb4fca,Belgrade bus station,44.810284,20.454158,BEO,,,,,,,Europe/Belgrade,
dcc5390d-9603-11e6-9066-549f350fcb0c,Benevento,41.131499,14.782848,BNV,,,,,,,Europe/Rome,
c7d5c43d-c243-4a09-813b-e526de1a3c12,Benidorm (Bus Station),38.548831,-0.124099,BNR,,,,,,,Europe/Madrid,
dcc45a6f-9603-11e6-9066-549f350fcb0c,Bergamo (Orio al Serio Airport - BGY),45.665814,9.697448,BGY,,,,,,,Europe/Rome,
dcbbfc7d-9603-11e6-9066-549f350fcb0c,Bergen auf Rügen,54.411749,13.431624,RUG,,,,,,,Europe/Berlin,
dcbaaee6-9603-11e6-9066-549f350fcb0c,Berlin central bus station,52.507171,13.279399,B,,,,,,,Europe/Berlin,
dcc0604a-9603-11e6-9066-549f350fcb0c,Bern (Neufeld car terminal),46.963711,7.433698,BER,,,,,,,Europe/Zurich,
dcc1345c-9603-11e6-9066-549f350fcb0c,Besançon,47.246911,6.022603,BSN,,,,,,,Europe/Paris,
cb7760ae-0c67-4c6b-a1ad-4fff78ec6f01,Bełchatów Szpital,51.375548,19.34844,BPI,,,,,,,Europe/Warsaw,
e383decd-d064-423a-ab3b-600e6023edde,"Białystok, Bus Station",53.132833,23.135389,BIK,,,,,,,Europe/Warsaw,
dcbc5a46-9603-11e6-9066-549f350fcb0c,Bielefeld Brackwede train station,51.997974,8.499713,BI,,,,,,,Europe/Berlin,
7fd077ce-bf03-415d-988a-b4206eff3040,Bielefeld Central Station (FlixTrain),52.029313,8.53315,EBIL,,,,,,,Europe/Berlin,
51a5ef9c-1847-4bb3-8e4d-09a4392e1f6b,Bila Tserkva (79km of Kyiv-Odesa Highway),49.783071,30.20083,BLTS,,,,,,,Europe/Kyiv,
3314645f-7903-4bc9-b9ef-74ff161feca2,Bilbao (Bus Station),43.261055,-2.948689,BIL,,,,,,,Europe/Madrid,
5b2a7b8e-2af4-49d9-bf3c-55955afc3459,Birmingham Summer Row- Great Charles Street,52.481141,-1.90619,BMD,,,,,,,Europe/London,
9b68df58-3ecb-11ea-8017-02437075395e,Blagoevgrad Central Bus Terminal,42.012961,23.087043,BOW,,,,,,,Europe/Sofia,
193429b9-df93-4902-90a1-1c24f9ed3933,Blois (Bus Station),47.586958,1.324166,BLS,,,,,,,Europe/Paris,
dcbff634-9603-11e6-9066-549f350fcb0c,Bocholt bus station,51.83407,6.620218,BOC,,,,,,,Europe/Berlin,
dcbaefef-9603-11e6-9066-549f350fcb0c,Bochum central station (Wittener Straße),51.47931,7.22485,BO,,,,,,,Europe/Berlin,
dcc03216-9603-11e6-9066-549f350fcb0c,Bologna (central bus station),44.50399,11.346852,BOL,,,,,,,Europe/Rome,
82c2031d-4239-44c3-86b2-2755b1491990,Bolzano South (Stazione FS),46.473782,11.326356,BLZ,,,,,,,Europe/Rome,
dcbb9d17-9603-11e6-9066-549f350fcb0c,Bonn UN Campus (Museumsmeile),50.712671,7.120409,BN,,,,,,,Europe/Berlin,
dcc06cc2-9603-11e6-9066-549f350fcb0c,Bordeaux Saint-Jean (Paludate),44.82975,-0.553934,BDX,,,,,,,Europe/Paris,
9ad9397d-e5a2-4b33-8765-3a86101763e5,Borås (Resecentrum) Flixbus Stop,57.720123,12.931395,BOS,,,,,,,Europe/Stockholm,
dcc0af4f-9603-11e6-9066-549f350fcb0c,Bourges (central bus station),47.082474,2.386704,BOU,,,,,,,Europe/Paris,
9b69e5b5-3ecb-11ea-8017-02437075395e,Bradford Nelson Street,53.790631,-1.752577,BRF,,,,,,,Europe/London,
bc68b3d1-bfe0-49a9-88d1-88eb6d4ffd35,Braga (Centro de Transportes),41.555317,-8.425437,BRR,,,,,,,Europe/Lisbon,
dcc2cb4f-9603-11e6-9066-549f350fcb0c,Bratislava (bus station Mlynské Nivy),48.14679,17.128865,BTS,,,,,,,Europe/Bratislava,
dcc219cc-9603-11e6-9066-549f350fcb0c,Breda Prinsenbeek,51.604088,4.723247,BRP,,,,,,,Europe/Amsterdam,
dcc06f26-9603-11e6-9066-549f350fcb0c,Breda central train station,51.596493,4.778302,BRE,,,,,,,Europe/Amsterdam,
dcbb3fe6-9603-11e6-9066-549f350fcb0c,Bremen Fernbusterminal,53.084008,8.807204,HB,,,,,,,Europe/Berlin,
dcc0221c-9603-11e6-9066-549f350fcb0c,Brescia (SAIA bus station),45.533056,10.214444,BSC,,,,,,,Europe/Rome,
dcc13984-9603-11e6-9066-549f350fcb0c,Brest,48.38696,-4.48381,BST,,,,,,,Europe/Paris,
dcc1a425-9603-11e6-9066-549f350fcb0c,Brindisi,40.624179,17.929451,BRD,,,,,,,Europe/Rome,
9b6b7cb9-3ecb-11ea-8017-02437075395e,Bristol (Bond Street North),51.459513,-2.588487,BIO,,,,,,,Europe/London,
dcc543af-9603-11e6-9066-549f350fcb0c,Brive-la-Gaillarde (Centre Commercial Ouest),45.145925,1.482554,BGO,,,,,,,Europe/Paris,
dcc5b203-9603-11e6-9066-549f350fcb0c,Brno (bus station Hotel Grand),49.19341,16.614258,BNN,,,,,,,Europe/Prague,
1c691f12-6f01-46ab-aca0-c5835c365228,Brussels Heysel (Baudouin Metro Station),50.897336,4.329521,BHY,,,,,,,Europe/Brussels,
e1c71267-f21e-438b-b2b2-b4cf7e201e8a,Brăila (bus station PAX),45.280276,27.95603,BRL,,,,,,,Europe/Bucharest,
54c7a569-1af8-4252-aa35-eba0ff50b89b,Bucharest (bus station Militari),44.43294,26.006273,BM,,,,,,,Europe/Bucharest,
dcbcd0d8-9603-11e6-9066-549f350fcb0c,Budapest Népliget bus station,47.474306,19.0985,BUD,,,,,,,Europe/Budapest,
acbb1926-1e7e-430d-a3cc-0edbd64d2cb5,Burgos (Bus Station),42.338244,-3.701226,BUG,,,,,,,Europe/Madrid,
b8e2579f-d457-4e25-90f7-ce4cf4d31859,Busto Arsizio,45.632304,8.84514,BUT,,,,,,,Europe/Rome,
3e21bc1c-0e49-4df5-982f-cce981f76295,Buzău (bus station Nord),45.162924,26.814612,BUZ,,,,,,,Europe/Bucharest,
dcbccbe5-9603-11e6-9066-549f350fcb0c,"Bydgoszcz, dworzec autobusowy",53.122021,18.017502,BYD,,,,,,,Europe/Warsaw,
9554804a-78cc-4946-b62c-d52e82287850,Bârlad (bus station Romdantrans),46.215584,27.673227,BLE,,,,,,,Europe/Bucharest,
9b6b5196-3ecb-11ea-8017-02437075395e,Béziers (SNCF Station),43.336576,3.220587,BZR,,,,,,,Europe/Paris,
dcc13bcd-9603-11e6-9066-549f350fcb0c,Caen (central bus station),49.176488,-0.346787,CAE,,,,,,,Europe/Paris,
dcc13e03-9603-11e6-9066-549f350fcb0c,Calais (P&O Ferry),50.97456,1.87865,CPO,,,,,,,Europe/Paris,
cf8b0df5-4b56-4a08-873c-107a732486d8,Caltanissetta (Via Rochester),37.487484,14.05809,TTA,,,,,,,Europe/Rome,
a0a50227-d81d-4431-aebc-78626e527511,Cambridge (Trumpington Park and Ride),52.167398,0.107904,CTPR,,,,,,,Europe/London,
64f3ab00-d8a7-442f-91f9-ff62cdd55349,Cannes (Le Cannet),43.570703,7.014855,CNN,,,,,,,Europe/Paris,
efed9747-2b35-4f24-8a85-b90401ec5b35,Cardiff Royal Welsh College of Music,51.486791,-3.183915,CGF,,,,,,,Europe/London,
6dc7b9e1-2d18-41d3-9f44-a829cf39da58,Carlisle (Halston Hotel),54.892722,-2.931916,CRLS,,,,,,,Europe/London,
dcc31259-9603-11e6-9066-549f350fcb0c,Caserta,41.068959,14.326765,CAS,,,,,,,Europe/Rome,
073d9b2c-d715-4265-99ee-7add178b747b,Catania (Via D'Amico),37.508701,15.099201,NTA,,,,,,,Europe/Rome,
d5fcab08-3a32-4b47-9499-c6ad1a4ee4f8,Catanzaro,38.905359,16.580895,CTZ,,,,,,,Europe/Rome,
dcbadba6-9603-11e6-9066-549f350fcb0c,Celle central bus station,52.61989,10.06316,CE,,,,,,,Europe/Berlin,
dcc3bf92-9603-11e6-9066-549f350fcb0c,Cerignola,41.260371,15.907776,CR,,,,,,,Europe/Rome,
dcc3f157-9603-11e6-9066-549f350fcb0c,Cesena Accoglienza,44.167916,12.280738,CSN,,,,,,,Europe/Rome,
dcc4a430-9603-11e6-9066-549f350fcb0c,Cesena Karl Marx,44.144858,12.248472,CSM,,,,,,,Europe/Rome,
dcc07383-9603-11e6-9066-549f350fcb0c,Chambéry (Central Bus Station),45.56998,5.91742,CHA,,,,,,,Europe/Paris,
dcc076f4-9603-11e6-9066-549f350fcb0c,Charleroi Gare du Sud,50.403772,4.437987,CHI,,,,,,,Europe/Brussels,
dcbb411a-9603-11e6-9066-549f350fcb0c,Chemnitz central bus station,50.84052,12.9264,C,,,,,,,Europe/Berlin,
9b6baaf9-3ecb-11ea-8017-02437075395e,Chernihiv (Chernihiv-1 Bus Station),51.485423,31.268496,CH,,,,,,,Europe/Kyiv,
9b69e9c5-3ecb-11ea-8017-02437075395e,Chernivtsi (Central Bus Station),48.264883,25.951953,CEI,,,,,,,Europe/Kyiv,
37e44672-96f0-47fc-8d37-f7a38740d2da,Chesterfield Coach Station,53.234011,-1.428652,CEF,,,,,,,Europe/London,
9b6a3d38-3ecb-11ea-8017-02437075395e,"Chełm, Al. Armii Krajowej/KFC 05 i 06",51.13705,23.468146,CEM,,,,,,,Europe/Warsaw,
a74d76c2-af59-4418-9d09-ee525410819a,Chisinau (Airport),46.938933,28.931998,CSNU,,,,,,,Europe/Chisinau,
d6036a29-8af5-46a8-9bbc-88726d60ab64,Chomutov (bus station),50.460144,13.408781,C1H,,,,,,,Europe/Prague,
dd47c5e7-a30b-4fc0-a81a-d17703d46dfe,Châlons-en-Champagne (Pôle d'échanges SNCF Station),48.955118,4.348217,CCC,,,,,,,Europe/Paris,
dcc055c8-9603-11e6-9066-549f350fcb0c,Clermont-Ferrand (Bus Station),45.770757,3.082247,CLF,,,,,,,Europe/Paris,
b38263da-3618-4ac7-a0fe-7a771bb6d2fa,Cluj-Napoca (bus station Beta),46.78597,23.580822,CLJ,,,,,,,Europe/Bucharest,
c9e8bf88-9d2e-46a6-a8e5-17129eb020cc,Coimbra (Rua do Padrao),40.220224,-8.439456,COI,,,,,,,Europe/Lisbon,
dcc079e9-9603-11e6-9066-549f350fcb0c,Colmar,48.073754,7.347802,COL,,,,,,,Europe/Paris,
ffef7a6f-c7b7-4576-88ba-6a73770f0ac9,Como,45.80898,9.073305,CMO,,,,,,,Europe/Rome,
dcbd0b4b-9603-11e6-9066-549f350fcb0c,Copenhagen central train station (Ingerslevsgade),55.670153,12.565466,KHG,,,,,,,Europe/Copenhagen,
7ff08cfb-3f3f-4b2e-867f-e35b7c2452cf,Cosenza (Autostazione),39.304464,16.253361,COS,,,,,,,Europe/Rome,
dcc07b19-9603-11e6-9066-549f350fcb0c,Cottbus bus station,51.75047,14.327465,CB,,,,,,,Europe/Berlin,
0634980d-a9ab-4fa8-9834-d55c943b88d6,Coventry (Pool Meadow),52.410294,-1.506861,CY,,,,,,,Europe/London,
a3bff1da-2eb6-497d-81e6-e0769678ea89,Craiova (bus station Pelendava Nord),44.32823,23.817588,CRO,,,,,,,Europe/Bucharest,
d3d3a71f-6d30-441c-95c2-4988eb4af1b0,Cremona,45.142191,10.017759,CRE,,,,,,,Europe/Rome,
f235a9d0-18b7-43a0-90bb-b459007cc8b3,Crotone,39.084388,17.115038,CRA,,,,,,,Europe/Rome,
ef344930-fef0-430c-bb26-52b97e27aa8e,Cuneo (Movicentro),44.386615,7.535725,CN,,,,,,,Europe/Rome,
dcc595c6-9603-11e6-9066-549f350fcb0c,"Częstochowa, Dworzec Autobusowy",50.805079,19.118984,CZA,,,,,,,Europe/Warsaw,
dcbabf60-9603-11e6-9066-549f350fcb0c,Darmstadt central train station,49.870919,8.628607,DA,,,,,,,Europe/Berlin,
9b6b078d-3ecb-11ea-8017-02437075395e,"Daugavpils, Bus Station",55.871254,26.525593,DVP,,,,,,,Europe/Riga,
63a5dfde-9ab3-4fde-ac87-ac1b0f17f415,Debrecen bus station,47.525562,21.618112,DBC,,,,,,,Europe/Budapest,
dcc08eb1-9603-11e6-9066-549f350fcb0c,Delft Station,52.006766,4.35685,DEF,,,,,,,Europe/Amsterdam,
dcbb9b5d-9603-11e6-9066-549f350fcb0c,Delmenhorst (Riedeweg),53.03158,8.65375,DEL,,,,,,,Europe/Berlin,
dcc27deb-9603-11e6-9066-549f350fcb0c,Deva (bus station Plus Com),45.88462,22.909,QDV,,,,,,,Europe/Bucharest,
dcc09441-9603-11e6-9066-549f350fcb0c,Dijon (Bus Station),47.323534,5.0279,DIJ,,,,,,,Europe/Paris,
dcbaeef4-9603-11e6-9066-549f350fcb0c,Dortmund central bus station,51.51954,7.459387,DO,,,,,,,Europe/Berlin,
39fbab46-9fac-49bb-9349-42c27e5acb43,Drammen Bangeløkka,59.730835,10.216465,DRAM,,,,,,,Europe/Oslo,
dcbb7a42-9603-11e6-9066-549f350fcb0c,Dresden central station (Bayrische Straße),51.039615,13.731438,DDH,,,,,,,Europe/Berlin,
ea80e74b-130c-4bf1-bdbe-dc0c4aef48fc,Drobeta-Turnu Severin (bus station Drobeta),44.63132,22.673118,DTS,,,,,,,Europe/Bucharest,
c59a0fa8-e3eb-49c8-959a-27f933949856,Drohobych,49.355296,23.543034,DRHB,,,,,,,Europe/Kyiv,
dcbbe873-9603-11e6-9066-549f350fcb0c,Duisburg central train station,51.428346,6.771195,DU,,,,,,,Europe/Berlin,
61f2655d-56c7-4972-aa0b-1b85be7503f5,Dundee (Overgate Center -West Marketgait),56.458718,-2.974059,DUND,,,,,,,Europe/London,
6a5518e7-2e7b-4c6f-898f-fe92b1ad8a45,Dunfermline (Halbeath Park and Ride),56.084459,-3.390977,HPR,,,,,,,Europe/London,
ae0bff14-8ff8-4dba-8176-62f0e2d345d1,Dunkerque Port (DFDS Ferry),51.0202,2.18986,DQP,,,,,,,Europe/Paris,
dcbaca96-9603-11e6-9066-549f350fcb0c,Düsseldorf central bus station,51.222865,6.79542,D,,,,,,,Europe/Berlin,
d9c5d2d7-2656-485c-968a-35ae34373143,Edinburgh St Andrew's House,55.953867,-3.1836,EBSA,,,,,,,Europe/London,
dcc15c7e-9603-11e6-9066-549f350fcb0c,Eindhoven Station (John F. Kennedylaan),51.44555,5.480948,EDV,,,,,,,Europe/Amsterdam,
9a45366a-9d4c-4fbb-8bb2-db9d947db03b,"Elbląg, Dworzec Autobusowy",54.152175,19.414913,EBD,,,,,,,Europe/Warsaw,
dcbbe0a3-9603-11e6-9066-549f350fcb0c,Emden central bus station,53.369041,7.196602,EMD,,,,,,,Europe/Berlin,
dcbcdd11-9603-11e6-9066-549f350fcb0c,Enschede (central station),52.221628,6.889476,ENS,,,,,,,Europe/Amsterdam,
dcbbe1ef-9603-11e6-9066-549f350fcb0c,Erfurt central train station,50.974126,11.040614,EF,,,,,,,Europe/Berlin,
dcbb8099-9603-11e6-9066-549f350fcb0c,Erlangen train station (Parkplatzstraße),49.596497,11.00006,ER,,,,,,,Europe/Berlin,
eb619789-dde0-4bdd-8dfd-69f670d9142b,"Espoo, Westendinasema",60.168379,24.804476,EOO,,,,,,,Europe/Helsinki,
dcbaf468-9603-11e6-9066-549f350fcb0c,Essen central train station (Freiheit),51.450253,7.01461,E,,,,,,,Europe/Berlin,
d2a36520-4722-40c8-adec-d17ec0a85603,Exeter (Stover Court- Bampfylde Street),50.72696,-3.523503,EXET,,,,,,,Europe/London,
a5f33a0a-2ff9-4907-9f2a-6e6ae238717c,"Ełk, Dąbrowskiego - PKS 01 i PKP 02",53.825298,22.360769,ELK,,,,,,,Europe/Warsaw,
dcc19905-9603-11e6-9066-549f350fcb0c,Ferrara,44.842838,11.604776,FER,,,,,,,Europe/Rome,
dcbcde95-9603-11e6-9066-549f350fcb0c,Flensburg central train station,54.775223,9.437259,FL,,,,,,,Europe/Berlin,
dcbcdfc1-9603-11e6-9066-549f350fcb0c,Florence (Villa Costanza),43.755014,11.172638,FIV,,,,,,,Europe/Rome,
aa82ef57-2aed-4e77-9669-c72266592573,Focșani (bus station),45.710678,27.178153,FCS,,,,,,,Europe/Bucharest,
dcc0472b-9603-11e6-9066-549f350fcb0c,Foggia,41.465945,15.553421,FOG,,,,,,,Europe/Rome,
dcc4a116-9603-11e6-9066-549f350fcb0c,Foligno,42.95325,12.708145,FOL,,,,,,,Europe/Rome,
dcc31f56-9603-11e6-9066-549f350fcb0c,Folkestone (Eurotunnel),51.09574,1.121821,FOCA,,,,,,,Europe/London,
dcc3ab79-9603-11e6-9066-549f350fcb0c,Forlì (Autostazione),44.223316,12.055246,FRL,,,,,,,Europe/Rome,
dcbab968-9603-11e6-9066-549f350fcb0c,Freiburg (im Breisgau) central station,47.995688,7.840469,FR,,,,,,,Europe/Berlin,
dcbabade-9603-11e6-9066-549f350fcb0c,Friedrichshafen,47.652758,9.473237,FN,,,,,,,Europe/Berlin,
e5054ac6-764a-43fb-8ce8-682a52bc1077,Fréjus (Péage Ouest),43.456308,6.68948,FJS,,,,,,,Europe/Paris,
e28f8aa1-723d-4bb2-947a-0a544d091e53,Frýdek-Místek (bus station),49.67861,18.351241,F1M,,,,,,,Europe/Prague,
d39ec3fd-a7a9-4868-960c-8f4aa4c9c926,Fulda (FlixTrain),50.554587,9.683728,FFU,,,,,,,Europe/Berlin,
dcc32afa-9603-11e6-9066-549f350fcb0c,Fürth Main Station,49.470301,10.991233,FUE,,,,,,,Europe/Berlin,
dcbcd754-9603-11e6-9066-549f350fcb0c,"Gdańsk, Dworzec Autobusowy",54.356152,18.642736,GDN,,,,,,,Europe/Warsaw,
0cdde44e-e945-4e63-83fe-13e09a57691e,"Gdynia, dworzec autobusowy",54.521992,18.529541,GDY,,,,,,,Europe/Warsaw,
dcbc13a4-9603-11e6-9066-549f350fcb0c,Gelsenkirchen (ZOB),51.505747,7.100346,GEZ,,,,,,,Europe/Berlin,
dcc02ea8-9603-11e6-9066-549f350fcb0c,Genoa (Fanti d'Italia/Principe bus station),44.41599,8.919045,GNF,,,,,,,Europe/Rome,
dcbbe99b-9603-11e6-9066-549f350fcb0c,Gera central train station,50.883509,12.079057,G,,,,,,,Europe/Berlin,
dcbbd625-9603-11e6-9066-549f350fcb0c,Gießen (Mathematikum),50.580739,8.666946,GI,,,,,,,Europe/Berlin,
dcc3b197-9603-11e6-9066-549f350fcb0c,Girona Airport (GRO),41.896679,2.766083,GIR,,,,,,,Europe/Madrid,
9b6a7745-3ecb-11ea-8017-02437075395e,Glasgow (Buchanan Bus Station),55.865274,-4.250601,GAS,,,,,,,Europe/London,
55bd2ce7-265f-433e-a9ed-ec1789f5f3ed,"Gliwice, Centrum Przesiadkowe",50.302802,18.676778,GCP,,,,,,,Europe/Warsaw,
cb8de308-2075-405e-9421-ffd764e57fb9,"Gniezno, Parking, ul. Łaskiego",52.538121,17.589126,GPT,,,,,,,Europe/Warsaw,
8f6a2557-011a-4092-b411-9f84a8bb2c6a,"Gorzów Wielkopolski, dworzec autobusowy",52.728477,15.227842,GOR,,,,,,,Europe/Warsaw,
cdf5aee6-9a78-468c-84c7-8d395c6ac70f,Granada (Bus Station),37.200138,-3.613957,GND,,,,,,,Europe/Madrid,
8b76dea4-11c1-45fe-9a62-e365917ae24d,Graz P&R Webling,47.036483,15.409932,GRW,,,,,,,Europe/Vienna,
dcbbfa60-9603-11e6-9066-549f350fcb0c,Greifswald central bus station,54.093568,13.369863,HGW,,,,,,,Europe/Berlin,
dcc0fda5-9603-11e6-9066-549f350fcb0c,Grenoble (Central Bus Station),45.192828,5.713938,GBL,,,,,,,Europe/Paris,
dcbc6d4a-9603-11e6-9066-549f350fcb0c,Groningen central station,53.211648,6.566523,GRO,,,,,,,Europe/Amsterdam,
92333f38-3f59-4bd3-80d7-08aed24e877e,"Grudziądz, Dworzec Kolejowy 03",53.48262,18.76171,GDK,,,,,,,Europe/Warsaw,
dcbcfef4-9603-11e6-9066-549f350fcb0c,Győr bus station,47.681389,17.636528,GYO,,,,,,,Europe/Budapest,
dcc09d56-9603-11e6-9066-549f350fcb0c,Görlitz (bus station),51.148253,14.976764,GR,,,,,,,Europe/Berlin,
dcbae97c-9603-11e6-9066-549f350fcb0c,Göttingen central bus station,51.534945,9.926184,GTT,,,,,,,Europe/Berlin,
94d2176a-4d6a-4845-ba6a-f4b97f008ed8,Gütersloh Central Station (FlixTrain),51.906994,8.384737,EGLO,,,,,,,Europe/Berlin,
dcc39041-9603-11e6-9066-549f350fcb0c,Halmstad (Resecentrum) Flixbus Stop,56.670016,12.865489,HMS,,,,,,,Europe/Stockholm,
dcbada9a-9603-11e6-9066-549f350fcb0c,Hamburg central bus station,53.551767,10.011657,HH,,,,,,,Europe/Berlin,
bfed86f1-7013-4584-b698-93580cd9e222,Hamm (Westf) Central Station (FlixTrain),51.67829,7.808612,EHM,,,,,,,Europe/Berlin,
9b6a414e-3ecb-11ea-8017-02437075395e,Haskovo,41.933052,25.561396,HSK,,,,,,,Europe/Sofia,
dcc531f9-9603-11e6-9066-549f350fcb0c,Hasselt Station,50.931727,5.326435,HAS,,,,,,,Europe/Brussels,
dcbac076-9603-11e6-9066-549f350fcb0c,Heidelberg central train station,49.406053,8.673417,HD,,,,,,,Europe/Berlin,
dcbf6e33-9603-11e6-9066-549f350fcb0c,Heilbronn central train station,49.141512,9.206945,HN,,,,,,,Europe/Berlin,
dcc39148-9603-11e6-9066-549f350fcb0c,Helsingborg,56.042698,12.695847,HSB,,,,,,,Europe/Stockholm,
9b6b38dd-3ecb-11ea-8017-02437075395e,Helsinki Bus Station (Kamppi),60.169405,24.933535,HKK,,,,,,,Europe/Helsinki,
15414b1c-a955-4ce4-9b45-2df7e10e941e,Herford (FlixTrain),52.119295,8.664089,EHFD,,,,,,,Europe/Berlin,
dcbc14a0-9603-11e6-9066-549f350fcb0c,Herne central bus station,51.544482,7.218346,HER,,,,,,,Europe/Berlin,
683b248f-8da1-4d89-9deb-746c7455f448,Herning FlixBus stop,56.131728,8.978066,HNG,,,,,,,Europe/Copenhagen,
dcbaeb7e-9603-11e6-9066-549f350fcb0c,Hildesheim central bus station,52.159141,9.950779,HI,,,,,,,Europe/Berlin,
39e7e424-36ad-4c23-a6b9-26691d093c8e,Horsens Trafikterminal,55.862028,9.836924,HRS,,,,,,,Europe/Copenhagen,
bb6105f8-0f85-46ba-a31f-3628dc616551,Hradec Králové (Terminal),50.216934,15.812995,HRK,,,,,,,Europe/Prague,
8cf137d5-fc8c-4bfc-9c23-6a22d0d7069f,Huelva (Bus Station),37.257426,-6.956984,HUA,,,,,,,Europe/Madrid,
67e9fac4-7ccf-4f67-a5d1-5f633dd84a12,Hunedoara,45.758038,22.909119,HUN,,,,,,,Europe/Bucharest,
dcc14409-9603-11e6-9066-549f350fcb0c,Hyères,43.116885,6.1339,HYE,,,,,,,Europe/Paris,
dcbc91b1-9603-11e6-9066-549f350fcb0c,Ingolstadt (Nordbahnhof),48.772328,11.432825,IN,,,,,,,Europe/Berlin,
dcbcb402-9603-11e6-9066-549f350fcb0c,Innsbruck Südbahnstraße,47.258351,11.39982,INN,,,,,,,Europe/Vienna,
1f2b61e4-9e6c-4a01-8f3b-c99833f1944c,"Inowrocław, Laubitza",52.799743,18.262939,INW,,,,,,,Europe/Warsaw,
a01bfa7f-9e7e-4af8-b615-6ea8e4270928,Irun (Bus Station),43.339476,-1.80124,IRU,,,,,,,Europe/Madrid,
9b6a644b-3ecb-11ea-8017-02437075395e,Ivano-Frankivsk (Bus Station No.2),48.94395,24.690572,IVF,,,,,,,Europe/Kyiv,
f15213ee-2fce-47bc-bdeb-5288297267c5,"Jelenia Góra, 1-go Maja ""Dworzec Kolejowy"" 03",50.902462,15.75443,JEG,,,,,,,Europe/Warsaw,
9b6b085a-3ecb-11ea-8017-02437075395e,"Jelgava, Railway Station",56.640913,23.731936,JEA,,,,,,,Europe/Riga,
dcbb590e-9603-11e6-9066-549f350fcb0c,Jena bus station (Paradies station),50.925717,11.587604,J,,,,,,,Europe/Berlin,
dcc272ee-9603-11e6-9066-549f350fcb0c,Jihlava (bus station),49.399515,15.581137,JIH,,,,,,,Europe/Prague,
dcc3929a-9603-11e6-9066-549f350fcb0c,Jönköping (ReseCentrum) Flixbus Stop,57.784265,14.164449,JON,,,,,,,Europe/Stockholm,
dcbb4a14-9603-11e6-9066-549f350fcb0c,Kaiserslautern central train station,49.436595,7.767545,KL,,,,,,,Europe/Berlin,
9b6b1899-3ecb-11ea-8017-02437075395e,"Kalisz Pomorski, Toruńska nr 7",53.300167,15.911467,KPM,,,,,,,Europe/Warsaw,
9b6a75ab-3ecb-11ea-8017-02437075395e,"Kalisz, Dworzec Autobusowy",51.743151,18.068372,KIZ,,,,,,,Europe/Warsaw,
9b6bd7e9-3ecb-11ea-8017-02437075395e,Kalush,49.012482,24.352525,KSH,,,,,,,Europe/Kyiv,
9b6837d7-3ecb-11ea-8017-02437075395e,Karlskrona,56.165521,15.586784,KARL,,,,,,,Europe/Stockholm,
dcbacb9f-9603-11e6-9066-549f350fcb0c,Karlsruhe central train station,48.991468,8.400453,KA,,,,,,,Europe/Berlin,
dd5e6677-34c6-4be2-86c6-3fbdfb6ec5e7,Karlstad (bus station),59.379174,13.492887,KAR,,,,,,,Europe/Stockholm,
dcbb8a76-9603-11e6-9066-549f350fcb0c,Kassel (Wilhelmshöhe train station),51.31227,9.44807,KS,,,,,,,Europe/Berlin,
dcbd04b6-9603-11e6-9066-549f350fcb0c,Katowice Sądowa Dworzec,50.259179,19.010395,KTW,,,,,,,Europe/Warsaw,
9b6b03bb-3ecb-11ea-8017-02437075395e,Kaunas bus station,54.889395,23.928025,KAU,,,,,,,Europe/Vilnius,
47ae38fc-bd1a-4ff6-9823-8ef279d9635a,Khmelnytskyi (BS-1),49.43229,27.025532,KHM,,,,,,,Europe/Kyiv,
9563e4ca-0972-4805-a7b0-62d52b86793c,"Kielce, dworzec autobusowy",50.875679,20.621443,KCE,,,,,,,Europe/Warsaw,
dcc18970-9603-11e6-9066-549f350fcb0c,Kolding bus station,55.492308,9.483467,KOL,,,,,,,Europe/Copenhagen,
9b6a6468-3ecb-11ea-8017-02437075395e,Kolomyia (Bus Station),48.524925,25.026592,KMA,,,,,,,Europe/Kyiv,
b3c18829-90ca-45ac-9cf1-31b92b8f85d8,"Konin, Dworzec PKP 350 - 02",52.231226,18.24945,KNN,,,,,,,Europe/Warsaw,
9b6a63fd-3ecb-11ea-8017-02437075395e,Korosten (Bus Station),50.952204,28.637166,KRSN,,,,,,,Europe/Kyiv,
53ca45bb-c724-482b-937c-c8291fb68a41,Kortrijk (Kinepolis XPO),50.805027,3.276925,KRT,,,,,,,Europe/Brussels,
b581af3b-6e1f-40cd-95af-15eda4de6c0f,"Koszalin,  Dworzec Autobusowy",54.189635,16.170632,KIN,,,,,,,Europe/Warsaw,
9b6a3d1d-3ecb-11ea-8017-02437075395e,Kovel (Bus Station),51.219793,24.711049,KEL,,,,,,,Europe/Kyiv,
2f49ebbe-31ab-4e11-a910-bca8886a3666,Košice (bus station),48.721522,21.267569,KOS,,,,,,,Europe/Bratislava,
0411bb51-01d1-4d5b-88f4-49908e102843,Kraków Dworzec Autobusowy Czyżyny,50.075099,20.015349,KWC,,,,,,,Europe/Warsaw,
dcbd0e26-9603-11e6-9066-549f350fcb0c,"Kraków, Dworzec Autobusowy MDA",50.067614,19.94951,KRK,,,,,,,Europe/Warsaw,
dcbc0ba5-9603-11e6-9066-549f350fcb0c,Krefeld central bus station,51.32466,6.569686,KR,,,,,,,Europe/Berlin,
9b684730-3ecb-11ea-8017-02437075395e,Kristiansand rutebilstasjon,58.144956,7.989392,KRIS,,,,,,,Europe/Oslo,
25ceb178-cbc9-4248-9c8f-066fff4b7891,Kyiv (Kyiv Bus Station),50.442721,30.493251,KYI,,,,,,,Europe/Kyiv,
dcc0a8be-9603-11e6-9066-549f350fcb0c,La Rochelle (Pôle d'échanges Jean Moulin),46.152918,-1.14093,LAR,,,,,,,Europe/Paris,
dcc2f7c0-9603-11e6-9066-549f350fcb0c,La Spezia (Via Carducci),44.113766,9.847507,SP,,,,,,,Europe/Rome,
678850d5-fe1a-47f3-ba37-5c3d8f5c8a1a,Lamezia Terme,38.92096,16.255419,LMZ,,,,,,,Europe/Rome,
dcc05da5-9603-11e6-9066-549f350fcb0c,Lausanne (P+R Vélodrome),46.536324,6.623189,LAU,,,,,,,Europe/Zurich,
4e0822b3-77a8-46b5-8674-63c6e4d810bc,Laval (Bus Station),48.076139,-0.759644,LAL,,,,,,,Europe/Paris,
dcc14569-9603-11e6-9066-549f350fcb0c,Le Havre (central bus station),49.492236,0.126149,LEH,,,,,,,Europe/Paris,
dcc14685-9603-11e6-9066-549f350fcb0c,Le Mans,48.017473,0.149493,LEM,,,,,,,Europe/Paris,
dcc1a2f6-9603-11e6-9066-549f350fcb0c,Lecce,40.363064,18.168364,LCC,,,,,,,Europe/Rome,
9b698006-3ecb-11ea-8017-02437075395e,Leeds (Kirkgate),53.795576,-1.537214,LEE,,,,,,,Europe/London,
131ebf3e-8499-47f4-98b5-269d7e36e415,"Legnica, Dworzec Autobusowy",51.212909,16.166565,LGC,,,,,,,Europe/Warsaw,
9b69e4e3-3ecb-11ea-8017-02437075395e,Leicester (Fosse Park),52.598953,-1.177798,LET,,,,,,,Europe/London,
dcbad0e0-9603-11e6-9066-549f350fcb0c,Leipzig central train station,51.345057,12.384724,L,,,,,,,Europe/Berlin,
15ece947-4901-4c5d-b701-d7460306e387,"Leszno, Dworzec Autobusowy",51.844227,16.566782,LEO,,,,,,,Europe/Warsaw,
dcc0a9fe-9603-11e6-9066-549f350fcb0c,Leuven Station (Perron 15),50.884089,4.714237,LVN,,,,,,,Europe/Brussels,
dcbac956-9603-11e6-9066-549f350fcb0c,Leverkusen (Mitte station),51.032368,6.991052,K,,,,,,,Europe/Berlin,
dcc45202-9603-11e6-9066-549f350fcb0c,Liberec (bus station),50.763871,15.046145,LBC,,,,,,,Europe/Prague,
dcbf8aeb-9603-11e6-9066-549f350fcb0c,Lille,50.639197,3.076202,LIL,,,,,,,Europe/Paris,
dcc148a5-9603-11e6-9066-549f350fcb0c,Limoges (central bus station),45.835897,1.268347,LES,,,,,,,Europe/Paris,
dcc39396-9603-11e6-9066-549f350fcb0c,Linköping (Fjärrbussterminal) Flixbus Stop,58.418175,15.621091,LKO,,,,,,,Europe/Stockholm,
dcc5abc6-9603-11e6-9066-549f350fcb0c,Linz Industriezeile,48.299634,14.322007,LII,,,,,,,Europe/Vienna,
dcbd1d67-9603-11e6-9066-549f350fcb0c,Linz central train station (Wissensturm),48.290632,14.288931,LIW,,,,,,,Europe/Vienna,
9a30aab4-4caa-4ee6-9e33-739752be7cd0,Lisbon (Oriente),38.76793,-9.100857,LBO,,,,,,,Europe/Lisbon,
84f3d1ce-374f-49bd-9d51-3d3a1a198e84,Liverpool (One Bus Station),53.40188,-2.987914,LVP,,,,,,,Europe/London,
d173639f-74e7-43ff-b75f-48dc4f77c461,Livingston (Deer Park),55.914896,-3.526478,LVDP,,,,,,,Europe/London,
dcc1a081-9603-11e6-9066-549f350fcb0c,Livorno (Piazza Dante),43.553777,10.335535,LV,,,,,,,Europe/Rome,
dcbd25cc-9603-11e6-9066-549f350fcb0c,Liège Guillemins,50.62405,5.568636,LUT,,,,,,,Europe/Brussels,
dcbd21fc-9603-11e6-9066-549f350fcb0c,Ljubljana bus station,46.057722,14.510167,LBJ,,,,,,,Europe/Ljubljana,
ac6eb6fd-bac5-406f-8af4-1eeb5d08c3d8,London Finchley Road (Stop CL),51.547914,-0.180742,LFR,,,,,,,Europe/London,
9b6be210-3ecb-11ea-8017-02437075395e,London Hammersmith Bridge Road,51.492232,-0.225715,LHA,,,,,,,Europe/London,
9b6a34b8-3ecb-11ea-8017-02437075395e,"London Heathrow Airport (Central Bus Station, T2 and T3)",51.471267,-0.453333,LHR,,,,,,,Europe/London,
8ba1bb5b-593c-4005-9f85-e8f2aefb0f48,London Marble Arch,51.511998,-0.157442,LMB,,,,,,,Europe/London,
9b6a8a0d-3ecb-11ea-8017-02437075395e,London Stratford- Montifichet Road Stop U,51.543563,-0.003804,LSTR,,,,,,,Europe/London,
dcc0f769-9603-11e6-9066-549f350fcb0c,London Victoria Coach Station,51.492186,-0.149079,LVC,,,,,,,Europe/London,
dcc149bb-9603-11e6-9066-549f350fcb0c,Lorient (central bus station),47.755365,-3.364491,LOR,,,,,,,Europe/Paris,
3920384b-f434-48e8-a879-4bb6796388e7,"Lubin, Dworzec Autobusowy",51.402306,16.201353,LUI,,,,,,,Europe/Warsaw,
deff7f45-3d10-4bb0-a5bd-7ddc327d9f41,"Lublin, Dworzec Lublin nr 3420",51.231567,22.56598,LBI,,,,,,,Europe/Warsaw,
dcc2fc18-9603-11e6-9066-549f350fcb0c,Lucca,43.83843,10.505039,LUC,,,,,,,Europe/Rome,
dcbc87a8-9603-11e6-9066-549f350fcb0c,Lugano (Via Ciani),46.02244,8.963193,LUG,,,,,,,Europe/Zurich,
dcc47c34-9603-11e6-9066-549f350fcb0c,Lund (Centralen),55.708531,13.187669,LUN,,,,,,,Europe/Stockholm,
9b6a3ce8-3ecb-11ea-8017-02437075395e,Lutsk Bus Station,50.760471,25.354688,LTK,,,,,,,Europe/Kyiv,
dcc5d357-9603-11e6-9066-549f350fcb0c,"Luxembourg, P+R Bouillon",49.599985,6.105047,LUX,,,,,,,Europe/Luxembourg,
e7c8ed17-43b8-4766-8c0c-3f215ae7aca9,Luzern (Landenberg),47.046915,8.315742,LUZ,,,,,,,Europe/Zurich,
dcc4c90f-9603-11e6-9066-549f350fcb0c,Lviv (Stryiskyi Bus Station),49.786781,24.016486,LVS,,,,,,,Europe/Kyiv,
dcc0aca2-9603-11e6-9066-549f350fcb0c,Lyon Perrache (Central Bus Station - Galerie D),45.749276,4.827632,LYO,,,,,,,Europe/Paris,
75a0f982-b111-4328-bdff-db3e45d44111,Lyon Saint Exupéry Airport,45.718496,5.078983,SXP,,,,,,,Europe/Paris,
d4487cdf-1dfe-4528-aaa8-3abf02c50ed1,Lübeck Holstentor,53.865664,10.679335,HLHT,,,,,,,Europe/Berlin,
b56b93fe-7463-4eab-804f-ad1aab7fb43a,Lüneburg (FlixTrain),53.249789,10.419764,ALBG,,,,,,,Europe/Berlin,
dcbd7a02-9603-11e6-9066-549f350fcb0c,Maastricht (International Bus Station),50.852543,5.705562,MST,,,,,,,Europe/Amsterdam,
765c44fe-f070-4e9c-8238-71c078e8734f,Madrid (South Bus Station),40.395255,-3.677876,MAD,,,,,,,Europe/Madrid,
dcbb26d9-9603-11e6-9066-549f350fcb0c,Magdeburg central bus station,52.13118,11.62435,MD,,,,,,,Europe/Berlin,
dcbb7f98-9603-11e6-9066-549f350fcb0c,Mainz central train station (exit West),50.000435,8.258504,MZ,,,,,,,Europe/Berlin,
dcbd7d00-9603-11e6-9066-549f350fcb0c,Malmö central train station FlixBus stop,55.607909,13.000309,MAL,,,,,,,Europe/Stockholm,
d513c47c-16ad-4f48-be57-bf0da5289345,Manchester (Shudehill Interchange),53.485286,-2.238568,MHI,,,,,,,Europe/London,
dcc3aa12-9603-11e6-9066-549f350fcb0c,Manfredonia,41.626458,15.913033,MFD,,,,,,,Europe/Rome,
dcbac575-9603-11e6-9066-549f350fcb0c,Mannheim central bus station,49.47808,8.472819,MA,,,,,,,Europe/Berlin,
919c7fa8-f1f8-44d1-8403-4d5fab461fed,Marbella (Bus Station),36.519653,-4.892437,MBA,,,,,,,Europe/Madrid,
dcbd7eba-9603-11e6-9066-549f350fcb0c,Maribor bus station,46.558917,15.655222,MRB,,,,,,,Europe/Ljubljana,
dcc2e206-9603-11e6-9066-549f350fcb0c,Marseille (central bus station St Charles),43.304081,5.37999,MAA,,,,,,,Europe/Paris,
4ca12bcf-cb68-4120-ba9f-3370fa1c14eb,Massa (CC Carrefour),44.021453,10.110448,MSSC,,,,,,,Europe/Rome,
dcc3f548-9603-11e6-9066-549f350fcb0c,Matera,40.677114,16.590159,MAT,,,,,,,Europe/Rome,
682f1f0b-ebbd-424b-8e95-58f88bb23901,Messina,38.186057,15.560744,MSN,,,,,,,Europe/Rome,
dcbd8097-9603-11e6-9066-549f350fcb0c,Metz (central bus station),49.110164,6.183766,MTZ,,,,,,,Europe/Paris,
9b69e565-3ecb-11ea-8017-02437075395e,Middlesbrough (Bus Station),54.576085,-1.239545,MIB,,,,,,,Europe/London,
9b6a7449-3ecb-11ea-8017-02437075395e,"Mielec, Dworzec Przesiadkowy",50.291745,21.431021,MDP,,,,,,,Europe/Warsaw,
dcbc484a-9603-11e6-9066-549f350fcb0c,Milan (Lampugnano bus station),45.489719,9.127528,MIO,,,,,,,Europe/Rome,
b646ae22-eecf-47b5-a079-47cff5459ed5,Miskolc Bus station,48.104812,20.791117,MKC,,,,,,,Europe/Budapest,
dcc1a55b-9603-11e6-9066-549f350fcb0c,Modena (Terminal via Gottardi),44.630647,10.950426,MOD,,,,,,,Europe/Rome,
82b76f86-2c26-45c5-850d-d37cdf1ba652,Modica,36.866807,14.757047,ODC,,,,,,,Europe/Rome,
dcc0b6bb-9603-11e6-9066-549f350fcb0c,Mons Av. Léo Collard,50.459535,3.936132,MON,,,,,,,Europe/Brussels,
f6d1c60b-d77d-462b-b01a-a5756469fe5b,Montauban (Aussone),44.044706,1.389712,MTA,,,,,,,Europe/Paris,
dcc0b9bc-9603-11e6-9066-549f350fcb0c,Montpellier (Sabines),43.583932,3.860233,MTP,,,,,,,Europe/Paris,
6ad22099-0c34-48f8-8a78-79d2310c4bea,Most (1. náměstí),50.50109,13.638766,M1N,,,,,,,Europe/Prague,
9b6a651f-3ecb-11ea-8017-02437075395e,Mukachevo (Bus Station),48.439267,22.731323,MUK,,,,,,,Europe/Kyiv,
dcc0fb55-9603-11e6-9066-549f350fcb0c,Mulhouse (bus station),47.742877,7.342869,MLH,,,,,,,Europe/Paris,
dcbabbfa-9603-11e6-9066-549f350fcb0c,Munich central bus station,48.14248,11.55001,M,,,,,,,Europe/Berlin,
e3227df6-e27b-436c-8207-b77746251a53,Murcia (Bus Station),37.985089,-1.139475,MUZ,,,,,,,Europe/Madrid,
dcbbac98-9603-11e6-9066-549f350fcb0c,Mönchengladbach central train station,51.198242,6.446858,MG,,,,,,,Europe/Berlin,
4f3a5307-079d-40cd-8876-3f14db9b22f7,Mülheim (Ruhr) Central Station (FlixTrain),51.431264,6.886353,EMLR,,,,,,,Europe/Berlin,
dcbb7817-9603-11e6-9066-549f350fcb0c,Münster bus stop (Hafenstraße),51.953559,7.631869,MS,,,,,,,Europe/Berlin,
dcc0bb38-9603-11e6-9066-549f350fcb0c,Namur,50.466489,4.871021,NAM,,,,,,,Europe/Brussels,
dcc212d9-9603-11e6-9066-549f350fcb0c,Nancy,48.69483,6.190473,NAC,,,,,,,Europe/Paris,
dcc0bd39-9603-11e6-9066-549f350fcb0c,Nantes (Haluchère),47.248931,-1.520808,NAN,,,,,,,Europe/Paris,
dcc19a38-9603-11e6-9066-549f350fcb0c,Naples (Metropark Centrale),40.850931,14.273617,NAP,,,,,,,Europe/Rome,
9b6b4cee-3ecb-11ea-8017-02437075395e,Narbonne (Croix Sud),43.165266,2.98845,NRB,,,,,,,Europe/Paris,
1be70f5e-b178-4aad-8427-dd84a48436cb,"Narva, Bus Station",59.369115,28.199375,NVA,,,,,,,Europe/Tallinn,
dcbbebf2-9603-11e6-9066-549f350fcb0c,Neumünster train station,54.074655,9.979967,NMS,,,,,,,Europe/Berlin,
5765bc17-3ab0-4ee7-890e-ab9975fb7faf,Neuss Central Station (FlixTrain),51.204355,6.684384,KN,,,,,,,Europe/Berlin,
9b6b7d12-3ecb-11ea-8017-02437075395e,Newport Train Station,51.588847,-2.999328,NWP,,,,,,,Europe/London,
c3996d55-4fc0-40ae-8fe2-62b3d07fd0d7,Nice Airport (Bus Station - Terminal 1),43.664817,7.209588,NIT,,,,,,,Europe/Paris,
dcc0bfeb-9603-11e6-9066-549f350fcb0c,Nijmegen Centraal Station (Tunnelweg),51.843691,5.855311,NIJ,,,,,,,Europe/Amsterdam,
dcc3b2ae-9603-11e6-9066-549f350fcb0c,Niort (Pied de Fond),46.307289,-0.485253,NIO,,,,,,,Europe/Paris,
3cccd71c-88f4-4443-965f-b30b88d2dcf2,Nitra (bus station),48.303666,18.080734,N1X,,,,,,,Europe/Bratislava,
9b69e22b-3ecb-11ea-8017-02437075395e,Niš AS,43.325124,21.890843,YNI,,,,,,,Europe/Belgrade,
dcc47b1e-9603-11e6-9066-549f350fcb0c,Norrköping (Resecentrum) Flixbus Stop,58.59681,16.187798,NOK,,,,,,,Europe/Stockholm,
c516e864-baa5-4c12-bfb0-178a7a6b5365,Northampton Town Centre (Victoria Street),52.240883,-0.895194,NGB,,,,,,,Europe/London,
9b69e4fe-3ecb-11ea-8017-02437075395e,Nottingham (Greyfriar Gate Stop C11-12),52.949175,-1.149973,NOT,,,,,,,Europe/London,
d7943c23-014a-4757-af88-c37767f34743,Novara (Veveri A4 westbound),45.470293,8.621371,NVVO,,,,,,,Europe/Rome,
5aa75596-732f-4993-a6d9-d06c8f211b6f,Novi Sad MAS,45.264536,19.828418,NS,,,,,,,Europe/Belgrade,
dcc0c16d-9603-11e6-9066-549f350fcb0c,Nîmes (Parnasse),43.817434,4.362175,NIM,,,,,,,Europe/Paris,
dcbb8185-9603-11e6-9066-549f350fcb0c,Oberhausen central train station (bus stop),51.473819,6.851949,OB,,,,,,,Europe/Berlin,
fdeab689-a111-4d9f-b363-ce9b65176371,Odense Parkering Syd,55.35666,10.4197,ODL,,,,,,,Europe/Copenhagen,
dcc35294-9603-11e6-9066-549f350fcb0c,Odense Station (Dannebrogsgade),55.403362,10.387038,ODE,,,,,,,Europe/Copenhagen,
1a031d47-ba49-47ef-bafe-0a3da4544365,Odesa (Odesa Bus Station),46.476858,30.708396,ODA,,,,,,,Europe/Kyiv,
8b67b5f7-4749-4a54-b26d-cb2c4257fcee,Offenbach (Main) Central Station (FlixTrain),50.099264,8.760743,FO,,,,,,,Europe/Berlin,
8111f454-465d-4ec9-8e95-ebb530e0bc38,Offenburg (FlixTrain),48.47665,7.94672,RO,,,,,,,Europe/Berlin,
dcbb3d73-9603-11e6-9066-549f350fcb0c,Oldenburg central bus station,53.145191,8.223599,OL,,,,,,,Europe/Berlin,
df9aca49-5f85-4d31-9afe-09979a8721b2,Olomouc (bus station),49.58818,17.285752,OAN,,,,,,,Europe/Prague,
4d46503d-1f62-418c-b746-2fbc9c454d43,"Olsztyn, Dworzec Autobusowy",53.78488,20.499411,ODU,,,,,,,Europe/Warsaw,
dcbd8911-9603-11e6-9066-549f350fcb0c,"Opole, Dworzec autobusowy",50.662892,17.928177,OPL,,,,,,,Europe/Warsaw,
ad835a46-1202-4cdf-a390-5c7bede3d136,Oradea (bus station Intrans),47.043072,21.958487,OR,,,,,,,Europe/Bucharest,
dcc39e8f-9603-11e6-9066-549f350fcb0c,Orléans (Libération),47.919533,1.903494,ORS,,,,,,,Europe/Paris,
dcc500aa-9603-11e6-9066-549f350fcb0c,Osijek bus station,45.553192,18.680033,QOK,,,,,,,Europe/Zagreb,
dcc38945-9603-11e6-9066-549f350fcb0c,Oslo (Busterminalen Galleriet),59.911605,10.759301,OSL,,,,,,,Europe/Oslo,
dcbb7621-9603-11e6-9066-549f350fcb0c,Osnabrück central train station (Eisenbahnstraße),52.273961,8.057886,OS,,,,,,,Europe/Berlin,
014f2224-3982-4329-b188-6f1a50f9d5fe,Ostrava (central bus station),49.830387,18.280333,OSA,,,,,,,Europe/Prague,
67703820-dacb-4679-a1fe-aa06e71aa0d2,"Ostrowiec Świętokrzyski, Dworzec Autobusowy",50.934784,21.381411,OSW,,,,,,,Europe/Warsaw,
c3448fcd-101e-4217-9fe7-9da2a588b504,"Ostrołęka, Dworzec Autobusowy",53.084756,21.573188,OSK,,,,,,,Europe/Warsaw,
9b6a7634-3ecb-11ea-8017-02437075395e,Ostrów Wielkopolski Centrum Przesiadkowe,51.651719,17.807041,OSO,,,,,,,Europe/Warsaw,
154647e8-4b41-41da-9aa6-77ef49f2091f,Ourense (Bus Station),42.350214,-7.873043,ORN,,,,,,,Europe/Madrid,
29e3e541-0082-4170-a08a-c3858be4c6ba,Oviedo (Bus Station),43.369147,-5.850537,OVD,,,,,,,Europe/Madrid,
9b6b1efe-3ecb-11ea-8017-02437075395e,"Pabianice, Dworzec PKP nr 9",51.660346,19.325581,PBC,,,,,,,Europe/Warsaw,
dcbdcd12-9603-11e6-9066-549f350fcb0c,Paderborn (Maspernplatz west),51.722987,8.753941,PBM,,,,,,,Europe/Berlin,
0a1a6f22-1936-49c6-b3d3-c915acd11d95,Palencia (Bus Station),42.016396,-4.536843,PLA,,,,,,,Europe/Madrid,
4be19091-966b-41e8-9c0d-ee8945cfa8d6,Palermo (Via Fazello),38.108565,13.366722,PML,,,,,,,Europe/Rome,
b232c755-a5b4-47f1-ac1e-e6f713e51e2c,Pamplona (Bus Station),42.811628,-1.645417,PPN,,,,,,,Europe/Madrid,
dcc5426b-9603-11e6-9066-549f350fcb0c,Paris (Bercy Seine),48.835318,2.380519,PQB,,,,,,,Europe/Paris,
dcc277af-9603-11e6-9066-549f350fcb0c,Parma,44.811147,10.327717,PR,,,,,,,Europe/Rome,
dcbc1c77-9603-11e6-9066-549f350fcb0c,Passau central train station,48.574293,13.450371,PA,,,,,,,Europe/Berlin,
dcc0ca8b-9603-11e6-9066-549f350fcb0c,Pau,43.318988,-0.362096,PAU,,,,,,,Europe/Paris,
b9f81bb2-e892-4433-bf4e-df56d14ca40b,Pazardzhik (Avtogara),42.182826,24.317644,PAZ,,,,,,,Europe/Sofia,
dcc0cbed-9603-11e6-9066-549f350fcb0c,Perpignan (Central Bus station),42.695021,2.879074,PER,,,,,,,Europe/Paris,
dcc5308a-9603-11e6-9066-549f350fcb0c,Perugia (Piazza Partigiani),43.105678,12.387827,PRG,,,,,,,Europe/Rome,
5103fdce-339e-4ad6-a7d7-353af20bb10f,Pesaro (Palasport),43.904983,12.866685,PES,,,,,,,Europe/Rome,
dcc044a1-9603-11e6-9066-549f350fcb0c,Pescara,42.470014,14.204547,PE,,,,,,,Europe/Rome,
2fd2239c-7aa8-446d-bd93-2483ae02561d,Peterborough (Queensgate Bus Station),52.574596,-0.246482,PTBQ,,,,,,,Europe/London,
dcbbf59f-9603-11e6-9066-549f350fcb0c,Pforzheim central bus station (Erbprinzstraße),48.893583,8.707604,PF,,,,,,,Europe/Berlin,
a313438d-009b-41ed-9ab0-f12fe228fb85,Piacenza (Viale Sant'Ambrogio),45.056097,9.702619,PCS,,,,,,,Europe/Rome,
dcc1a1c8-9603-11e6-9066-549f350fcb0c,Pisa (Pietrasantina car park),43.729521,10.389915,PI,,,,,,,Europe/Rome,
dcc53720-9603-11e6-9066-549f350fcb0c,Pistoia,43.929383,10.914857,PIS,,,,,,,Europe/Rome,
7b40bec2-d140-494f-801b-d8c5876cddaa,"Piła, Centrum Przesiadkowe",53.145089,16.744931,IAP,,,,,,,Europe/Warsaw,
ba5eeaba-64cd-4c15-98ef-114787d80b20,Plauen station Mitte,50.493209,12.148242,PL,,,,,,,Europe/Berlin,
e74c94ee-a6d3-4620-b158-dc430a2a273a,Plovdiv Bus Station South,42.135654,24.744214,PVV,,,,,,,Europe/Sofia,
f603367b-dbd0-4145-bff5-9b1540cf129e,Plymouth Coach Station,50.372771,-4.14366,PLY,,,,,,,Europe/London,
dcc17ff6-9603-11e6-9066-549f350fcb0c,Poitiers (Central bus station),46.584507,0.335627,POI,,,,,,,Europe/Paris,
9b6b9091-3ecb-11ea-8017-02437075395e,Poltava (Bus Station-1),49.566602,34.490733,PTV,,,,,,,Europe/Kyiv,
747c651a-3484-42ff-9d01-652fe032dee7,Poprad (bus station),49.059098,20.29316,POP,,,,,,,Europe/Bratislava,
6c5dddd8-8db9-43d2-b659-6e0e350b5aaf,"Pori, Travel Center",61.477867,21.788841,PCO,,,,,,,Europe/Helsinki,
cd022a5c-a591-46fe-86a1-f7ca0ebbaf37,Porto (TIC - Campanhã),41.151826,-8.582975,PGA,,,,,,,Europe/Lisbon,
dcc3f45a-9603-11e6-9066-549f350fcb0c,Potenza,40.629093,15.807061,PTZ,,,,,,,Europe/Rome,
dcbf89f9-9603-11e6-9066-549f350fcb0c,Potsdam central train station,52.39055,13.06755,P,,,,,,,Europe/Berlin,
dcc3dad0-9603-11e6-9066-549f350fcb0c,"Poznań, Dworzec Autobusowy Poznań Główny",52.402757,16.913948,POZ,,,,,,,Europe/Warsaw,
dcbc6452-9603-11e6-9066-549f350fcb0c,Prague (Central Bus Station Florenc),50.089346,14.44005,PRA,,,,,,,Europe/Prague,
dcc2de9d-9603-11e6-9066-549f350fcb0c,Prato (Piazzale Del Museo),43.859506,11.107381,PO,,,,,,,Europe/Rome,
f3eaf6bb-7ef1-4e71-95a8-846659aa15ff,Preston Bus Station,53.761161,-2.696224,PRES,,,,,,,Europe/London,
3843dac0-05d1-4f85-880f-6cc5e2effdb2,Prešov (bus station),48.984528,21.250421,PRS,,,,,,,Europe/Bratislava,
34151961-f5e6-41f6-9058-41b7eb880f3a,Prievidza (bus station),48.774437,18.617439,P1T,,,,,,,Europe/Bratislava,
5e6e0763-74d9-4b71-a3ea-e5057aaf9dc4,"Przemyśl, Dworzec Autobusowy",49.784125,22.775361,PRM,,,,,,,Europe/Warsaw,
dcc40e83-9603-11e6-9066-549f350fcb0c,Pula bus station,44.876111,13.855089,QPA,,,,,,,Europe/Zagreb,
0d69483a-e42b-4723-bbbc-b1f8c6f5259c,"Płock, Dworzec Autobusowy",52.552347,19.711879,PLK,,,,,,,Europe/Warsaw,
dcc27994-9603-11e6-9066-549f350fcb0c,Quimper (Central Bus Station),47.994691,-4.093783,QUP,,,,,,,Europe/Paris,
6caf963e-0be6-4925-abab-6a5931666154,"Radom, WPA PKS Radom",51.392653,21.158228,RDO,,,,,,,Europe/Warsaw,
fb7fac57-0d40-47a7-a657-a78edf9f3c1a,Ragusa,36.91447,14.72133,RAA,,,,,,,Europe/Rome,
e5b278a7-4094-47c8-b720-371091afcb0c,Randers FlixBus stop  (Busterminal),56.458532,10.039803,RAN,,,,,,,Europe/Copenhagen,
dcc2d17a-9603-11e6-9066-549f350fcb0c,Ravenna,44.418605,12.228604,RA,,,,,,,Europe/Rome,
20423e1a-67d7-4877-80bd-2f96c8017f3e,Reading (Mereoak Park and Ride),51.406028,-0.980073,REP,,,,,,,Europe/London,
dcbbf708-9603-11e6-9066-549f350fcb0c,Regensburg central train station,49.012488,12.097515,R,,,,,,,Europe/Berlin,
c1ea7c16-046e-4281-aad8-7bcb5366383f,Reggio Calabria,38.103086,15.636148,RLR,,,,,,,Europe/Rome,
dcbfeac0-9603-11e6-9066-549f350fcb0c,Reims - Champagne Ardenne TGV,49.215159,3.994506,RCA,,,,,,,Europe/Paris,
dcc365c5-9603-11e6-9066-549f350fcb0c,Remscheid (Station Lennep),51.189902,7.253731,RLP,,,,,,,Europe/Berlin,
dcc0cced-9603-11e6-9066-549f350fcb0c,Rennes (Central bus station),48.103896,-1.670617,RNS,,,,,,,Europe/Paris,
dcbf88ee-9603-11e6-9066-549f350fcb0c,Reutlingen central bus station,48.49614,9.211314,RTL,,,,,,,Europe/Berlin,
9b6b069d-3ecb-11ea-8017-02437075395e,Riga Bus Station,56.943746,24.111686,RI5,,,,,,,Europe/Riga,
dcc297e0-9603-11e6-9066-549f350fcb0c,Rijeka bus station,45.327907,14.436863,QRJ,,,,,,,Europe/Zagreb,
dcc03c6e-9603-11e6-9066-549f350fcb0c,Rimini (Centro Studi),44.049722,12.582369,RN,,,,,,,Europe/Rome,
ca1e29f6-63b5-416c-b670-b1655e2c30d8,Rivne (Bus Station),50.614662,26.282771,RIW,,,,,,,Europe/Kyiv,
70d041cd-544b-4878-8e93-51f9456ba7b1,Roman (Gara),46.934875,26.920658,RMN,,,,,,,Europe/Bucharest,
ce5af29e-fad4-48cb-a0e9-2bb4970f5522,Rome Anagnina,41.842307,12.587723,RMA,,,,,,,Europe/Rome,
7e25a3ff-a8f7-41b6-a895-e5e73b1047a8,Rome Ciampino Airport,41.798908,12.590829,CIA,,,,,,,Europe/Rome,
0596ef1c-bd52-4f7c-9a40-68d40aadb0dc,Rome Fiumicino Airport,41.794331,12.250398,FCO,,,,,,,Europe/Rome,
dcbd9538-9603-11e6-9066-549f350fcb0c,Rome Tiburtina Bus station,41.909362,12.528317,ROM,,,,,,,Europe/Rome,
f04160ce-2883-4c35-b76a-abb4409e415e,Rosenheim station,47.851028,12.119389,ROB,,,,,,,Europe/Berlin,
7426bc08-a1e2-4b50-9f54-eafb3a7c18a7,Roskilde Festival,55.617837,12.092748,RFE,,,,,,,Europe/Copenhagen,
dcbb121a-9603-11e6-9066-549f350fcb0c,Rostock central bus station,54.076458,12.130252,HRO,,,,,,,Europe/Berlin,
dcbfe5ff-9603-11e6-9066-549f350fcb0c,Rotterdam Central Station,51.923584,4.466564,RTM,,,,,,,Europe/Amsterdam,
04db6ed7-70dc-42cf-bcc9-76a3127d25b4,Rouen (Avenue Champlain),49.434194,1.092699,RAC,,,,,,,Europe/Paris,
dcc61067-9603-11e6-9066-549f350fcb0c,Rovigo (Piazza Riconoscenza),45.075378,11.781744,RVG,,,,,,,Europe/Rome,
a3ea33ad-d6fb-4845-8b82-6c14f0092615,Ruse (Centralna Avtogara),43.83491,25.957792,RUS,,,,,,,Europe/Sofia,
58d286ae-de57-4ebd-b08f-f53052e3c481,"Rybnik, Dworzec Autobusowy",50.101153,18.533637,RYB,,,,,,,Europe/Warsaw,
dcc3ea96-9603-11e6-9066-549f350fcb0c,"Rzeszów, Dworzec Lokalny",50.043069,21.994399,RZS,,,,,,,Europe/Warsaw,
aed47b44-fccd-4f0a-8e59-4595e2d6d548,Râmnicu Vâlcea (bus station Antares Transport),45.096526,24.365063,RVA,,,,,,,Europe/Bucharest,
dcbba89b-9603-11e6-9066-549f350fcb0c,Saarbrücken bus station (Dudweilerstraße),49.242021,6.999785,SB,,,,,,,Europe/Berlin,
dcc30f95-9603-11e6-9066-549f350fcb0c,Saint-Brieuc (Central bus station),48.507021,-2.767777,SBC,,,,,,,Europe/Paris,
1b0eb969-7c8e-4242-b5c8-75124d37763a,Saint-Malo (Office de Tourisme),48.650082,-2.021857,SAMO,,,,,,,Europe/Paris,
dcc19252-9603-11e6-9066-549f350fcb0c,Saint-Étienne,45.4425,4.402861,SET,,,,,,,Europe/Paris,
432e742d-77dc-496d-a84a-22da6809cddd,Salamanca (Bus Station),40.97042,-5.674751,SMC,,,,,,,Europe/Madrid,
dcc31543-9603-11e6-9066-549f350fcb0c,Salerno (Piazza Concordia),40.673844,14.770179,SA,,,,,,,Europe/Rome,
f024d8e2-1c0e-47b4-bf0c-25e3921dc136,Salzburg South (Hellbrunner Landesstraße),47.76996,13.070769,SZB,,,,,,,Europe/Vienna,
dcbd9abc-9603-11e6-9066-549f350fcb0c,Salzgitter (Rathaus Lebenstedt),52.15607,10.32664,SZL,,,,,,,Europe/Berlin,
dcc3be82-9603-11e6-9066-549f350fcb0c,San Severo,41.684741,15.391742,SSV,,,,,,,Europe/Rome,
9b684777-3ecb-11ea-8017-02437075395e,Sandnes (Ruten),58.851443,5.736632,SANS,,,,,,,Europe/Oslo,
68769316-8849-4100-996a-259dd34dccdd,Santander (Bus Station),43.459177,-3.809943,SND,,,,,,,Europe/Madrid,
28722d45-d75a-4e21-a285-14c3ba6c7897,Sarpsborg E6 Lekevollkrysset,59.296634,11.066894,SAP,,,,,,,Europe/Oslo,
abde0819-81c4-42bf-a9a3-bfce6037523c,Satu Mare (Autogara Orizont),47.795309,22.892217,QSM,,,,,,,Europe/Bucharest,
dcc47058-9603-11e6-9066-549f350fcb0c,Savona (Stazione FS),44.307071,8.4714,SVN,,,,,,,Europe/Rome,
dcbc4acb-9603-11e6-9066-549f350fcb0c,Schweinfurt central train station,50.036072,10.211078,SWF,,,,,,,Europe/Berlin,
dcbbed29-9603-11e6-9066-549f350fcb0c,Schwerin central train station,53.634453,11.408879,SN,,,,,,,Europe/Berlin,
1852b254-b7ec-4aac-9c39-15168f477f51,Sfântu Gheorghe (Autogara),45.864339,25.809717,SFGA,,,,,,,Europe/Bucharest,
9b6bdb9a-3ecb-11ea-8017-02437075395e,Sheffield (Meadowhall Interchange),53.416635,-1.412881,SM,,,,,,,Europe/London,
a3272000-dfa7-4261-8afe-4be336d0c1d5,Shumen (Avtogara),43.270357,26.942369,SHU,,,,,,,Europe/Sofia,
dcc2b64a-9603-11e6-9066-549f350fcb0c,Sibiu (Autogara Turnisor),45.794391,24.130337,QSU,,,,,,,Europe/Bucharest,
dcbba427-9603-11e6-9066-549f350fcb0c,Siegen (Koblenzer Straße),50.872373,8.016938,SI,,,,,,,Europe/Berlin,
dcc2789b-9603-11e6-9066-549f350fcb0c,Siena (Stazione FS),43.331378,11.323178,SIE,,,,,,,Europe/Rome,
539da411-e88f-4532-828f-18a272f5dfd4,Siracusa,37.067844,15.281194,SRC,,,,,,,Europe/Rome,
dcc50a22-9603-11e6-9066-549f350fcb0c,Slatina (HR) bus station,45.706352,17.704407,QSL,,,,,,,Europe/Zagreb,
55dd565e-f2d9-493c-9d8b-cadb4ab6b4dc,Slobozia (stadium parking lot),44.561891,27.37279,SLO,,,,,,,Europe/Bucharest,
dcc1910a-9603-11e6-9066-549f350fcb0c,Sofia (Serdika bus station),42.710984,23.322164,SOF,,,,,,,Europe/Sofia,
6123a8c5-3915-4a29-8175-4a357e22ce71,"Sopron, autóbusz-állomás",47.68847,16.586144,S0P,,,,,,,Europe/Budapest,
427efa4a-627a-40f2-bbcd-0dbaa06e14c9,"Sosnowiec, Dworzec Kolejowy",50.278447,19.127098,SOS,,,,,,,Europe/Warsaw,
dcc29b84-9603-11e6-9066-549f350fcb0c,Split bus station,43.504111,16.44279,QS,,,,,,,Europe/Zagreb,
9b6a6972-3ecb-11ea-8017-02437075395e,"Stalowa Wola, Dworzec Autobusowy",50.56912,22.057438,SWW,,,,,,,Europe/Warsaw,
9b6b187e-3ecb-11ea-8017-02437075395e,"Stargard, Zintegrowane Centrum Przesiadkowe",53.339156,15.030469,SRD,,,,,,,Europe/Warsaw,
9b6847d0-3ecb-11ea-8017-02437075395e,Stavanger bussterminal,58.966618,5.733116,STAV,,,,,,,Europe/Oslo,
11f8b58f-689f-4c54-ac07-c95455687713,Stevenage Station (Stop L),51.90147,-0.20573,STVN,,,,,,,Europe/London,
dcc03476-9603-11e6-9066-549f350fcb0c,Stockholm (Cityterminalen),59.331127,18.056648,STO,,,,,,,Europe/Stockholm,
08028e09-af16-498d-9a9d-3c7f7ae59cb7,Stoke-on-Trent (Hanley Bus Station),53.02266,-2.174216,SOT,,,,,,,Europe/London,
dcc8d431-89bc-47be-a480-25cd2eef24ff,Stralsund (Bahnhofstraße),54.308787,13.079755,HSTB,,,,,,,Europe/Berlin,
dcbac843-9603-11e6-9066-549f350fcb0c,Strasbourg,48.574179,7.754266,STB,,,,,,,Europe/Paris,
9b6bd7cb-3ecb-11ea-8017-02437075395e,Stryi (Railway Station),49.259853,23.842517,SYI,,,,,,,Europe/Kyiv,
dcbf78bb-9603-11e6-9066-549f350fcb0c,Stuttgart Airport Busterminal (SAB),48.691588,9.196743,STF,,,,,,,Europe/Berlin,
dcbac388-9603-11e6-9066-549f350fcb0c,Stuttgart Vaihingen station,48.726828,9.111393,S,,,,,,,Europe/Berlin,
343378a4-085a-47a3-ad80-06d422b6dd39,Subotica AS,46.094994,19.673938,APS,,,,,,,Europe/Belgrade,
c9634363-d8bf-4047-833c-abc9182b3106,Suceava (bus station Tasa),47.661564,26.252721,SUC,,,,,,,Europe/Bucharest,
9b69e57e-3ecb-11ea-8017-02437075395e,Sunderland Interchange,54.902313,-1.384206,SDL,,,,,,,Europe/London,
9b6c026d-3ecb-11ea-8017-02437075395e,"Suwałki, MOP INEES, Mickiewicza",54.099203,22.922454,SWL,,,,,,,Europe/Warsaw,
9b6b7cd7-3ecb-11ea-8017-02437075395e,Swansea City Bus Station (Bay B and C),51.617724,-3.946049,SWS,,,,,,,Europe/London,
d73540ae-d2fb-4671-b368-c8f0dc711a27,Swansea University (Bay Campus),51.620388,-3.880043,SWU,,,,,,,Europe/London,
9b6801c7-3ecb-11ea-8017-02437075395e,Szczecin Dworzec Autobusowy PKS,53.420481,14.55246,ST2,,,,,,,Europe/Warsaw,
560f0fe7-278e-4e9b-b33f-cec8df8ac3ba,Szeged (Autóbuszállomás),46.257077,20.140728,SZE,,,,,,,Europe/Budapest,
d39be4aa-f160-468e-8ed9-85de9f9f8951,Székesfehérvár (bus station),47.187636,18.411514,SKHR,,,,,,,Europe/Budapest,
92df0de8-9302-4b5b-84c0-f189bc734a9c,"Słupsk, Dworzec Autobusowy",54.468345,17.019126,5LU,,,,,,,Europe/Warsaw,
9b6b06b9-3ecb-11ea-8017-02437075395e,"Tallinn, Bus Station",59.42712,24.77374,TNN,,,,,,,Europe/Tallinn,
9070422c-d126-4b9d-998c-4c35796ef809,Taranto (Terminal Cimino),40.466206,17.300833,TTTC,,,,,,,Europe/Rome,
dcc394dc-9603-11e6-9066-549f350fcb0c,Tarbes (Avenue Pierre de Coubertin),43.221762,0.076963,TAB,,,,,,,Europe/Paris,
9b6a6957-3ecb-11ea-8017-02437075395e,"Tarnobrzeg, Dw. Autobusowy",50.565975,21.667247,TBG,,,,,,,Europe/Warsaw,
0e7aa37d-bdb2-423d-b47c-1bab99bb72e4,"Tarnów, Do Huty 04 P&R",50.004258,20.974129,TNW,,,,,,,Europe/Warsaw,
dcc173e3-9603-11e6-9066-549f350fcb0c,Tarragona (Bus Station),41.118068,1.244547,TAR,,,,,,,Europe/Madrid,
9b6b0943-3ecb-11ea-8017-02437075395e,"Tartu, Bus Station",58.378137,26.731958,TBU,,,,,,,Europe/Tallinn,
e8f7f25a-2caf-47aa-b799-a4566b0459e0,Taunton BP Garage,51.017659,-3.066075,TBP,,,,,,,Europe/London,
f11e04fe-75fa-4d78-bc48-8b7c046b189d,Teplice (Benešovo náměstí),50.642195,13.826639,TPB,,,,,,,Europe/Prague,
dcc3f83d-9603-11e6-9066-549f350fcb0c,Teramo,42.66047,13.706947,TRM,,,,,,,Europe/Rome,
dcc49111-9603-11e6-9066-549f350fcb0c,Terni,42.569497,12.65236,TER,,,,,,,Europe/Rome,
e4f17481-4ba1-404d-83c5-1223d19e185d,Ternopil (Bus Station 1),49.544069,25.596996,TPL,,,,,,,Europe/Kyiv,
dcbcd8bb-9603-11e6-9066-549f350fcb0c,The Hague (Central Station),52.0798,4.3255,DHA,,,,,,,Europe/Amsterdam,
8e4b4150-7981-47de-adf6-28c462a1df90,Tilburg Station (Burgemeester Brokxlaan),51.56199,5.083848,TIU,,,,,,,Europe/Amsterdam,
9b6bccbe-3ecb-11ea-8017-02437075395e,Toledo (Bus station),39.865421,-4.020033,TLD,,,,,,,Europe/Madrid,
9b6a76bd-3ecb-11ea-8017-02437075395e,"Tomaszów Mazowiecki, Plac Kościuszki",51.530536,20.005815,TMZ,,,,,,,Europe/Warsaw,
8819e9fd-847b-4997-9eed-bca0a3776dae,"Toruń, dworzec autobusowy",53.015688,18.607645,TDM,,,,,,,Europe/Warsaw,
dcc21600-9603-11e6-9066-549f350fcb0c,Toulon (Central Bus Station),43.127795,5.930736,TLN,,,,,,,Europe/Paris,
dcc0e74b-9603-11e6-9066-549f350fcb0c,"Toulouse (Central Bus Station ""Pierre Sémard"")",43.612522,1.452612,TOU,,,,,,,Europe/Paris,
dcc1f3fa-9603-11e6-9066-549f350fcb0c,Tourcoing,50.721307,3.162876,TRC,,,,,,,Europe/Paris,
dcc193b5-9603-11e6-9066-549f350fcb0c,Tours (Parking les Peupliers),47.383381,0.702355,TRS,,,,,,,Europe/Paris,
cf8d11b1-dd28-4de5-b91f-3c2dd0db465a,Trapani (Papa Giovanni Paolo II),38.015302,12.527638,TPN,,,,,,,Europe/Rome,
dcc0ea9c-9603-11e6-9066-549f350fcb0c,Trento (Lungadige Monte Grappa),46.069037,11.115381,TNT,,,,,,,Europe/Rome,
32196cc8-c013-4ecd-a558-66b2f957704f,Trenčín (bus station),48.896156,18.051694,TEI,,,,,,,Europe/Bratislava,
06f09d4d-2a27-4b9d-8f19-1b9e3e48dfef,Treviso,45.660258,12.246319,TVO,,,,,,,Europe/Rome,
dcbf7bd9-9603-11e6-9066-549f350fcb0c,Trier central train station (Kürenzer St.),49.758208,6.653136,TRK,,,,,,,Europe/Berlin,
dcbda963-9603-11e6-9066-549f350fcb0c,Trieste (Autostazione),45.657193,13.770828,TRT,,,,,,,Europe/Rome,
cf460566-03a0-44ed-a469-5e5f64812bc0,Trnava (bus station),48.370727,17.584396,TNV,,,,,,,Europe/Bratislava,
1a09c915-9448-4313-bdb8-ab48eb6704fa,Troyes (Bus Station),48.297767,4.06427,TOY,,,,,,,Europe/Paris,
0ae04f27-b58c-48b5-bab9-640361779415,Tulcea (Autogara Conex Trans),45.181187,28.792391,TLC,,,,,,,Europe/Bucharest,
dcbfe731-9603-11e6-9066-549f350fcb0c,Turin (Vittorio Emanuele),45.07016,7.657706,TO,,,,,,,Europe/Rome,
42eccf18-659b-410a-af81-a958ed735223,"Turku, Bus Station",60.456906,22.266659,TKU,,,,,,,Europe/Helsinki,
809d404e-ab27-4162-965c-5ea59029e518,Târgu Jiu,45.03851,23.300076,TJI,,,,,,,Europe/Bucharest,
dcbb2f42-9603-11e6-9066-549f350fcb0c,Tübingen central station,48.516021,9.05422,TU,,,,,,,Europe/Berlin,
dcc4574b-9603-11e6-9066-549f350fcb0c,Udine (autostazione),46.057273,13.242765,UDN,,,,,,,Europe/Rome,
dcbbd372-9603-11e6-9066-549f350fcb0c,Ulm (Eberhard-Finckh-Straße),48.42568,10.01082,UL,,,,,,,Europe/Berlin,
fdf2902b-eb74-49a4-99f3-b90868501213,Uman (Bus Station),48.761159,30.219564,UMN,,,,,,,Europe/Kyiv,
b2a24dd0-2da0-475f-8067-f5c3cd299f32,Uppsala (Stationsgatan),59.857102,17.651117,UPP,,,,,,,Europe/Stockholm,
dcbc53ef-9603-11e6-9066-549f350fcb0c,Utrecht Central Station,52.090407,5.105563,UT,,,,,,,Europe/Amsterdam,
71f2f6ec-fb74-4868-a6fa-7d8142d36ea6,"Vaasa, Bus Station",63.097268,21.622695,VAA,,,,,,,Europe/Helsinki,
dcc17706-9603-11e6-9066-549f350fcb0c,Valence (Central Bus Station),44.926909,4.892386,VLC,,,,,,,Europe/Paris,
65bc658e-3c84-4f8a-8879-fc56c2e567c5,Valencia (Bus Station),39.48013,-0.387697,VAE,,,,,,,Europe/Madrid,
0667ba34-c22c-40a2-a1b0-3b248c37dccf,Valladolid (Bus Station),41.641622,-4.732252,VLD,,,,,,,Europe/Madrid,
dcc27a80-9603-11e6-9066-549f350fcb0c,Vannes (Central bus station),47.666401,-2.748324,VAN,,,,,,,Europe/Paris,
0a2aa125-09de-48d1-b761-1639a16083e3,Varna (bus station),43.215977,27.897222,VAR,,,,,,,Europe/Sofia,
071b4e10-388b-4c0d-9087-a61ae665ad39,Vaslui (Autogara Morandi),46.625557,27.728953,VSL,,,,,,,Europe/Bucharest,
dcc18abf-9603-11e6-9066-549f350fcb0c,Vejle Busterminal,55.706197,9.535375,VEJ,,,,,,,Europe/Copenhagen,
dcc0139d-9603-11e6-9066-549f350fcb0c,Venice Mestre (Stazione FS),45.482223,12.233842,MTR,,,,,,,Europe/Rome,
dcc16795-9603-11e6-9066-549f350fcb0c,Venlo Station (Platform G),51.364625,6.172248,VEN,,,,,,,Europe/Amsterdam,
dcbdb0fa-9603-11e6-9066-549f350fcb0c,Verona (Porta Nuova),45.431548,10.980957,VR,,,,,,,Europe/Rome,
dcc2fb0a-9603-11e6-9066-549f350fcb0c,Viareggio,43.866894,10.244692,VIA,,,,,,,Europe/Rome,
dcc2e0e6-9603-11e6-9066-549f350fcb0c,Vicenza (Bus Station),45.54228,11.538316,VI,,,,,,,Europe/Rome,
dcbdc34e-9603-11e6-9066-549f350fcb0c,Vienna Erdberg (Busterminal VIB),48.190869,16.414007,WIG,,,,,,,Europe/Vienna,
458311c9-b193-4c10-b409-b7c832ecb1b4,Vigo (Bus Station),42.234137,-8.713763,VGO,,,,,,,Europe/Madrid,
dcc3ff22-9603-11e6-9066-549f350fcb0c,Villach Bus Station,46.61775,13.847884,VLL,,,,,,,Europe/Vienna,
dcbdb26b-9603-11e6-9066-549f350fcb0c,Villingen-Schwenningen (Rößleplatz),48.064078,8.538515,VIS,,,,,,,Europe/Berlin,
9b6b0388-3ecb-11ea-8017-02437075395e,Vilnius Bus Station,54.670718,25.281849,VUS,,,,,,,Europe/Vilnius,
dde818c4-e548-404a-b760-c14da8cc64ec,Vittoria,36.958485,14.52499,VTA,,,,,,,Europe/Rome,
e9747678-5b4c-48c6-b6d4-59f44e0e617e,Vratsa bus station,43.207164,23.559739,VRT,,,,,,,Europe/Sofia,
cbb7c38b-29b4-40ea-ae49-3c9e7ef04fe7,Västerås (Resecentrum),59.608425,16.553838,VAS,,,,,,,Europe/Stockholm,
2df2ee25-9ce8-4dce-ac20-a251c45657ad,Växjö Station,56.877137,14.803517,VXO,,,,,,,Europe/Stockholm,
732aface-2aef-42f3-b932-8937f2e48f0c,Warrington Interchange,53.391272,-2.593882,WCE,,,,,,,Europe/London,
1c0b11d0-65d5-48f4-b76e-3bdcbe9f4710,"Warsaw, Metro Marymont",52.271836,20.968272,WMR,,,,,,,Europe/Warsaw,
ce9d5a3f-6914-482d-836a-82d9f7cfd9be,Watford Junction Railway Station (Stop 6),51.662996,-0.396485,WJR,,,,,,,Europe/London,
168aa93d-ebe0-4cb6-a80e-36b4a2a1d7ad,"Wałbrzych, ul. Sikorskiego",50.768782,16.273432,WAL,,,,,,,Europe/Warsaw,
dcbb5cf0-9603-11e6-9066-549f350fcb0c,Weimar central train station,50.990942,11.329288,WE,,,,,,,Europe/Berlin,
dcc339c2-9603-11e6-9066-549f350fcb0c,Wetzlar (Station Northern Side),50.566246,8.50251,WZ,,,,,,,Europe/Berlin,
dcbba9d9-9603-11e6-9066-549f350fcb0c,Wiesbaden central train station (bus station),50.070865,8.246166,WI,,,,,,,Europe/Berlin,
dcc0f625-9603-11e6-9066-549f350fcb0c,Winterthur (Lagerhausstrasse),47.497645,8.723394,WTU,,,,,,,Europe/Zurich,
6d0b5813-436a-4dc3-a349-ae14233e7500,Wolfsburg Central Station (FlixTrain),52.429036,10.787735,HWOB,,,,,,,Europe/Berlin,
dcbcc787-9603-11e6-9066-549f350fcb0c,"Wrocław, Dworzec Autobusowy",51.096909,17.035755,WRO,,,,,,,Europe/Warsaw,
dcbb4379-9603-11e6-9066-549f350fcb0c,Wuppertal train station (Berliner Straße),51.275083,7.224487,W,,,,,,,Europe/Berlin,
dcbacee3-9603-11e6-9066-549f350fcb0c,Würzburg Main Station,49.801606,9.934321,WU,,,,,,,Europe/Berlin,
e23391c7-8937-4b89-bb3b-ec4ed085709c,"Włocławek, Węzeł przesiadkowy Okrzei 13",52.653635,19.059291,WLO,,,,,,,Europe/Warsaw,
9b69e549-3ecb-11ea-8017-02437075395e,York (Memorial Gardens- Leeman Rd),53.959574,-1.089831,YOR,,,,,,,Europe/London,
161bc8e8-a659-4aad-b0fd-adce57501554,"Zabrze, Rondo Sybiraków",50.289738,18.782069,ZAB,,,,,,,Europe/Warsaw,
dcc29f68-9603-11e6-9066-549f350fcb0c,Zadar bus station,44.106432,15.241135,QZD,,,,,,,Europe/Zagreb,
dcbdbe76-9603-11e6-9066-549f350fcb0c,Zagreb (bus station),45.803417,15.992278,ZAG,,,,,,,Europe/Zagreb,
a23fdfe0-ea13-4a88-84f6-d7b05c6e2f10,Zamora (Bus Station),41.513903,-5.73966,ZMR,,,,,,,Europe/Madrid,
0778dbad-545c-4267-9ee3-5e99b504a219,"Zamość, Peowiaków",50.71685,23.262169,ZMP,,,,,,,Europe/Warsaw,
07597a10-0f4c-49d5-84c8-abf615bd5956,Zaragoza (Delicias Station),41.659853,-0.911991,ZAR,,,,,,,Europe/Madrid,
d3f6ebba-b206-4908-9491-accf56e8a423,"Zgierz, ul. Łąkowa",51.851448,19.412675,ZGI,,,,,,,Europe/Warsaw,
f67d9eb2-7019-47d5-a5f2-bf4fc0f1d53d,Zhytomyr (Bus Station),50.268701,28.692103,ZHY,,,,,,,Europe/Kyiv,
7d65f8a0-6254-4021-9e74-b36cebf00967,Zielona Góra Dworzec Autobusowy,51.946455,15.510436,ZIG,,,,,,,Europe/Warsaw,
9b6bca55-3ecb-11ea-8017-02437075395e,"Zielona Góra, Dworzec PKP",51.946471,15.515182,ZGD,,,,,,,Europe/Warsaw,
dcc3d0c6-9603-11e6-9066-549f350fcb0c,"Zlín (Malenovice, křižovatka)",49.209612,17.595418,LZM,,,,,,,Europe/Prague,
a29390b1-32e1-4ba6-b141-3eb82b9a9a35,Zviahel (Bus Station),50.587541,27.604995,NVO,,,,,,,Europe/Kyiv,
dcbdcbbd-9603-11e6-9066-549f350fcb0c,Zwickau central train station,50.715645,12.477722,ZWB,,,,,,,Europe/Berlin,
9b6c264d-3ecb-11ea-8017-02437075395e,Çanakkale bus station,40.150545,26.456528,CN1,,,,,,,Europe/Istanbul,
191c1ce4-c9e3-4f33-a131-53e595ac4a26,Örebro (Resecentrum),59.277501,15.210709,OER,,,,,,,Europe/Stockholm,
dcbcd234-9603-11e6-9066-549f350fcb0c,České Budějovice (bus station),48.972887,14.487246,BDW,,,,,,,Europe/Prague,
1d8d0969-292a-490d-8a5c-9061a22619aa,"Łomża, dworzec miejski",53.172725,22.067057,LOM,,,,,,,Europe/Warsaw,
e1b6a242-54f8-4108-8e51-21c195ac77d4,"Łódź, WPA Łódź Fabryczna",51.769411,19.467708,LZF,,,,,,,Europe/Warsaw,
2379578a-2fa4-40b9-8366-d5f4a94fd3b6,"Świdnica, Dworzec Autobusowy",50.841648,16.481096,SWN,,,,,,,Europe/Warsaw,
26ecde01-78e8-4840-8525-7504c42a1590,"Żory, Dworzec Autobusowy",50.047773,18.694025,ZRY,,,,,,,Europe/Warsaw,
30503d8d-b92c-4db1-b532-817c56cfc42a,Žilina (bus station),49.225415,18.747716,ZIL,,,,,,,Europe/Bratislava,
