stop_id,stop_name,stop_lat,stop_lon,stop_code,stop_desc,zone_id,stop_url,location_type,parent_station,wheelchair_boarding,stop_timezone,platform_code
779481dc-ec1a-4651-9771-f0e97a5cacc9,A Coruña (Bus Station),43.353826,-8.403607,RUN,,,,,,,Europe/Madrid,
5d87f1c7-0862-42a3-9a35-e9c72b26b4fb,A1 Brampton Hut (Driver change - no drop off),52.331507,-0.250988,A1BH,,,,,,,Europe/London,
d3684b0e-b10c-4609-b905-a7681e03c272,Aabenraa FlixBus stop (Circkle K-tanken),55.065748,9.365509,AAA,,,,,,,Europe/Copenhagen,
357e465b-8a94-4c9a-9bae-cd0b5369f33b,Aachen station west (Henricistraße),50.783515,6.072513,ACH,,,,,,,Europe/Berlin,
92d7b08b-d81c-47a5-86e3-9bd0a9715481,Aalborg (Busterminal),57.041367,9.918595,AAB,,,,,,,Europe/Copenhagen,
dcc18bf2-9603-11e6-9066-549f350fcb0c,Aarhus C FlixBus stop,56.152223,10.208635,AAH,,,,,,,Europe/Copenhagen,
2e49e929-7bd2-4d40-805e-1cf5a76b8bed,Aberdeen Bus Station,57.144242,-2.095539,ADBS,,,,,,,Europe/London,
055563ba-be55-4e12-aea1-0cba8c8c7892,Abrantes (Bus Station),39.463342,-8.213524,AAE,,,,,,,Europe/Lisbon,
8308a8be-b493-4d65-858c-c2ae8c297217,Acri,39.488967,16.3809,ACR,,,,,,,Europe/Rome,
dcc35761-9603-11e6-9066-549f350fcb0c,Agen (Péage A62 - Le Passage),44.16665,0.606028,AGE,,,,,,,Europe/Paris,
af47102c-0222-4dad-a753-23994a95b37e,Agrigento,37.311261,13.586538,AGG,,,,,,,Europe/Rome,
dcc60f3f-9603-11e6-9066-549f350fcb0c,Agropoli,40.346532,14.998958,AGR,,,,,,,Europe/Rome,
dcbf91fb-9603-11e6-9066-549f350fcb0c,Ahlbeck station (Usedom),53.935996,14.188619,AHL,,,,,,,Europe/Berlin,
dcbfdfab-9603-11e6-9066-549f350fcb0c,Ahrenshoop,54.379826,12.41892,AHR,,,,,,,Europe/Berlin,
dcc049c8-9603-11e6-9066-549f350fcb0c,Aichach (Bäckerei Zametzer),48.462035,11.134387,AIC,,,,,,,Europe/Berlin,
f46d7d13-04ef-47f7-b0d5-f161f9386fb4,Aire de Montpertuis,45.921947,3.143878,AdMP,,,,,,,Europe/Paris,
724d01a9-0dec-4a27-913a-122e22680f8a,Aiud (petrol station Rompetrol/Partener),46.322483,23.717856,AIU,,,,,,,Europe/Bucharest,
dcc10721-9603-11e6-9066-549f350fcb0c,Aix-en-Provence (Krypton),43.510992,5.447616,AIX,,,,,,,Europe/Paris,
77ee7a56-1964-4b18-b6cf-e116e09b7b3d,Aix-les-Bains (Centre Commercial),45.656745,5.912518,AXB,,,,,,,Europe/Paris,
f649c213-f96c-448d-8669-c36bbc332f7c,Alassio,44.00853,8.173337,ALA,,,,,,,Europe/Rome,
043145a6-41e1-46c4-a5de-4527ffade74c,Alba Adriatica,42.832302,13.922844,ADI,,,,,,,Europe/Rome,
134ea077-f211-495c-a622-cd0c4a88a1f9,Alba Iulia (bus station Livio Dario),46.057661,23.577052,AI,,,,,,,Europe/Bucharest,
f2416e9a-1556-48c7-8069-d87c341068e7,Albena Bus Station,43.365143,28.067224,AEN,,,,,,,Europe/Sofia,
c8165c54-84e5-4654-a1ab-08d05a9f3ab1,Albenga,44.047909,8.214436,ABG,,,,,,,Europe/Rome,
fd04d2d2-c4ec-4dac-8781-f52f8b43330e,Albergaria-a-Velha (Bus Station),40.689244,-8.475399,ARH,,,,,,,Europe/Lisbon,
f9bdf4af-5dee-4e3f-b5f4-da8e87701eb3,Alberobello,40.785269,17.240571,ALO,,,,,,,Europe/Rome,
96792d82-bae9-487c-b95b-cb0bb0ff3bc4,Albufeira (Av Liberdade),37.091596,-8.254984,ALF,,,,,,,Europe/Lisbon,
dcc217e8-9603-11e6-9066-549f350fcb0c,Alessandria,44.908637,8.608076,ALE,,,,,,,Europe/Rome,
1e66ef05-cfe3-4aa6-89e0-976cb43b223a,Alexandria (Gară),43.964879,25.325458,ALX,,,,,,,Europe/Bucharest,
e30c47fe-6abc-47bb-8a9d-d6c6f5d3bb1a,Algeciras (Bus Station),36.126004,-5.448016,RAS,,,,,,,Europe/Madrid,
687eb82b-bc6a-45c5-93cc-3c186b7ecc06,Alicante (Bus Station),38.337817,-0.49137,ACT,,,,,,,Europe/Madrid,
a5f9f748-3e0a-476e-b563-696f577ef03b,Aljezur,37.316839,-8.802892,AJZ,,,,,,,Europe/Lisbon,
c12e3a96-b79f-453c-8d72-fc53e732d8b0,Almada (Metro Cova Piedade),38.667889,-9.164611,ALD,,,,,,,Europe/Lisbon,
d85a7a60-3453-4960-b5bd-07e33ad44cc9,Almancil,37.087105,-8.031853,ACI,,,,,,,Europe/Lisbon,
70dfb36e-198e-4f23-a82a-80103ecb11d2,Almeria (Bus Station),36.835356,-2.455161,ALI,,,,,,,Europe/Madrid,
dcbad6f0-9603-11e6-9066-549f350fcb0c,Alsfeld Pfefferhöhe,50.732885,9.241158,AFP,,,,,,,Europe/Berlin,
dcc46142-9603-11e6-9066-549f350fcb0c,Altamura,40.819117,16.559347,ALM,,,,,,,Europe/Rome,
d67abfd9-ef57-452d-b430-ae96627a9bf7,Amarante (Bus Station),41.266105,-8.072095,ATE,,,,,,,Europe/Lisbon,
9b6a1ccb-3ecb-11ea-8017-02437075395e,Ambrussum Sud,43.712078,4.130543,AMU,,,,,,,Europe/Paris,
8fe62385-9e01-4eb2-a21d-96ff645072e1,Amiens (Campus),49.874466,2.264624,AME,,,,,,,Europe/Paris,
7ed9675b-72b2-441f-8c52-c3233f96578a,Amsterdam Bijlmer Arena,52.310564,4.94656,ABA,,,,,,,Europe/Amsterdam,
dcbdd1b1-9603-11e6-9066-549f350fcb0c,Amsterdam Sloterdijk,52.389758,4.838497,AMD,,,,,,,Europe/Amsterdam,
dcc03f47-9603-11e6-9066-549f350fcb0c,Ancona,43.610365,13.502943,ANC,,,,,,,Europe/Rome,
dcc4623a-9603-11e6-9066-549f350fcb0c,Andria,41.240961,16.292604,AND,,,,,,,Europe/Rome,
f09ebbef-4177-46d1-90dc-6d25fc50e988,Andrijaševci aut. stajalište,45.225666,18.740653,NDR,,,,,,,Europe/Zagreb,
dcc1007f-9603-11e6-9066-549f350fcb0c,Angers (central bus station),47.464897,-0.557648,ANG,,,,,,,Europe/Paris,
dcc2ed2c-9603-11e6-9066-549f350fcb0c,Angoulême,45.653846,0.167294,ANL,,,,,,,Europe/Paris,
dcbf92e1-9603-11e6-9066-549f350fcb0c,Anklam central bus station,53.855963,13.701285,ANK,,,,,,,Europe/Berlin,
dcc11362-9603-11e6-9066-549f350fcb0c,Annecy (Central Bus Station),45.901664,6.120322,ANN,,,,,,,Europe/Paris,
c15c9ae9-47ea-430a-ac76-ac3f68525c20,Annemasse (Jean Monnet P+R),46.182176,6.246182,ANJM,,,,,,,Europe/Paris,
ce3841d7-7f79-40a2-a12a-fc171af17016,Antibes (Pôle d'échanges),43.586363,7.118931,ANB,,,,,,,Europe/Paris,
97ad0b6d-991a-46d5-bc57-276173e0cc39,Antwerp Rooseveltplaats (B5),51.219293,4.416975,ATW,,,,,,,Europe/Brussels,
dcc47678-9603-11e6-9066-549f350fcb0c,Aosta,45.735249,7.324412,AOT,,,,,,,Europe/Rome,
dcc52e01-9603-11e6-9066-549f350fcb0c,Aprilia,41.591916,12.639595,APR,,,,,,,Europe/Rome,
09a312c8-5613-429c-9e9c-de853c3910d8,Arad (bus station Europa Connect),46.201429,21.264501,ARAD,,,,,,,Europe/Bucharest,
3d80798b-e36b-4d02-a7c6-e8d6a3c2769e,Arco de Baulhe (Bus Station),41.481028,-7.956985,ACU,,,,,,,Europe/Lisbon,
14609a0c-72a3-4286-a17b-724972889e7a,Arendal (Harebakken bussterminal),58.473208,8.745565,AREN,,,,,,,Europe/Oslo,
507012eb-80c7-47c2-8361-a634969b7ef5,Arezzo (Viale dei Carabinieri),43.465682,11.868646,EIC,,,,,,,Europe/Rome,
6b15774b-bf2f-4154-8bf2-a8f53fb475fd,Argelès-sur-Mer (SNCF Station),42.544293,3.022028,ARG,,,,,,,Europe/Paris,
8005d5c5-bb32-43a0-aa9e-0d095ba64a15,Argenteuil,48.946925,2.256392,AGL,,,,,,,Europe/Paris,
5e91ba3d-2197-4008-9953-e2873a189a5d,"Arkadia, Park",52.087352,20.013579,ARK,,,,,,,Europe/Warsaw,
91fc602e-4e54-4f48-86b3-8894267c446c,Arlanda Airport Terminal 4 & 5,59.647823,17.928643,AF4,,,,,,,Europe/Stockholm,
dcc5362e-9603-11e6-9066-549f350fcb0c,Arlon Gare,49.680863,5.807538,ARL,,,,,,,Europe/Brussels,
a73aed7a-69b4-4c56-b155-96b50cdb3e9a,Armacao de Pera,37.104654,-8.358787,AOP,,,,,,,Europe/Lisbon,
dcbc52ce-9603-11e6-9066-549f350fcb0c,Arnhem Central Station (Sonsbeekzijde),51.985608,5.899662,AHM,,,,,,,Europe/Amsterdam,
dcbb8990-9603-11e6-9066-549f350fcb0c,Arnsberg train station,51.405015,8.066429,AR,,,,,,,Europe/Berlin,
a20cca35-c7fe-4d78-ad73-1156c7b553d3,Arpajon,48.586603,2.245392,ARP,,,,,,,Europe/Paris,
dcbbe36f-9603-11e6-9066-549f350fcb0c,Aschaffenburg (Goldbacher Straße),49.977752,9.14962,AB,,,,,,,Europe/Berlin,
bbcee08c-94fa-4bd6-b360-9c3d2123ffca,Ascoli Piceno,42.855251,13.588037,APC,,,,,,,Europe/Rome,
2eb47123-768c-461f-b073-1fa9a1645611,Assisi (Santa Maria degli Angeli),43.059353,12.585207,ASM,,,,,,,Europe/Rome,
dcc12b48-9603-11e6-9066-549f350fcb0c,Aubagne (Bus Station),43.295477,5.565252,AUB,,,,,,,Europe/Paris,
8febd745-c88e-4b5d-aa49-a55124236425,Aue station,50.590779,12.698353,AUE,,,,,,,Europe/Berlin,
dcbb0c6a-9603-11e6-9066-549f350fcb0c,Augsburg (Augsburg P+R Nord),48.40172,10.877042,A,,,,,,,Europe/Berlin,
2b5f7a42-d7b3-4b13-9a53-291c704c9165,Augusta,37.251433,15.204499,AUT,,,,,,,Europe/Rome,
c3f20e88-0583-4a4e-a4b2-8e845ef72212,"Augustów, Wojska Polskiego, Orlen/Kaufland",53.837979,22.973083,AUW,,,,,,,Europe/Warsaw,
1fd4fd86-b2bb-4aa7-be2a-7b71f76fbc0d,Auray - Pluneret,47.66805,-2.955151,AUP,,,,,,,Europe/Paris,
0c2e5797-e596-4290-8f38-2140d423ac65,Autohof Berg,50.371649,11.788589,AUG,,,,,,,Europe/Berlin,
0f5f3b5e-cea0-4fb1-ae50-f39396f5a27f,Autohof Bünde,52.192819,8.557109,BUN,,,,,,,Europe/Berlin,
306d4a5b-e041-49af-978c-a6a6c377c91f,Autohof Sangerhausen,51.450184,11.305396,AHSA,,,,,,,Europe/Berlin,
dcc12e73-9603-11e6-9066-549f350fcb0c,Auxerre,47.796624,3.584503,AUX,,,,,,,Europe/Paris,
5ce7c246-9c0e-4c34-959f-fcd32924b874,Aveiro  (Bus Station),40.644193,-8.639249,AVI,,,,,,,Europe/Lisbon,
dcc53821-9603-11e6-9066-549f350fcb0c,Avellino,40.923186,14.819069,AVL,,,,,,,Europe/Rome,
ae69bae9-4375-4486-847a-51c1559f944d,Avetrana,40.350977,17.723404,AVE,,,,,,,Europe/Rome,
5e38934e-b81c-43da-a1a0-f434cd944625,Avezzano,42.040766,13.42656,AVZ,,,,,,,Europe/Rome,
85fa00a5-63d1-44cd-b8be-a96eb0efa7d7,Aviemore (Railway Station),57.188083,-3.829272,AVIE,,,,,,,Europe/London,
7c9b9a0b-7ab5-4a64-ab85-5bb90bb23515,Avignon (Le Pontet),43.960626,4.855938,ALP,,,,,,,Europe/Paris,
dcc13025-9603-11e6-9066-549f350fcb0c,Avranches,48.689876,-1.369842,AVR,,,,,,,Europe/Paris,
dcbc038d-9603-11e6-9066-549f350fcb0c,Baabe (Rügen),54.36314,13.705249,BAA,,,,,,,Europe/Berlin,
a45e2a5a-4204-43c2-85a2-efc6f9ce858c,Babina Greda,45.115986,18.537808,BGR,,,,,,,Europe/Zagreb,
73168140-b0e3-45da-8d4c-d00c3098409b,Babina greda AC,45.115868,18.538962,QBAG,,,,,,,Europe/Zagreb,
c377dfb7-cc18-4060-9c72-4ce967ff97ef,Bacău (bus station Bistrita),46.571717,26.920485,BCU,,,,,,,Europe/Bucharest,
dcbfaf29-9603-11e6-9066-549f350fcb0c,Bad Doberan central bus station,54.108674,11.904997,DBR,,,,,,,Europe/Berlin,
96432898-7263-4cc0-b124-3bf757cefea9,Bad Hersfeld (FlixTrain),50.869892,9.716174,FBHF,,,,,,,Europe/Berlin,
7d46e3bc-8244-43aa-ab9e-ec45b5a857e1,Bad Oeynhausen (Sültebusch),52.205867,8.793333,BOH,,,,,,,Europe/Berlin,
d9cad23d-ae0c-4772-8f39-f7962d2c77f8,Bad Salzuflen central bus station,52.081957,8.748648,BSZ,,,,,,,Europe/Berlin,
a68f8102-37d2-452b-bf2a-a19e8ab4024c,Bad Schandau station (Nationalparkbahnhof),50.919438,14.138547,BSH,,,,,,,Europe/Berlin,
3206878f-013f-461c-9b14-825058cf6b33,Badajoz (Bus Station),38.866735,-6.974156,BDJ,,,,,,,Europe/Madrid,
dcc5fe86-9603-11e6-9066-549f350fcb0c,Baden-Baden (station),48.789499,8.191384,BAD,,,,,,,Europe/Berlin,
5b079070-eefc-43a2-a0c9-a391e0f20fc6,Baia Mare (Autogara Imperativ),47.648657,23.551498,BMR,,,,,,,Europe/Bucharest,
fb44259c-826e-4f9a-9988-f71fb6a8d34f,Balchik Bus Station,43.427821,28.160878,BLCH,,,,,,,Europe/Sofia,
347403ab-4a25-4839-b67d-3927046cf2e4,Balș (Monument),44.345962,24.119641,BPO,,,,,,,Europe/Bucharest,
dcbb23f9-9603-11e6-9066-549f350fcb0c,Bamberg train station,49.901694,10.900172,BA,,,,,,,Europe/Berlin,
aa675714-37a1-4c1f-8660-5f37ad6bc809,Bandol,43.137497,5.760744,BDL,,,,,,,Europe/Paris,
6fe36f5f-bc28-4856-97af-46f062924f6f,Bannemin,54.066068,13.85234,BAE,,,,,,,Europe/Berlin,
dcbf9414-9603-11e6-9066-549f350fcb0c,Bansin station (Usedom),53.964172,14.130538,BAN,,,,,,,Europe/Berlin,
b17f1b28-f048-4b96-aea5-69dff3946f59,Banská Bystrica (bus station),48.734613,19.158438,BBY,,,,,,,Europe/Bratislava,
dcc34bb9-9603-11e6-9066-549f350fcb0c,Barcelona (Bus Terminal Nord),41.394181,2.182959,BAC,,,,,,,Europe/Madrid,
329b68ec-ca3f-468f-9ec1-dacaaed74bd1,Barcelos (Bus Station),41.534831,-8.606825,BLO,,,,,,,Europe/Lisbon,
f9e9cea2-af07-4879-81e1-ded78d0a2294,Bardejov (bus station),49.297147,21.282134,BJV,,,,,,,Europe/Bratislava,
da5a9175-a054-4998-bc96-899ce4d425e9,Bardolino,45.546843,10.724347,BDO,,,,,,,Europe/Rome,
dcc051e2-9603-11e6-9066-549f350fcb0c,Bari (Via Capruzzi),41.11703,16.87138,IBA,,,,,,,Europe/Rome,
dcc3bc31-9603-11e6-9066-549f350fcb0c,Barletta,41.308405,16.289453,BTA,,,,,,,Europe/Rome,
086064da-8914-415f-83cc-8d6a087f5ed2,Basel Bad (FlixTrain),47.567793,7.606924,RB,,,,,,,Europe/Zurich,
dcbf8dd0-9603-11e6-9066-549f350fcb0c,Basel Euroairport FR,47.600729,7.531714,BEA,,,,,,,Europe/Paris,
dcbc827f-9603-11e6-9066-549f350fcb0c,Basel SBB (Meret Oppenheim-Street),47.546467,7.587736,BAS,,,,,,,Europe/Zurich,
7b4d9489-c0f1-4eba-b86a-b36c2645795c,Baska Voda,43.356488,16.956034,BVO,,,,,,,Europe/Zagreb,
dcc3b54d-9603-11e6-9066-549f350fcb0c,Bastogne (Gare Sud),49.999779,5.709641,BTG,,,,,,,Europe/Brussels,
bf4a06c8-ff58-446c-89d5-ac02fb87c676,Battipaglia (Ospedale),40.613778,14.972585,PLI,,,,,,,Europe/Rome,
9b6b09c2-3ecb-11ea-8017-02437075395e,"Bauska, Bus Station",56.407061,24.196072,BA5,,,,,,,Europe/Riga,
dcc05096-9603-11e6-9066-549f350fcb0c,Bautzen (August-Bebel-Platz),51.176247,14.432821,BAU,,,,,,,Europe/Berlin,
dcc1317e-9603-11e6-9066-549f350fcb0c,Bayonne (Quai de Lesseps),43.497877,-1.478955,BAY,,,,,,,Europe/Paris,
dcbae41c-9603-11e6-9066-549f350fcb0c,Bayreuth central train station,49.951106,11.577908,BT,,,,,,,Europe/Berlin,
710ffed2-c072-4f18-b2ff-2502390f7a18,Baćina,43.080362,17.388564,QBAC,,,,,,,Europe/Zagreb,
dcc4de52-9603-11e6-9066-549f350fcb0c,Baška,44.971836,14.755879,QBK,,,,,,,Europe/Zagreb,
80d7de21-61d2-4581-abb3-3c6aac319d76,Baško Polje,43.351179,16.961558,QBP,,,,,,,Europe/Zagreb,
d462f8e5-8f23-4279-ad4e-ece20c2d2ef3,Beaune (Péage Sud),47.00318,4.854347,BBE,,,,,,,Europe/Paris,
9b68fe40-3ecb-11ea-8017-02437075395e,Beauvais Sud (Délie),49.410446,2.113453,BVS,,,,,,,Europe/Paris,
301999c1-4cc2-4ec0-bb56-1bf72ff73229,Beclean,47.176554,24.180827,BEC,,,,,,,Europe/Bucharest,
e65856e6-9972-4783-9485-77b80b450541,Bedenica,46.035297,16.24526,BED,,,,,,,Europe/Zagreb,
dcc5f982-9603-11e6-9066-549f350fcb0c,Beelen (marketplace),51.930129,8.117522,BEE,,,,,,,Europe/Berlin,
d7a03c36-faad-4dd6-b83e-d0d44b4d178c,Beja,38.00976,-7.859343,BEJ,,,,,,,Europe/Lisbon,
256aec5a-377c-45b2-84a1-a7ff06ac459c,Beketinci autobusno stajalište,45.461203,18.517594,ZBN,,,,,,,Europe/Zagreb,
dcc132e7-9603-11e6-9066-549f350fcb0c,Belfort,47.629696,6.856167,BFT,,,,,,,Europe/Paris,
c17eed68-17b3-421f-a8f4-3f3786cb4fca,Belgrade bus station,44.810284,20.454158,BEO,,,,,,,Europe/Belgrade,
8919895d-ee91-45c1-a949-c5750a193dab,Beli Manastir,45.765535,18.596822,BMN,,,,,,,Europe/Zagreb,
ce7bef73-35d2-43c3-bbc2-b03657f91a64,Bellegarde - Valserhône (Péage),46.115109,5.794905,BGP,,,,,,,Europe/Paris,
41a6de9d-be75-4625-98ce-e281dee065b1,Bellinzona (Arbedo- Castione station),46.223756,9.041916,AEC,,,,,,,Europe/Zurich,
5b73c206-0111-47c6-b432-e6e1974c44f0,Belvedere Marittimo,39.635092,15.843211,BMT,,,,,,,Europe/Rome,
bc475f9e-4baf-4757-bfa1-0642bff9c90d,Benavente (Bus Station),41.999163,-5.677168,BNA,,,,,,,Europe/Madrid,
dcc5390d-9603-11e6-9066-549f350fcb0c,Benevento,41.131499,14.782848,BNV,,,,,,,Europe/Rome,
c7d5c43d-c243-4a09-813b-e526de1a3c12,Benidorm (Bus Station),38.548831,-0.124099,BNR,,,,,,,Europe/Madrid,
add5f613-1bdd-40eb-9b6f-def121e73bdd,Bensheim (FlixTrain),49.681167,8.616724,FBH,,,,,,,Europe/Berlin,
2b8ea7e4-3b1d-4a47-9547-aa5def3c3d93,Beravci 1 aut. stajalište,45.152402,18.438493,ZB1,,,,,,,Europe/Zagreb,
dcc45a6f-9603-11e6-9066-549f350fcb0c,Bergamo (Orio al Serio Airport - BGY),45.665814,9.697448,BGY,,,,,,,Europe/Rome,
dcbbfc7d-9603-11e6-9066-549f350fcb0c,Bergen auf Rügen,54.411749,13.431624,RUG,,,,,,,Europe/Berlin,
99e9d2d9-efae-4659-bdd1-391451505e9f,Berinovac,43.439343,17.105221,WBE,,,,,,,Europe/Zagreb,
dcbaaee6-9603-11e6-9066-549f350fcb0c,Berlin central bus station,52.507171,13.279399,B,,,,,,,Europe/Berlin,
dcc0604a-9603-11e6-9066-549f350fcb0c,Bern (Neufeld car terminal),46.963711,7.433698,BER,,,,,,,Europe/Zurich,
9b694820-3ecb-11ea-8017-02437075395e,Beroun (bus station),49.957618,14.074583,B3RN,,,,,,,Europe/Prague,
dcc1345c-9603-11e6-9066-549f350fcb0c,Besançon,47.246911,6.022603,BSN,,,,,,,Europe/Paris,
cb605261-cefe-4a9d-bfc2-3f1961cb8c94,Betina (Murter),43.82285,15.603528,BETN,,,,,,,Europe/Zagreb,
37c2c3d4-600e-402f-9556-9b8ae729d5a3,Bettolle,43.208529,11.801983,BTV,,,,,,,Europe/Rome,
cb7760ae-0c67-4c6b-a1ad-4fff78ec6f01,Bełchatów Szpital,51.375548,19.34844,BPI,,,,,,,Europe/Warsaw,
93b82368-69de-45f4-989d-3116c987692e,Biarritz (Halle Iraty),43.466097,-1.539247,BIAR,,,,,,,Europe/Paris,
f6576003-9683-4f21-9e28-c477f942f67f,"Białka Tatrzańska, Szkoła",49.38957,20.105094,BKA,,,,,,,Europe/Warsaw,
6750d2d0-3a20-463e-a0ff-917e71a32ca5,"Białogóra, ul. Osiedlowa",54.81485,17.96237,BAR,,,,,,,Europe/Warsaw,
e383decd-d064-423a-ab3b-600e6023edde,"Białystok, Bus Station",53.132833,23.135389,BIK,,,,,,,Europe/Warsaw,
dcc4cecf-9603-11e6-9066-549f350fcb0c,Bibinje,44.067657,15.292669,QBB,,,,,,,Europe/Zagreb,
5f9b291f-8890-4951-a0c6-cedb1e9a1469,Bibione (Bus Station),45.639106,13.053926,BIB,,,,,,,Europe/Rome,
dde40096-5b4f-40e0-878b-9c412cac88ea,Bicaz,46.908672,26.099037,BCZ,,,,,,,Europe/Bucharest,
dcbc5a46-9603-11e6-9066-549f350fcb0c,Bielefeld Brackwede train station,51.997974,8.499713,BI,,,,,,,Europe/Berlin,
7fd077ce-bf03-415d-988a-b4206eff3040,Bielefeld Central Station (FlixTrain),52.029313,8.53315,EBIL,,,,,,,Europe/Berlin,
9b6a55cb-3ecb-11ea-8017-02437075395e,Bielsk Podlaski,52.761876,23.189189,BID,,,,,,,Europe/Warsaw,
126792a4-71c5-452e-b04e-da7d7d8ce4cb,"Bielsko-Biała, Dworzec Autobusowy - dolna płyta",49.83123,19.042995,BBL,,,,,,,Europe/Warsaw,
51a5ef9c-1847-4bb3-8e4d-09a4392e1f6b,Bila Tserkva (79km of Kyiv-Odesa Highway),49.783071,30.20083,BLTS,,,,,,,Europe/Kyiv,
3314645f-7903-4bc9-b9ef-74ff161feca2,Bilbao (Bus Station),43.261055,-2.948689,BIL,,,,,,,Europe/Madrid,
1ce6a97a-d127-47f6-b927-89b3a9c13b40,Bilje autobusno stajalište,45.604187,18.744724,TZB,,,,,,,Europe/Zagreb,
1b7f8622-19a0-4964-868c-0a043e3470c0,Billund Airport,55.74661,9.146885,BUL,,,,,,,Europe/Copenhagen,
89cca85b-bb7b-449b-816d-a6ca0ac0975f,Bilo,43.62618,15.91884,QBIL,,,,,,,Europe/Zagreb,
dcbc00f2-9603-11e6-9066-549f350fcb0c,Binz (Rügen),54.405295,13.601299,BIN,,,,,,,Europe/Berlin,
dcc4b316-9603-11e6-9066-549f350fcb0c,Biograd na Moru bus station,43.937832,15.443678,QBI,,,,,,,Europe/Zagreb,
2f98b398-3211-43fd-8257-9f6e80c06463,Biorine,43.554412,16.826298,WBR,,,,,,,Europe/Zagreb,
5b2a7b8e-2af4-49d9-bf3c-55955afc3459,Birmingham Summer Row- Great Charles Street,52.481141,-1.90619,BMD,,,,,,,Europe/London,
dcc227da-9603-11e6-9066-549f350fcb0c,Bischofsgrün (Birnstengel),50.056723,11.806513,BSG,,,,,,,Europe/Berlin,
6412a028-2672-4fd4-a6a8-afc381034d3a,Bisignano,39.510733,16.290196,BIG,,,,,,,Europe/Rome,
a95fa497-df1c-4901-86c6-de332a622422,Bistrița (bus station Heniu),47.131361,24.48379,BTT,,,,,,,Europe/Bucharest,
ba4216ae-a4cd-4531-a5e2-84f285434eea,Bivio Cantinella,39.663273,16.450743,CLL,,,,,,,Europe/Rome,
7c0aada5-24c4-4a16-b87c-08bf8ea976a6,Bjelovar AS,45.89478,16.84498,ZBE,,,,,,,Europe/Zagreb,
e257f7dd-a580-4bcc-a179-d1dd6afbed16,Bjerkreim E39,58.584574,6.069981,BJKM,,,,,,,Europe/Oslo,
9b68df58-3ecb-11ea-8017-02437075395e,Blagoevgrad Central Bus Terminal,42.012961,23.087043,BOW,,,,,,,Europe/Sofia,
3c79e594-51a2-4b69-85f6-3acd926c7586,Blankaholm Vägskäl E22,57.589655,16.486022,BKH,,,,,,,Europe/Stockholm,
dcc3fe15-9603-11e6-9066-549f350fcb0c,Bled bus station,46.371189,14.106885,BLD,,,,,,,Europe/Ljubljana,
193429b9-df93-4902-90a1-1c24f9ed3933,Blois (Bus Station),47.586958,1.324166,BLS,,,,,,,Europe/Paris,
9b6bb3bf-3ecb-11ea-8017-02437075395e,Bobolice,53.95434,16.587395,BBI,,,,,,,Europe/Warsaw,
dcbff634-9603-11e6-9066-549f350fcb0c,Bocholt bus station,51.83407,6.620218,BOC,,,,,,,Europe/Berlin,
dcbaefef-9603-11e6-9066-549f350fcb0c,Bochum central station (Wittener Straße),51.47931,7.22485,BO,,,,,,,Europe/Berlin,
46b4bcfe-89af-4670-b670-616948f96e27,"Bogatynia, ul. Daszyńskiego (teren dworca PKS)",50.905744,14.957184,BGI,,,,,,,Europe/Warsaw,
a628d74b-5da3-491c-aa9d-eb5b92678a4c,"Bolesławiec, Dworzec Autobusowy",51.2649,15.558993,BLW,,,,,,,Europe/Warsaw,
9af90e65-a3c3-4481-afce-4329023da5ba,Bollène (Péage),44.289407,4.750713,BLL,,,,,,,Europe/Paris,
dcc03216-9603-11e6-9066-549f350fcb0c,Bologna (central bus station),44.50399,11.346852,BOL,,,,,,,Europe/Rome,
82c2031d-4239-44c3-86b2-2755b1491990,Bolzano South (Stazione FS),46.473782,11.326356,BLZ,,,,,,,Europe/Rome,
dcbb9d17-9603-11e6-9066-549f350fcb0c,Bonn UN Campus (Museumsmeile),50.712671,7.120409,BN,,,,,,,Europe/Berlin,
dcc55f92-9603-11e6-9066-549f350fcb0c,Borca di Cadore,46.43578,12.223588,BOR,,,,,,,Europe/Rome,
dcc06cc2-9603-11e6-9066-549f350fcb0c,Bordeaux Saint-Jean (Paludate),44.82975,-0.553934,BDX,,,,,,,Europe/Paris,
6737feb5-5ed0-4055-927c-07e76bc6a754,Bordighera,43.779392,7.662813,IGH,,,,,,,Europe/Rome,
442c1916-435c-4c69-9189-ba4a18e0a215,Borghetto S.Spirito (Lungomare),44.114734,8.246749,BGH,,,,,,,Europe/Rome,
dcbff510-9603-11e6-9066-549f350fcb0c,Borken train station,51.849038,6.864717,BRK,,,,,,,Europe/Berlin,
dcbfe4c9-9603-11e6-9066-549f350fcb0c,Born a. Darss (Mitte),54.387507,12.532119,BOD,,,,,,,Europe/Berlin,
2d091e3d-4c16-46a8-bd25-dae2a5b1c7b0,Borovo,45.401837,18.978261,XBO,,,,,,,Europe/Zagreb,
9ad9397d-e5a2-4b33-8765-3a86101763e5,Borås (Resecentrum) Flixbus Stop,57.720123,12.931395,BOS,,,,,,,Europe/Stockholm,
dcc4cbef-9603-11e6-9066-549f350fcb0c,Bosiljevo,45.410931,15.289252,QBS,,,,,,,Europe/Zagreb,
f22a1869-b0da-4e62-8bb8-83b13e5d320b,Botoșani (bus station),47.752634,26.64343,BSI,,,,,,,Europe/Bucharest,
dcc0af4f-9603-11e6-9066-549f350fcb0c,Bourges (central bus station),47.082474,2.386704,BOU,,,,,,,Europe/Paris,
9b69e5b5-3ecb-11ea-8017-02437075395e,Bradford Nelson Street,53.790631,-1.752577,BRF,,,,,,,Europe/London,
bc68b3d1-bfe0-49a9-88d1-88eb6d4ffd35,Braga (Centro de Transportes),41.555317,-8.425437,BRR,,,,,,,Europe/Lisbon,
19f7658f-0b83-4321-ac89-1ff1d9f88c3e,Branjin Vrh autobusno stajalište,45.794054,18.612594,ZBB,,,,,,,Europe/Zagreb,
dcc2cb4f-9603-11e6-9066-549f350fcb0c,Bratislava (bus station Mlynské Nivy),48.14679,17.128865,BTS,,,,,,,Europe/Bratislava,
dcc2a3d7-9603-11e6-9066-549f350fcb0c,Brașov (bus station Bartolomeu),45.659787,25.570016,QBV,,,,,,,Europe/Bucharest,
dcc219cc-9603-11e6-9066-549f350fcb0c,Breda Prinsenbeek,51.604088,4.723247,BRP,,,,,,,Europe/Amsterdam,
dcc06f26-9603-11e6-9066-549f350fcb0c,Breda central train station,51.596493,4.778302,BRE,,,,,,,Europe/Amsterdam,
dcbbd055-9603-11e6-9066-549f350fcb0c,Bregenz bus station,47.501994,9.739115,BGZ,,,,,,,Europe/Vienna,
9b69dd26-3ecb-11ea-8017-02437075395e,Brela,43.376119,16.92338,QBRE,,,,,,,Europe/Zagreb,
dcbb3fe6-9603-11e6-9066-549f350fcb0c,Bremen Fernbusterminal,53.084008,8.807204,HB,,,,,,,Europe/Berlin,
dcc0221c-9603-11e6-9066-549f350fcb0c,Brescia (SAIA bus station),45.533056,10.214444,BSC,,,,,,,Europe/Rome,
dcc13984-9603-11e6-9066-549f350fcb0c,Brest,48.38696,-4.48381,BST,,,,,,,Europe/Paris,
44342791-6e91-4b65-b28e-fc0d54277bc2,Breznički Hum,46.104337,16.280673,WBH,,,,,,,Europe/Zagreb,
2508c8e9-bdff-473c-8417-54e4dae03a36,Brezno (bus station),48.802071,19.629543,B1Z,,,,,,,Europe/Bratislava,
f3c3dfb2-35fa-49b0-b0df-332223447b15,Bridgend-Sarn,51.532104,-3.573363,BGW,,,,,,,Europe/London,
dcc1a425-9603-11e6-9066-549f350fcb0c,Brindisi,40.624179,17.929451,BRD,,,,,,,Europe/Rome,
9b6b7cb9-3ecb-11ea-8017-02437075395e,Bristol (Bond Street North),51.459513,-2.588487,BIO,,,,,,,Europe/London,
dcc543af-9603-11e6-9066-549f350fcb0c,Brive-la-Gaillarde (Centre Commercial Ouest),45.145925,1.482554,BGO,,,,,,,Europe/Paris,
dcbcb138-9603-11e6-9066-549f350fcb0c,Brixen/Vahrn (Bressanone/Varna),46.764069,11.642823,BZX,,,,,,,Europe/Rome,
dcc5b203-9603-11e6-9066-549f350fcb0c,Brno (bus station Hotel Grand),49.19341,16.614258,BNN,,,,,,,Europe/Prague,
9b689b6b-3ecb-11ea-8017-02437075395e,Brodarica aut. stajalište,43.681168,15.916505,QBRD,,,,,,,Europe/Zagreb,
dcc07028-9603-11e6-9066-549f350fcb0c,Bruges (Station Brugge),51.195501,3.216274,BRG,,,,,,,Europe/Brussels,
dcbae1a6-9603-11e6-9066-549f350fcb0c,Brunswick central station,52.251194,10.536665,BS,,,,,,,Europe/Berlin,
1c691f12-6f01-46ab-aca0-c5835c365228,Brussels Heysel (Baudouin Metro Station),50.897336,4.329521,BHY,,,,,,,Europe/Brussels,
dcbf8bd9-9603-11e6-9066-549f350fcb0c,Brussels-North train station,50.861947,4.358561,BNO,,,,,,,Europe/Brussels,
6aae34ac-9e9c-48bb-b1d4-2cac96649e9f,"Brzeg, Dworzec Autobusowy",50.853536,17.471993,BRZ,,,,,,,Europe/Warsaw,
9b6a8fc8-3ecb-11ea-8017-02437075395e,"Brzesko, dworzec autobusowy",49.971578,20.616378,BRZE,,,,,,,Europe/Warsaw,
f3fe478e-2678-4971-b5db-69340a906ba7,"Brzozów, Dworzec Autobusowy",49.694513,22.020491,BOO,,,,,,,Europe/Warsaw,
e1c71267-f21e-438b-b2b2-b4cf7e201e8a,Brăila (bus station PAX),45.280276,27.95603,BRL,,,,,,,Europe/Bucharest,
dcc4df4f-9603-11e6-9066-549f350fcb0c,Bršadin,45.362963,18.917465,QBD,,,,,,,Europe/Zagreb,
54c7a569-1af8-4252-aa35-eba0ff50b89b,Bucharest (bus station Militari),44.43294,26.006273,BM,,,,,,,Europe/Bucharest,
9752a5b0-1a7f-4545-b059-b4978533977b,Buching (center),47.61749,10.80781,BUC,,,,,,,Europe/Berlin,
dcbcd0d8-9603-11e6-9066-549f350fcb0c,Budapest Népliget bus station,47.474306,19.0985,BUD,,,,,,,Europe/Budapest,
8c1333d4-4636-4acc-91a9-cf8130828aab,Budimiri,43.565424,16.808407,WBU,,,,,,,Europe/Zagreb,
48c384dc-285d-4d6e-ae87-0fbfad8bb3cb,Bukovlje,45.184925,18.070113,QBJ,,,,,,,Europe/Zagreb,
5ba51949-db24-447c-8b7f-7e7c0acd910b,Bukowiec,49.311938,22.410679,BUI,,,,,,,Europe/Warsaw,
edd7306d-6c61-4251-844a-8bd4a0e42352,"Bukowina Tatrzańska, Kościuszki (Klin 06 i 07)",49.330278,20.097081,BT2,,,,,,,Europe/Warsaw,
b0d5b93c-4687-41c8-bf78-59dc999275d6,Bumbești-Jiu (vis-à-vis de Spital),45.180529,23.379063,BUJ,,,,,,,Europe/Bucharest,
acbb1926-1e7e-430d-a3cc-0edbd64d2cb5,Burgos (Bus Station),42.338244,-3.701226,BUG,,,,,,,Europe/Madrid,
9b69ce00-3ecb-11ea-8017-02437075395e,Bus Station Byala,42.875724,27.88328,BYLA,,,,,,,Europe/Sofia,
860dde6d-b297-4fec-9646-776d166d60d6,"Busko-Zdrój, dworzec autobusowy",50.460436,20.705597,BZD,,,,,,,Europe/Warsaw,
b8e2579f-d457-4e25-90f7-ce4cf4d31859,Busto Arsizio,45.632304,8.84514,BUT,,,,,,,Europe/Rome,
3e21bc1c-0e49-4df5-982f-cce981f76295,Buzău (bus station Nord),45.162924,26.814612,BUZ,,,,,,,Europe/Bucharest,
dcbccbe5-9603-11e6-9066-549f350fcb0c,"Bydgoszcz, dworzec autobusowy",53.122021,18.017502,BYD,,,,,,,Europe/Warsaw,
9b6a6c59-3ecb-11ea-8017-02437075395e,"Bytów, ul. Kochanowskiego",54.170498,17.486777,BYW,,,,,,,Europe/Warsaw,
c1db2403-fcc1-4b38-8e78-25d35dc6ce29,Bánovce nad Bebravou (bus station),48.721961,18.253106,B2B,,,,,,,Europe/Bratislava,
9554804a-78cc-4946-b62c-d52e82287850,Bârlad (bus station Romdantrans),46.215584,27.673227,BLE,,,,,,,Europe/Bucharest,
9b6b5196-3ecb-11ea-8017-02437075395e,Béziers (SNCF Station),43.336576,3.220587,BZR,,,,,,,Europe/Paris,
dcc06b80-9603-11e6-9066-549f350fcb0c,Böblingen central bus station,48.686504,9.003186,BB,,,,,,,Europe/Berlin,
dcbc50bf-9603-11e6-9066-549f350fcb0c,Bödefeld,51.249772,8.394026,BDF,,,,,,,Europe/Berlin,
ba91bf57-4f15-4b7e-8e1e-a0d2a0eba8cb,Băile Herculane (Railway station),44.863203,22.387981,BHE,,,,,,,Europe/Bucharest,
485f39fd-7bfb-4fb5-8437-50eebd3f0e74,C4T All4Trucks (Pre UK Check),50.941997,1.93326,C4T,,,,,,,Europe/Paris,
19658f4b-948c-4cd7-8445-328c9a5433f5,Cabourg,49.294182,-0.106584,CBG,,,,,,,Europe/Paris,
4cdcb3ee-709f-40de-9914-a91bb4617c25,Caceres (Bus Station),39.460171,-6.382407,CSR,,,,,,,Europe/Madrid,
dcc13bcd-9603-11e6-9066-549f350fcb0c,Caen (central bus station),49.176488,-0.346787,CAE,,,,,,,Europe/Paris,
e104cded-75d2-4235-96ab-1ae0520e2e07,Cagnano Varano,41.825085,15.776537,AGO,,,,,,,Europe/Rome,
a4c10f70-162a-47ab-ac75-a5032791e957,Cahors,44.451408,1.439587,CAH,,,,,,,Europe/Paris,
a3e359c9-60e7-4dc5-94e9-0c7564a444da,Calafat (high school Independenta),43.990434,22.940579,CFT,,,,,,,Europe/Bucharest,
dcc13e03-9603-11e6-9066-549f350fcb0c,Calais (P&O Ferry),50.97456,1.87865,CPO,,,,,,,Europe/Paris,
d6842b7f-90fb-4a4a-a2f3-7f9b2c7b2d90,Caldas da Rainha (Bus Station),39.405868,-9.134818,RAI,,,,,,,Europe/Lisbon,
d26edcf8-e382-4e7c-a22c-19983aa2a71d,Calopezzati,39.578822,16.819171,CZZ,,,,,,,Europe/Rome,
cf8b0df5-4b56-4a08-873c-107a732486d8,Caltanissetta (Via Rochester),37.487484,14.05809,TTA,,,,,,,Europe/Rome,
a0a50227-d81d-4431-aebc-78626e527511,Cambridge (Trumpington Park and Ride),52.167398,0.107904,CTPR,,,,,,,Europe/London,
d392ec80-b147-47b3-ab27-54eb622d76d4,Caminha,41.877311,-8.839837,AHH,,,,,,,Europe/Lisbon,
ba95794d-32f9-47fb-9d1c-40adfd799ab1,Campobasso,41.558568,14.66939,CMB,,,,,,,Europe/Rome,
4b065faf-55c1-4e05-8bcc-3c2f6f5ca4b1,Candela (distr.AGIP),41.149817,15.526915,CND,,,,,,,Europe/Rome,
818fb349-0836-4573-9844-913b1bcdc5f1,Canicattì,37.355844,13.849981,CCT,,,,,,,Europe/Rome,
64f3ab00-d8a7-442f-91f9-ff62cdd55349,Cannes (Le Cannet),43.570703,7.014855,CNN,,,,,,,Europe/Paris,
78e263f0-b4d1-4185-87e4-02dc56862a9b,Caporice,43.59566,16.730939,WCA,,,,,,,Europe/Zagreb,
575878e7-95eb-4b29-8944-46a4daff79eb,Caracal (ROMVAG parking lot),44.108141,24.367568,CCA,,,,,,,Europe/Bucharest,
e0e3ea8d-ab76-425d-8c12-8e2fe2b5f14d,Caransebeș (bus station Nadina),45.408885,22.223617,CNA,,,,,,,Europe/Bucharest,
dcc07247-9603-11e6-9066-549f350fcb0c,Carcassonne,43.215458,2.347785,CAR,,,,,,,Europe/Paris,
efed9747-2b35-4f24-8a85-b90401ec5b35,Cardiff Royal Welsh College of Music,51.486791,-3.183915,CGF,,,,,,,Europe/London,
51af1111-942b-48b7-9a08-e179cbbf3fd8,Carei (vis-à-vis Policlinica/Spitalul Municipal),47.681754,22.464885,CAI,,,,,,,Europe/Bucharest,
f21eda77-5971-4799-a2f9-682f6b5a0347,Cariati,39.50661,16.93651,CTI,,,,,,,Europe/Rome,
6dc7b9e1-2d18-41d3-9f44-a829cf39da58,Carlisle (Halston Hotel),54.892722,-2.931916,CRLS,,,,,,,Europe/London,
ef38c719-8c0b-4590-b143-66d324cef577,Casamassima,40.958918,16.917231,SSI,,,,,,,Europe/Rome,
f984ff9b-e0fe-45f9-85c2-7a53d1ddc454,Cascais (Alcabideche),38.737523,-9.394962,CAX,,,,,,,Europe/Lisbon,
dcc31259-9603-11e6-9066-549f350fcb0c,Caserta,41.068959,14.326765,CAS,,,,,,,Europe/Rome,
dcc5e4fd-9603-11e6-9066-549f350fcb0c,Cassino,41.485309,13.832052,CSI,,,,,,,Europe/Rome,
238051fe-c5cd-4a2b-8b4f-ab2d43d4a9fe,Castelo Branco (Bus Station),39.818732,-7.489239,CBS,,,,,,,Europe/Lisbon,
9b6818fb-3ecb-11ea-8017-02437075395e,Castets,43.877078,-1.143187,CTX,,,,,,,Europe/Paris,
52655aad-5268-43fc-bd78-63ed53478504,Castrovillari,39.817408,16.200213,CVL,,,,,,,Europe/Rome,
073d9b2c-d715-4265-99ee-7add178b747b,Catania (Via D'Amico),37.508701,15.099201,NTA,,,,,,,Europe/Rome,
d5fcab08-3a32-4b47-9499-c6ad1a4ee4f8,Catanzaro,38.905359,16.580895,CTZ,,,,,,,Europe/Rome,
66bf23b1-6f91-4c40-9c76-8ce76a695cb9,Cattolica,43.963114,12.739627,CTT,,,,,,,Europe/Rome,
386ac306-9e57-46e0-84cb-263d0f9d14ab,Cavalaire-sur-Mer,43.173156,6.532728,CLM,,,,,,,Europe/Paris,
a716d318-506f-45b0-98e2-1cbc6fea8a99,Cefalù (Via Gramsci),38.033375,14.0202,CFL,,,,,,,Europe/Rome,
05ecca43-91a1-43f3-8e26-87cb7c78560e,Ceglie Messapica,40.646856,17.521696,CGE,,,,,,,Europe/Rome,
dcbadba6-9603-11e6-9066-549f350fcb0c,Celle central bus station,52.61989,10.06316,CE,,,,,,,Europe/Berlin,
173d6250-4c6c-40ff-a9c8-331c463a82c3,Celorico da Beira,40.62681,-7.40206,CDE,,,,,,,Europe/Lisbon,
e874be67-12eb-4c92-86b5-8f0cb078b513,Ceriale,44.092633,8.229801,CIL,,,,,,,Europe/Rome,
dcc3bf92-9603-11e6-9066-549f350fcb0c,Cerignola,41.260371,15.907776,CR,,,,,,,Europe/Rome,
91a69e30-0f4b-47dd-a23f-1c66dccbec41,Cerna autobusno stajalište,45.180591,18.692058,QCE,,,,,,,Europe/Zagreb,
9a118c51-ebd2-4072-8239-15905d27147d,Cervia,44.232356,12.368798,CVA,,,,,,,Europe/Rome,
dcc3f157-9603-11e6-9066-549f350fcb0c,Cesena Accoglienza,44.167916,12.280738,CSN,,,,,,,Europe/Rome,
dcc4a430-9603-11e6-9066-549f350fcb0c,Cesena Karl Marx,44.144858,12.248472,CSM,,,,,,,Europe/Rome,
235915d5-350a-4d43-b98c-f4206ee72e75,Cesenatico (Carducci 137),44.196924,12.408886,CCU,,,,,,,Europe/Rome,
7a7c57c3-2992-4180-aef8-76045eba6545,Cetraro Marina,39.512959,15.941738,CMA,,,,,,,Europe/Rome,
8c51cc17-cc0e-4429-b66f-35e4f88c3bbf,Chalon-sur-Saône (Bus Station),46.780992,4.844335,CSS,,,,,,,Europe/Paris,
dcc07383-9603-11e6-9066-549f350fcb0c,Chambéry (Central Bus Station),45.56998,5.91742,CHA,,,,,,,Europe/Paris,
87e7ff8e-5026-4fb1-8241-7e3e2debbeda,Chamonix,45.917132,6.867276,CMX,,,,,,,Europe/Paris,
dcc076f4-9603-11e6-9066-549f350fcb0c,Charleroi Gare du Sud,50.403772,4.437987,CHI,,,,,,,Europe/Brussels,
6fde725c-6c0c-4861-9d35-0cb778d7ee76,Chateaulin,48.21592,-4.050362,CEA,,,,,,,Europe/Paris,
478d2f61-1b41-4c82-a6cd-70c2dd5306d6,Chaves,41.740503,-7.476177,CEH,,,,,,,Europe/Lisbon,
dcc225de-9603-11e6-9066-549f350fcb0c,Cheb (bus station),50.074612,12.379693,CHB,,,,,,,Europe/Prague,
dcbb411a-9603-11e6-9066-549f350fcb0c,Chemnitz central bus station,50.84052,12.9264,C,,,,,,,Europe/Berlin,
9b6baaf9-3ecb-11ea-8017-02437075395e,Chernihiv (Chernihiv-1 Bus Station),51.485423,31.268496,CH,,,,,,,Europe/Kyiv,
9b69e9c5-3ecb-11ea-8017-02437075395e,Chernivtsi (Central Bus Station),48.264883,25.951953,CEI,,,,,,,Europe/Kyiv,
37e44672-96f0-47fc-8d37-f7a38740d2da,Chesterfield Coach Station,53.234011,-1.428652,CEF,,,,,,,Europe/London,
9b6a3d38-3ecb-11ea-8017-02437075395e,"Chełm, Al. Armii Krajowej/KFC 05 i 06",51.13705,23.468146,CEM,,,,,,,Europe/Warsaw,
dcc5f12c-9603-11e6-9066-549f350fcb0c,Chieti,42.356888,14.138587,CHT,,,,,,,Europe/Rome,
a74d76c2-af59-4418-9d09-ee525410819a,Chisinau (Airport),46.938933,28.931998,CSNU,,,,,,,Europe/Chisinau,
7bc303a3-439d-41c1-8865-bcae9ef078f7,Chivasso Centro (motorway A4 westbound),45.209846,7.889444,CVH,,,,,,,Europe/Rome,
ed85b871-d52a-45ac-930f-c4846e96cbbf,"Choczewo, Dworzec PKS",54.740299,17.891306,COZ,,,,,,,Europe/Warsaw,
3dae2d2e-a2e7-4208-85aa-370d71b94ab5,"Chojnice, Dworzec Autobusowy",53.68997,17.577116,CJC,,,,,,,Europe/Warsaw,
d6036a29-8af5-46a8-9bbc-88726d60ab64,Chomutov (bus station),50.460144,13.408781,C1H,,,,,,,Europe/Prague,
1c243da8-1c68-409c-a3c6-366fd2220b81,Chorzow (Chorzów) AKS,50.290113,18.963461,AKS,,,,,,,Europe/Warsaw,
09c22fc0-298e-4900-832c-039abb3fa9f9,"Chrzanów, Dworzec ZKKM",50.1427,19.411507,CRW,,,,,,,Europe/Warsaw,
dcbc7463-9603-11e6-9066-549f350fcb0c,Chur station train station (Bahnhofplatz),46.852917,9.529111,CHU,,,,,,,Europe/Zurich,
dd47c5e7-a30b-4fc0-a81a-d17703d46dfe,Châlons-en-Champagne (Pôle d'échanges SNCF Station),48.955118,4.348217,CCC,,,,,,,Europe/Paris,
cd652e44-4098-4328-80eb-e5251af1e76f,Château-Thierry,49.059275,3.394898,CHY,,,,,,,Europe/Paris,
dcc3ac83-9603-11e6-9066-549f350fcb0c,Châtellerault,46.833426,0.534398,CHL,,,,,,,Europe/Paris,
d9272ef2-4539-43ae-a97b-45511d8e2321,"Chłapowo, 04 i 31",54.807632,18.376019,CPZ,,,,,,,Europe/Warsaw,
0a26b33e-949c-4515-9032-a5b94b9ce75a,"Ciechocinek, dworzec autobusowy",52.880347,18.782992,CCH,,,,,,,Europe/Warsaw,
6d2ed4c4-ffbb-430c-b2df-3f36fbc7e27a,"Cieszyn, Dworzec Autobusowy",49.750566,18.638556,CIE,,,,,,,Europe/Warsaw,
01bdb24e-43df-4cd0-af1c-ea523ac49f5e,Ciriè,45.224215,7.606527,CIRI,,,,,,,Europe/Rome,
64bce092-0523-42b1-9fb9-441e7e44241f,Cirò Marina (SP 7 adiacente Eurospin),39.36853,17.113985,CMR,,,,,,,Europe/Rome,
b9c04288-6148-402f-b6e2-fa5c663f55c3,Cisna,49.213026,22.328205,CI5,,,,,,,Europe/Warsaw,
ce069c28-352c-40f3-b7ca-3114a9bd7d77,Cista Provo,43.504135,16.947754,CTP,,,,,,,Europe/Zagreb,
7b9f36b1-51f6-408e-86e1-595c5347884a,Cista Velika,43.533953,16.871852,WCV,,,,,,,Europe/Zagreb,
f028dbb7-0ad6-4bab-a7a5-3fba65acd133,Cittadella,45.651129,11.776526,CIT,,,,,,,Europe/Rome,
4c39fab4-b2a3-4e60-84f6-7854bbe40f52,Civitanova Marche (CC Cuore Adriatico),43.294422,13.703864,MRH,,,,,,,Europe/Rome,
dcc055c8-9603-11e6-9066-549f350fcb0c,Clermont-Ferrand (Bus Station),45.770757,3.082247,CLF,,,,,,,Europe/Paris,
b38263da-3618-4ac7-a0fe-7a771bb6d2fa,Cluj-Napoca (bus station Beta),46.78597,23.580822,CLJ,,,,,,,Europe/Bucharest,
dcbb069b-9603-11e6-9066-549f350fcb0c,Coblenz central train station (Neversstraße),50.349318,7.589667,KO,,,,,,,Europe/Berlin,
c9e8bf88-9d2e-46a6-a8e5-17129eb020cc,Coimbra (Rua do Padrao),40.220224,-8.439456,COI,,,,,,,Europe/Lisbon,
dcc079e9-9603-11e6-9066-549f350fcb0c,Colmar,48.073754,7.347802,COL,,,,,,,Europe/Paris,
dcc54142-9603-11e6-9066-549f350fcb0c,Cologne Airport CGN (Terminal 2),50.881001,7.117833,CGN,,,,,,,Europe/Berlin,
9b6bf8b3-3ecb-11ea-8017-02437075395e,Comiso (Via Ghandi),36.953932,14.602013,GHD,,,,,,,Europe/Rome,
ffef7a6f-c7b7-4576-88ba-6a73770f0ac9,Como,45.80898,9.073305,CMO,,,,,,,Europe/Rome,
31012995-c9e3-4198-8ae1-facee6a2e57e,Compiègne Sud (Péage - Covoiturage),49.321538,2.697519,CPS,,,,,,,Europe/Paris,
69cd1e5e-b143-4b9c-a416-9e4793ccb8c8,Concarneau Nord,47.922,-3.901626,CNO,,,,,,,Europe/Paris,
dcbab50a-9603-11e6-9066-549f350fcb0c,Constance Allmannsdorf,47.682148,9.202582,KNA,,,,,,,Europe/Berlin,
cb775ddd-34c7-4702-b393-fba3f56b9785,Constance central bus station,47.672084,9.163411,KNZ,,,,,,,Europe/Berlin,
12ce502a-9269-4323-b08a-b0ab6d452d69,Constanța (bus station Sud),44.170542,28.632342,COE,,,,,,,Europe/Bucharest,
dcbd0b4b-9603-11e6-9066-549f350fcb0c,Copenhagen central train station (Ingerslevsgade),55.670153,12.565466,KHG,,,,,,,Europe/Copenhagen,
612c61e7-ed36-4f93-9ec2-90bb292e2288,Corato,41.158658,16.402105,COT,,,,,,,Europe/Rome,
1979f5ae-9e90-4ca5-bc29-58e6d0020e73,Cordoba (Bus Station),37.888981,-4.789924,CRD,,,,,,,Europe/Madrid,
bde89194-135a-4432-97eb-078cd5966694,Corigliano (Distributore AGIP),39.624242,16.516243,CGR,,,,,,,Europe/Rome,
4cff9210-8924-4eb8-8315-2eb842344c14,Cormano - Cusano Milanino (motorway A4 westbound),45.541907,9.176725,NLM,,,,,,,Europe/Rome,
dcc569ad-9603-11e6-9066-549f350fcb0c,Cortina d'Ampezzo,46.53906,12.137848,COR,,,,,,,Europe/Rome,
7ff08cfb-3f3f-4b2e-867f-e35b7c2452cf,Cosenza (Autostazione),39.304464,16.253361,COS,,,,,,,Europe/Rome,
5324b879-7145-4d4e-b116-048599222487,Cosne-Cours-sur-Loire (Zone commerciale),47.382562,2.915838,CCL,,,,,,,Europe/Paris,
dcc07b19-9603-11e6-9066-549f350fcb0c,Cottbus bus station,51.75047,14.327465,CB,,,,,,,Europe/Berlin,
dcc47766-9603-11e6-9066-549f350fcb0c,Courmayeur,45.791382,6.970375,CMY,,,,,,,Europe/Rome,
0634980d-a9ab-4fa8-9834-d55c943b88d6,Coventry (Pool Meadow),52.410294,-1.506861,CY,,,,,,,Europe/London,
fee7af08-fab1-4895-8740-e25cea94aad7,Covilha (Bus Station),40.273822,-7.498146,IHA,,,,,,,Europe/Lisbon,
a3bff1da-2eb6-497d-81e6-e0769678ea89,Craiova (bus station Pelendava Nord),44.32823,23.817588,CRO,,,,,,,Europe/Bucharest,
d3d3a71f-6d30-441c-95c2-4988eb4af1b0,Cremona,45.142191,10.017759,CRE,,,,,,,Europe/Rome,
dcc29113-9603-11e6-9066-549f350fcb0c,Crikvenica (Bus Station),45.172523,14.692295,QCR,,,,,,,Europe/Zagreb,
2e593f40-7aa5-4347-8ffd-f09339e9e342,Cristuru Secuiesc,46.291192,25.036897,CRST,,,,,,,Europe/Bucharest,
f235a9d0-18b7-43a0-90bb-b459007cc8b3,Crotone,39.084388,17.115038,CRA,,,,,,,Europe/Rome,
ef344930-fef0-430c-bb26-52b97e27aa8e,Cuneo (Movicentro),44.386615,7.535725,CN,,,,,,,Europe/Rome,
ba97af8a-f2cd-4776-bcfe-8dd44e119841,Cupra Marittima,43.025035,13.858654,CUM,,,,,,,Europe/Rome,
cf36e5eb-27b3-46a9-9c0b-aaa963d9e2bb,Czarna Górna,49.324291,22.668881,CZG,,,,,,,Europe/Warsaw,
9b6c0028-3ecb-11ea-8017-02437075395e,"Czchów, Miasto 38 i 65",49.834391,20.679193,CZH,,,,,,,Europe/Warsaw,
064f370c-3ba2-4a84-b0f5-3eec1c72736d,"Czorsztyn, przy Remizie 01 i Zamkowa 02",49.437696,20.328992,CZO,,,,,,,Europe/Warsaw,
dcc595c6-9603-11e6-9066-549f350fcb0c,"Częstochowa, Dworzec Autobusowy",50.805079,19.118984,CZA,,,,,,,Europe/Warsaw,
43ec4031-0ad3-4d75-be2b-d26288ccb67a,"Człuchów, Al. Wojska Polskiego",53.67083,17.365925,CZL,,,,,,,Europe/Warsaw,
8349ffe7-3369-4ef6-92d3-ee769fd29f7f,Câmpulung Moldovenesc (Str. Viitorului 11),47.532659,25.556538,CMP,,,,,,,Europe/Bucharest,
159085c9-a756-4e81-a0b3-45629a9887c5,Călărași,44.204078,27.314263,CAA,,,,,,,Europe/Bucharest,
dcc45b64-9603-11e6-9066-549f350fcb0c,DON'T USE Arezzo,43.466076,11.87476,ARZ,,,,,,,Europe/Rome,
1c92adcf-a23f-4efc-b61a-d9c155e0dbe3,Darda autobusno stajalište,45.630163,18.687313,ZDA,,,,,,,Europe/Zagreb,
dcbabf60-9603-11e6-9066-549f350fcb0c,Darmstadt central train station,49.870919,8.628607,DA,,,,,,,Europe/Berlin,
9b6b078d-3ecb-11ea-8017-02437075395e,"Daugavpils, Bus Station",55.871254,26.525593,DVP,,,,,,,Europe/Riga,
6855bc81-2a1c-4300-a3a9-4666873b7610,De Efteling (Kaatsheuvel),51.653139,5.0425,EFT,,,,,,,Europe/Amsterdam,
1b0af250-8590-4423-8958-7af8f2e6ab39,Deauville (Train Station),49.359267,0.083892,DEA,,,,,,,Europe/Paris,
63a5dfde-9ab3-4fde-ac87-ac1b0f17f415,Debrecen bus station,47.525562,21.618112,DBC,,,,,,,Europe/Budapest,
dcbc1b72-9603-11e6-9066-549f350fcb0c,Deggendorf bus station,48.838885,12.949869,DEG,,,,,,,Europe/Berlin,
2cf5d02f-afd0-4769-bc8a-4602a0be9359,Dej (Railway station),47.141376,23.894282,DEJ,,,,,,,Europe/Bucharest,
dcc08eb1-9603-11e6-9066-549f350fcb0c,Delft Station,52.006766,4.35685,DEF,,,,,,,Europe/Amsterdam,
dcbb9b5d-9603-11e6-9066-549f350fcb0c,Delmenhorst (Riedeweg),53.03158,8.65375,DEL,,,,,,,Europe/Berlin,
7013d866-bbcf-40e7-8851-7388f09411af,Delnice (bus station),45.392924,14.795514,DNI,,,,,,,Europe/Zagreb,
dcc27deb-9603-11e6-9066-549f350fcb0c,Deva (bus station Plus Com),45.88462,22.909,QDV,,,,,,,Europe/Bucharest,
fd49159b-1c35-4af2-a1bd-a48f44e10fc7,Diamante (are di servizio TAMOIL),39.691791,15.817432,DNE,,,,,,,Europe/Rome,
8a05ee65-e68f-4dc6-8b3a-59a73e9fdef6,Diano Marina,43.9044,8.077887,DNR,,,,,,,Europe/Rome,
dcc14221-9603-11e6-9066-549f350fcb0c,Dieppe (Central bus station),49.921523,1.080578,DIE,,,,,,,Europe/Paris,
71b20274-41ec-40d5-902e-a3ca15d99a00,Dierhagen Ost,54.310499,12.355468,DHO,,,,,,,Europe/Berlin,
46852fb9-ba04-4879-8481-315b137cf523,Differdange,49.520709,5.899611,DFD,,,,,,,Europe/Luxembourg,
dcc09441-9603-11e6-9066-549f350fcb0c,Dijon (Bus Station),47.323534,5.0279,DIJ,,,,,,,Europe/Paris,
4aee50c3-ad4b-4c61-8572-896e31e78b5f,Disneyland Paris - Chessy Sud,48.86661,2.783156,DPC,,,,,,,Europe/Paris,
20ba5b3c-d714-48d7-9d84-7396d67478f6,Dobbiaco,46.724461,12.22614,DBO,,,,,,,Europe/Rome,
dcc4825c-9603-11e6-9066-549f350fcb0c,Dole (Péage de Choisey - A39),47.064098,5.447277,DOL,,,,,,,Europe/Paris,
e8af504b-c22b-43c4-9b02-daf1e285b6c4,Doli,42.816706,17.777879,DLI,,,,,,,Europe/Zagreb,
8448a2c2-95c0-4868-86bf-4f0631435eb9,Dolný Kubín (bus station),49.217254,19.295992,DKB,,,,,,,Europe/Bratislava,
1b7fff53-7e47-4600-9f45-69caeaef68da,Donaueschingen (bus station),47.948749,8.497568,DON,,,,,,,Europe/Berlin,
5784249a-87f1-4106-af55-d6313ecea8f8,Donji Andrijevci,45.187427,18.295785,QDA,,,,,,,Europe/Zagreb,
dcc506b7-9603-11e6-9066-549f350fcb0c,Donji Miholjac bus station,45.759244,18.166099,QDM,,,,,,,Europe/Zagreb,
be65416c-0e27-4206-8f7e-1b3225772199,Donovaly (centrum),48.878523,19.22362,DNV,,,,,,,Europe/Bratislava,
dcbc7336-9603-11e6-9066-549f350fcb0c,Dornbirn station,47.418166,9.740724,DOB,,,,,,,Europe/Vienna,
dcbaeef4-9603-11e6-9066-549f350fcb0c,Dortmund central bus station,51.51954,7.459387,DO,,,,,,,Europe/Berlin,
14aa766b-48d0-4d84-ab4c-c2e610d731a4,Dover (DFDS Ferry),51.12922,1.34172,DFDS,,,,,,,Europe/London,
dcc31844-9603-11e6-9066-549f350fcb0c,Drachten (Vallaat),53.106497,6.126321,DRA,,,,,,,Europe/Amsterdam,
71aae4d0-38fe-409f-bdcd-8031dbd046e4,Drage autobusno stajalište,43.886244,15.543217,QDR,,,,,,,Europe/Zagreb,
7fe6db0b-7e34-41ea-87f8-d51a82619ab7,Dramalj,45.195176,14.672475,YDR,,,,,,,Europe/Zagreb,
39fbab46-9fac-49bb-9349-42c27e5acb43,Drammen Bangeløkka,59.730835,10.216465,DRAM,,,,,,,Europe/Oslo,
dcbb7a42-9603-11e6-9066-549f350fcb0c,Dresden central station (Bayrische Straße),51.039615,13.731438,DDH,,,,,,,Europe/Berlin,
ea80e74b-130c-4bf1-bdbe-dc0c4aef48fc,Drobeta-Turnu Severin (bus station Drobeta),44.63132,22.673118,DTS,,,,,,,Europe/Bucharest,
c59a0fa8-e3eb-49c8-959a-27f933949856,Drohobych,49.355296,23.543034,DRHB,,,,,,,Europe/Kyiv,
9b6b0d20-3ecb-11ea-8017-02437075395e,Druskininkai (druskininku Autobusu Parkas),54.012306,23.975675,DRU,,,,,,,Europe/Vilnius,
6b5ffef9-273d-48f2-b40d-51d49e49537a,Drvenik,43.158316,17.24845,DRN,,,,,,,Europe/Zagreb,
8454fb8f-c81f-4cae-9a83-fc1494f01078,Duba,43.176861,17.171364,QDUB,,,,,,,Europe/Zagreb,
6939b0a2-1e46-4b28-aca1-8a061dd4c9b5,Dubci,43.402547,16.891571,WDU,,,,,,,Europe/Zagreb,
dcc4b4bb-9603-11e6-9066-549f350fcb0c,Dubrovnik bus station,42.662809,18.083547,QDU,,,,,,,Europe/Zagreb,
5c65af3c-f4b5-4154-9e0e-4978814e1a0a,Dugi Rat,43.444396,16.640486,WDR,,,,,,,Europe/Zagreb,
83ecacca-11fd-4280-a57b-4ae1be76aa7b,Dugopolje,43.586563,16.573578,ZDU,,,,,,,Europe/Zagreb,
dcbbe873-9603-11e6-9066-549f350fcb0c,Duisburg central train station,51.428346,6.771195,DU,,,,,,,Europe/Berlin,
61f2655d-56c7-4972-aa0b-1b85be7503f5,Dundee (Overgate Center -West Marketgait),56.458718,-2.974059,DUND,,,,,,,Europe/London,
6a5518e7-2e7b-4c6f-898f-fe92b1ad8a45,Dunfermline (Halbeath Park and Ride),56.084459,-3.390977,HPR,,,,,,,Europe/London,
ae0bff14-8ff8-4dba-8176-62f0e2d345d1,Dunkerque Port (DFDS Ferry),51.0202,2.18986,DQP,,,,,,,Europe/Paris,
a55f7230-fdfd-477b-93d7-181e424404a7,"Duszniki-Zdrój, ZEM 22 i 73",50.405114,16.385332,DUS,,,,,,,Europe/Warsaw,
d7f6a686-6348-49ee-8adc-3416557868c9,"Dziwnówek, Kołobrzeska",54.032444,14.808306,DZK,,,,,,,Europe/Warsaw,
dcbaca96-9603-11e6-9066-549f350fcb0c,Düsseldorf central bus station,51.222865,6.79542,D,,,,,,,Europe/Berlin,
9b6a747a-3ecb-11ea-8017-02437075395e,"Dębica, Dworzec Autobusowy",50.053874,21.406455,DIC,,,,,,,Europe/Warsaw,
2e05605d-d524-440d-be4e-e105aa0468ab,"Dębki, ul. Letniskowa nr 127",54.82617,18.085508,DEK,,,,,,,Europe/Warsaw,
9b6ada6d-3ecb-11ea-8017-02437075395e,"Dębno, Baczewskiego",52.738341,14.709258,DEN,,,,,,,Europe/Warsaw,
9b6a733c-3ecb-11ea-8017-02437075395e,"Dźwirzyno, ul. Wyzwolenia",54.159508,15.400665,DWI,,,,,,,Europe/Warsaw,
dcc6116d-9603-11e6-9066-549f350fcb0c,Eboli,40.611648,15.048115,EBL,,,,,,,Europe/Rome,
d9c5d2d7-2656-485c-968a-35ae34373143,Edinburgh St Andrew's House,55.953867,-3.1836,EBSA,,,,,,,Europe/London,
dcc15c7e-9603-11e6-9066-549f350fcb0c,Eindhoven Station (John F. Kennedylaan),51.44555,5.480948,EDV,,,,,,,Europe/Amsterdam,
ab7a1f60-f3d3-4b74-aa65-55c0b7e6b5ca,Eisenach (FlixTrain),50.976984,10.332135,UEI,,,,,,,Europe/Berlin,
9530768a-ecb2-4e14-956f-d2bdd153a42e,Eisenberg (Saasa),50.970896,11.874016,ESA,,,,,,,Europe/Berlin,
9a45366a-9d4c-4fbb-8bb2-db9d947db03b,"Elbląg, Dworzec Autobusowy",54.152175,19.414913,EBD,,,,,,,Europe/Warsaw,
6fcc9d23-c930-4ab9-af1d-3be7c730f2c1,Elsterwerda (FlixTrain),51.459817,13.516503,BEW,,,,,,,Europe/Berlin,
dcbbe0a3-9603-11e6-9066-549f350fcb0c,Emden central bus station,53.369041,7.196602,EMD,,,,,,,Europe/Berlin,
dcbfcbb4-9603-11e6-9066-549f350fcb0c,Engen (Grub/McDonald's),47.856125,8.791945,ENG,,,,,,,Europe/Berlin,
5e9e19ec-f63e-44ec-858c-47d67c2cc252,Enköping station,59.644738,17.089958,ENK,,,,,,,Europe/Stockholm,
40910a14-f3ad-4561-9596-ea670eb6a16d,Enna (Bassa),37.56073,14.294962,NNA,,,,,,,Europe/Rome,
dcbcdd11-9603-11e6-9066-549f350fcb0c,Enschede (central station),52.221628,6.889476,ENS,,,,,,,Europe/Amsterdam,
e2bd7d2f-2d40-4dec-901f-f4dcc15d2f6c,Epinal (Bus Station),48.17775,6.442095,EPI,,,,,,,Europe/Paris,
dcbbe1ef-9603-11e6-9066-549f350fcb0c,Erfurt central train station,50.974126,11.040614,EF,,,,,,,Europe/Berlin,
dcbb8099-9603-11e6-9066-549f350fcb0c,Erlangen train station (Parkplatzstraße),49.596497,11.00006,ER,,,,,,,Europe/Berlin,
a00c031f-70c0-4601-8f19-3c799d6fd62d,Erstfeld Gotthard Service Station South,46.8488,8.632181,STAS,,,,,,,Europe/Zurich,
979c9fa9-57c2-4af6-b28f-d01b6d1c0f2d,Esch-sur-Alzette,49.507332,5.991181,ESC,,,,,,,Europe/Luxembourg,
eb619789-dde0-4bdd-8dfd-69f670d9142b,"Espoo, Westendinasema",60.168379,24.804476,EOO,,,,,,,Europe/Helsinki,
bf2eaf54-753e-472a-8bb6-a3b322d95290,Esposende (Bus Station),41.5383,-8.7789,ESR,,,,,,,Europe/Lisbon,
dcbaf468-9603-11e6-9066-549f350fcb0c,Essen central train station (Freiheit),51.450253,7.01461,E,,,,,,,Europe/Berlin,
551147d9-ccf0-41ca-8b97-7d4fa71c67df,Etretat,49.70462,0.20915,ETR,,,,,,,Europe/Paris,
d8bd9a60-8b25-43af-8294-03da1836cb16,Evora,38.568472,-7.918427,EVR,,,,,,,Europe/Lisbon,
d2a36520-4722-40c8-adec-d17ec0a85603,Exeter (Stover Court- Bampfylde Street),50.72696,-3.523503,EXET,,,,,,,Europe/London,
a5f33a0a-2ff9-4907-9f2a-6e6ae238717c,"Ełk, Dąbrowskiego - PKS 01 i PKP 02",53.825298,22.360769,ELK,,,,,,,Europe/Warsaw,
c59ef4d7-dc6f-4afa-8fd1-58d3af5ae65d,Fafe (Bus Station),41.449402,-8.176115,FAF,,,,,,,Europe/Lisbon,
3076bd7a-3720-43df-b4b5-e29fdb86a77b,Faro,37.011779,-7.930716,FAV,,,,,,,Europe/Lisbon,
1303e3a0-530f-4f7e-8d55-468309b1e4ef,Fasano,40.841008,17.358133,FSN,,,,,,,Europe/Rome,
6e8e191e-e05a-449a-8252-6c3ec32caa4c,Fatima,39.632229,-8.681145,FBS,,,,,,,Europe/Lisbon,
58ff1a6a-cbc9-48a7-a467-f5b6d0819f8f,Feda terminal,58.264853,6.84554,FEDA,,,,,,,Europe/Oslo,
7443f267-8b7b-4a03-973a-150e274fbba2,Feldkirch station,47.241415,9.603384,FEL,,,,,,,Europe/Vienna,
2f40e1a2-ab0f-4592-897c-8f6ef5224ee2,Ferrandina Scalo,40.516495,16.474849,INA,,,,,,,Europe/Rome,
dcc19905-9603-11e6-9066-549f350fcb0c,Ferrara,44.842838,11.604776,FER,,,,,,,Europe/Rome,
4f3656cd-cc5b-48b5-a04b-21afaa4ad479,Fetești (cathedral station),44.411463,27.825832,FET,,,,,,,Europe/Bucharest,
6605a01c-58ba-40fd-9bb5-9be91bc257ed,Figueira da Foz,40.147918,-8.849014,FDF,,,,,,,Europe/Lisbon,
2539e8c8-79de-4721-b165-af08c019661d,Filiași (hotel bus station),44.556088,23.512959,FIL,,,,,,,Europe/Bucharest,
bd75cebc-92a6-42c7-a76d-f5ccb09fdaa3,Finale Ligure,44.16887,8.340819,FLI,,,,,,,Europe/Rome,
cd430f86-3e02-4506-b275-c7a76f99e483,Firmo,39.726554,16.262598,CVF,,,,,,,Europe/Rome,
fb0b3178-7868-4185-abf0-6e240b8f4fa5,Fisciano,40.774084,14.792644,FSA,,,,,,,Europe/Rome,
9ee49a33-a0a9-4909-bcdb-5a661b8c78f6,Flekkefjord rutebilstasjon,58.294892,6.666873,FKF,,,,,,,Europe/Oslo,
dcbcde95-9603-11e6-9066-549f350fcb0c,Flensburg central train station,54.775223,9.437259,FL,,,,,,,Europe/Berlin,
dcbcdfc1-9603-11e6-9066-549f350fcb0c,Florence (Villa Costanza),43.755014,11.172638,FIV,,,,,,,Europe/Rome,
aa82ef57-2aed-4e77-9669-c72266592573,Focșani (bus station),45.710678,27.178153,FCS,,,,,,,Europe/Bucharest,
dcc0472b-9603-11e6-9066-549f350fcb0c,Foggia,41.465945,15.553421,FOG,,,,,,,Europe/Rome,
ab7d211d-1114-421a-9cbc-10704c9b5bd9,Fokserød (Sandefjord),59.177691,10.209271,FOKS,,,,,,,Europe/Oslo,
dcc4a116-9603-11e6-9066-549f350fcb0c,Foligno,42.95325,12.708145,FOL,,,,,,,Europe/Rome,
dcc31f56-9603-11e6-9066-549f350fcb0c,Folkestone (Eurotunnel),51.09574,1.121821,FOCA,,,,,,,Europe/London,
dcc213f2-9603-11e6-9066-549f350fcb0c,Forbach (central bus station),49.188723,6.900089,FOR,,,,,,,Europe/Paris,
dcc3ab79-9603-11e6-9066-549f350fcb0c,Forlì (Autostazione),44.223316,12.055246,FRL,,,,,,,Europe/Rome,
32796026-0e2d-4373-ac65-ab5a3fa6a7de,Fossano,44.549933,7.71833,FSS,,,,,,,Europe/Rome,
2f49b8b4-b4bb-49b9-8feb-30c0ca601a83,Francavilla Fontana,40.529435,17.573373,FVF,,,,,,,Europe/Rome,
dcbabe0c-9603-11e6-9066-549f350fcb0c,Frankfurt central train station,50.104394,8.662577,F,,,,,,,Europe/Berlin,
9b6942d9-3ecb-11ea-8017-02437075395e,Františkovy Lázně (městské sady),50.120831,12.349108,FTL,,,,,,,Europe/Prague,
3dd37092-ad6a-4015-bacb-e5a65086442f,Frascineto,39.831791,16.255739,FRN,,,,,,,Europe/Rome,
dcbab968-9603-11e6-9066-549f350fcb0c,Freiburg (im Breisgau) central station,47.995688,7.840469,FR,,,,,,,Europe/Berlin,
bdcaf029-e851-4a40-812f-dd3882c9812a,Freistadt (Busterminal Stifterplatz),48.507757,14.501375,FSP,,,,,,,Europe/Vienna,
10adf593-6fad-4655-9949-a23ab421d03e,Freudenstadt ZOB,48.467214,8.411775,FRE,,,,,,,Europe/Berlin,
1fcc4c7f-a025-4e7f-a86e-79040e7748a4,Freyung bus station,48.806475,13.547595,FEY,,,,,,,Europe/Berlin,
dcc329e1-9603-11e6-9066-549f350fcb0c,Fribourg (Poya),46.815737,7.155162,FRI,,,,,,,Europe/Zurich,
dcbabade-9603-11e6-9066-549f350fcb0c,Friedrichshafen,47.652758,9.473237,FN,,,,,,,Europe/Berlin,
dcc4af28-9603-11e6-9066-549f350fcb0c,Frosinone,41.628628,13.326842,FRO,,,,,,,Europe/Rome,
e5054ac6-764a-43fb-8ce8-682a52bc1077,Fréjus (Péage Ouest),43.456308,6.68948,FJS,,,,,,,Europe/Paris,
65c6fc7f-17e5-4cc3-b597-360d1f629f1e,Frösunda (towards Arlanda),59.372128,18.020111,FDN,,,,,,,Europe/Stockholm,
e28f8aa1-723d-4bb2-947a-0a544d091e53,Frýdek-Místek (bus station),49.67861,18.351241,F1M,,,,,,,Europe/Prague,
853f56d9-e31e-410b-a8b6-76c98aeede5a,Frýdlant (bus station),50.920083,15.081032,FAN,,,,,,,Europe/Prague,
d39ec3fd-a7a9-4868-960c-8f4aa4c9c926,Fulda (FlixTrain),50.554587,9.683728,FFU,,,,,,,Europe/Berlin,
34051f65-919d-4f1f-be1b-bee9058a0eaa,Fundão,40.135908,-7.503646,FUO,,,,,,,Europe/Lisbon,
bd5bef32-14e6-4d2f-a537-3408144f7d71,Fårbo Vägskäl E22,57.382898,16.481636,FAO,,,,,,,Europe/Stockholm,
1ca9fe29-e6ab-4891-847e-9907f2f3add6,Fécamp (Bus Station),49.759243,0.375221,FEC,,,,,,,Europe/Paris,
dcc32afa-9603-11e6-9066-549f350fcb0c,Fürth Main Station,49.470301,10.991233,FUE,,,,,,,Europe/Berlin,
dcc39c62-9603-11e6-9066-549f350fcb0c,Füssen (Kemptener Straße),47.56804,10.675807,FUS,,,,,,,Europe/Berlin,
dcc2a9ac-9603-11e6-9066-549f350fcb0c,Făgăraș (bus station Făgăraș),45.840974,24.971899,QFG,,,,,,,Europe/Bucharest,
b705c8e5-3823-4607-91ab-a4c2888f63e9,Fălticeni (Autogara Ceztrans),47.45959,26.30612,FAL,,,,,,,Europe/Bucharest,
ad3f6984-c136-4e7a-b00a-f7d8295ff7f7,Galați (bus station Metropoli),45.442266,28.059764,GAI,,,,,,,Europe/Bucharest,
4344883e-6281-4143-81c9-4e3e0b121d03,Galdo (Svincolo Lauria Sud),40.020107,15.886157,GAL,,,,,,,Europe/Rome,
1ab6e97c-3133-496c-9622-6c4dd58fbc55,Gallipoli,40.055112,17.996561,GLP,,,,,,,Europe/Rome,
dbca6808-2bc2-439d-a96f-7c3e71bc5e78,Gamleby,57.892044,16.391297,GBF,,,,,,,Europe/Stockholm,
dcc46e4f-9603-11e6-9066-549f350fcb0c,Gardaland,45.452609,10.714955,GLD,,,,,,,Europe/Rome,
dcbbb5ad-9603-11e6-9066-549f350fcb0c,Garmisch-Partenkirchen station (Bahnhofstraße),47.491033,11.09813,GAP,,,,,,,Europe/Berlin,
9b6a684d-3ecb-11ea-8017-02437075395e,"Garwolin, Dworzec Autobusowy",51.895711,21.617534,GWO,,,,,,,Europe/Warsaw,
62afd481-0056-4c19-aaf3-a8ac52d5dc9e,Garčin,45.182506,18.179717,QGC,,,,,,,Europe/Zagreb,
540d384c-569c-4c00-91c0-9e58ac4a3dc8,Gatwick Airport (North Terminal),51.15987,-0.175036,LGWN,,,,,,,Europe/London,
dcbcd754-9603-11e6-9066-549f350fcb0c,"Gdańsk, Dworzec Autobusowy",54.356152,18.642736,GDN,,,,,,,Europe/Warsaw,
0cdde44e-e945-4e63-83fe-13e09a57691e,"Gdynia, dworzec autobusowy",54.521992,18.529541,GDY,,,,,,,Europe/Warsaw,
dcbc13a4-9603-11e6-9066-549f350fcb0c,Gelsenkirchen (ZOB),51.505747,7.100346,GEZ,,,,,,,Europe/Berlin,
dcc0627e-9603-11e6-9066-549f350fcb0c,Geneva (central bus station),46.208522,6.146928,GEN,,,,,,,Europe/Zurich,
dcc02ea8-9603-11e6-9066-549f350fcb0c,Genoa (Fanti d'Italia/Principe bus station),44.41599,8.919045,GNF,,,,,,,Europe/Rome,
dcbbe99b-9603-11e6-9066-549f350fcb0c,Gera central train station,50.883509,12.079057,G,,,,,,,Europe/Berlin,
dcbffdd5-9603-11e6-9066-549f350fcb0c,Ghent Dampoort (Bus parking),51.053533,3.740522,GET,,,,,,,Europe/Brussels,
99162e3c-e2e6-40b4-8e55-6aa4498bbcfc,Gheorgheni (Biserica),46.723326,25.60056,GHR,,,,,,,Europe/Bucharest,
90971d56-975b-46f0-ab59-a3c64ef8dd8d,Giardini Naxos,37.818685,15.265822,TAO,,,,,,,Europe/Rome,
dcbbd625-9603-11e6-9066-549f350fcb0c,Gießen (Mathematikum),50.580739,8.666946,GI,,,,,,,Europe/Berlin,
d7e895ab-9531-4a47-beec-a40ef11cf6ba,Ginjal,40.363706,-7.341026,GIA,,,,,,,Europe/Lisbon,
fc388685-6e62-43d7-88ff-a3e8147c0363,Gioia Tauro,38.415207,15.908281,GIN,,,,,,,Europe/Rome,
dcc3b197-9603-11e6-9066-549f350fcb0c,Girona Airport (GRO),41.896679,2.766083,GIR,,,,,,,Europe/Madrid,
d99ebf3a-78fa-4af2-97ff-ffb38006b7b5,Giulianova - Mosciano Sant'Angelo,42.713356,13.908597,GMA,,,,,,,Europe/Rome,
97408152-5e99-4374-9c1e-9bd3ffab223a,Givors (South Lyon),45.591055,4.771928,GIV,,,,,,,Europe/Paris,
9b6a36b5-3ecb-11ea-8017-02437075395e,"Giżycko, ul. Kolejowa nr 04",54.032024,21.776934,GIZ,,,,,,,Europe/Warsaw,
9b6a7745-3ecb-11ea-8017-02437075395e,Glasgow (Buchanan Bus Station),55.865274,-4.250601,GAS,,,,,,,Europe/London,
b71ce042-3342-4970-a00b-d311ffbb0b7f,Glavina Donja,43.443805,17.196951,WGD,,,,,,,Europe/Zagreb,
55bd2ce7-265f-433e-a9ed-ec1789f5f3ed,"Gliwice, Centrum Przesiadkowe",50.302802,18.676778,GCP,,,,,,,Europe/Warsaw,
cb8de308-2075-405e-9421-ffd764e57fb9,"Gniezno, Parking, ul. Łaskiego",52.538121,17.589126,GPT,,,,,,,Europe/Warsaw,
b2f43bc4-f424-4433-a3e6-856dd5f09e86,Golden Sands,43.275192,28.03791,GDS,,,,,,,Europe/Sofia,
9b6858e8-3ecb-11ea-8017-02437075395e,"Goleniów, Dworzec PKS nr 18",53.560418,14.839246,GOW,,,,,,,Europe/Warsaw,
dcc4f2f2-9603-11e6-9066-549f350fcb0c,Gornja Vrba,45.174886,18.064463,QGV,,,,,,,Europe/Zagreb,
8e1ddb48-c0a0-44bf-aee3-e8da1a11ee22,Gornji Kneginec,46.25437,16.370522,GKN,,,,,,,Europe/Zagreb,
8f6a2557-011a-4092-b411-9f84a8bb2c6a,"Gorzów Wielkopolski, dworzec autobusowy",52.728477,15.227842,GOR,,,,,,,Europe/Warsaw,
dcc4b633-9603-11e6-9066-549f350fcb0c,Gospić,44.548309,15.368141,QGO,,,,,,,Europe/Zagreb,
71d87f69-454f-4400-a096-1b8f847b35b2,Gotha (FlixTrain),50.939073,10.712543,UGO,,,,,,,Europe/Berlin,
dcc300fc-9603-11e6-9066-549f350fcb0c,Gothenburg (Nils Ericson Terminalen),57.710421,11.971896,GOE,,,,,,,Europe/Stockholm,
dcbfdb6f-9603-11e6-9066-549f350fcb0c,Graal-Müritz,54.249142,12.245504,GRA,,,,,,,Europe/Berlin,
0d3d8096-1ecf-4950-87ed-d2df748bf7bd,Gradac,43.104658,17.349058,YGR,,,,,,,Europe/Zagreb,
1174312d-2a84-4904-af7a-dd2a916f977a,Gradište 1 aut. stajalište,45.143206,18.705202,ZS1,,,,,,,Europe/Zagreb,
cdf5aee6-9a78-468c-84c7-8d395c6ac70f,Granada (Bus Station),37.200138,-3.613957,GND,,,,,,,Europe/Madrid,
dcc5bceb-9603-11e6-9066-549f350fcb0c,Gravina in Puglia,40.827255,16.421845,GRP,,,,,,,Europe/Rome,
8b76dea4-11c1-45fe-9a62-e365917ae24d,Graz P&R Webling,47.036483,15.409932,GRW,,,,,,,Europe/Vienna,
78fcd87c-de55-430d-a036-3aece86138ba,Grebaštica aut. stajalište,43.636633,15.965868,QGG,,,,,,,Europe/Zagreb,
dcbbfa60-9603-11e6-9066-549f350fcb0c,Greifswald central bus station,54.093568,13.369863,HGW,,,,,,,Europe/Berlin,
dcc0fda5-9603-11e6-9066-549f350fcb0c,Grenoble (Central Bus Station),45.192828,5.713938,GBL,,,,,,,Europe/Paris,
1cc54676-8da8-42e3-bdad-af593db37b5f,Grimstad (Øygårdsdalen),58.340645,8.570336,GRIM,,,,,,,Europe/Oslo,
4bea9bd8-d3c8-4068-836e-4fbe0a70613a,Grindsted Rutebilstation,55.759491,8.931358,GSD,,,,,,,Europe/Copenhagen,
44117041-0cf6-4976-8e6d-97c9e94ca8e0,"Grodzisk Wielkopolski, ul. Kolejowa",52.229678,16.364045,GGW,,,,,,,Europe/Warsaw,
dcbc6d4a-9603-11e6-9066-549f350fcb0c,Groningen central station,53.211648,6.566523,GRO,,,,,,,Europe/Amsterdam,
eb364201-0390-4d77-92cb-4cb78c0fd9e2,Grottaglie,40.529089,17.440847,GRT,,,,,,,Europe/Rome,
dcc58ac0-9603-11e6-9066-549f350fcb0c,Grottaminarda,41.069023,15.059945,GTM,,,,,,,Europe/Rome,
591d3e86-df8b-4939-8128-7d8e8da86a47,Grottammare,42.990341,13.867964,GMM,,,,,,,Europe/Rome,
4ea7d941-be51-4060-aab7-dcd7a59e7d33,Grubine,43.430041,17.164042,WGR,,,,,,,Europe/Zagreb,
92333f38-3f59-4bd3-80d7-08aed24e877e,"Grudziądz, Dworzec Kolejowy 03",53.48262,18.76171,GDK,,,,,,,Europe/Warsaw,
4df02adc-6183-4334-a256-83200122e45c,Grums,59.352202,13.112779,GUS,,,,,,,Europe/Stockholm,
9b6bb387-3ecb-11ea-8017-02437075395e,Grzybowo ul. Kołobrzeska przy Szkolnej,54.159117,15.491733,GRY,,,,,,,Europe/Warsaw,
aa491be6-5901-4d50-8d64-438110de13f0,Gränna,58.0024,14.451865,GGG,,,,,,,Europe/Stockholm,
62f1480b-66e6-43b5-86ce-f6a9b6caf57c,Guarda (Bus Station),40.534596,-7.26317,GUA,,,,,,,Europe/Lisbon,
ef7edb03-a53a-40c0-9dbd-33037d72d886,Guardia Piemontese (area servizio Q8),39.467883,15.975153,GPM,,,,,,,Europe/Rome,
9b6a63ad-3ecb-11ea-8017-02437075395e,"Gubin, Dworzec Autobusowy",51.950012,14.72602,GBN,,,,,,,Europe/Warsaw,
f55312c1-7fe4-4ae8-a685-05652b8b1a8d,Guimaraes (Bus Station),41.441034,-8.303229,GMR,,,,,,,Europe/Lisbon,
8bfc09f8-2f77-4a23-b537-de247eb90a83,Gundinci 1 aut. stajalište,45.150107,18.49182,QG1,,,,,,,Europe/Zagreb,
1600bbf2-fef6-4982-ae0d-010ea0d2df56,Gura Humorului (Autogara Daily Motors),47.552073,25.88388,GHU,,,,,,,Europe/Bucharest,
dcbcfef4-9603-11e6-9066-549f350fcb0c,Győr bus station,47.681389,17.636528,GYO,,,,,,,Europe/Budapest,
dcbc0545-9603-11e6-9066-549f350fcb0c,Göhren (Rügen),54.345715,13.738117,GOH,,,,,,,Europe/Berlin,
dcc09d56-9603-11e6-9066-549f350fcb0c,Görlitz (bus station),51.148253,14.976764,GR,,,,,,,Europe/Berlin,
dcbae97c-9603-11e6-9066-549f350fcb0c,Göttingen central bus station,51.534945,9.926184,GTT,,,,,,,Europe/Berlin,
94d2176a-4d6a-4845-ba6a-f4b97f008ed8,Gütersloh Central Station (FlixTrain),51.906994,8.384737,EGLO,,,,,,,Europe/Berlin,
9fc53320-0d1d-42c4-9e37-6cf8f779b349,Găești (CEC bank),44.719319,25.324671,GAE,,,,,,,Europe/Bucharest,
09400208-d6a0-4e26-9122-423960e1d00a,Haderslev Busstation,55.252755,9.489645,HAV,,,,,,,Europe/Copenhagen,
9fdfaf67-9a33-4b1a-96b2-163b0df79c57,Haga Norra (towards Arlanda),59.362546,18.02611,HNN,,,,,,,Europe/Stockholm,
14ecd707-256b-4b26-8e89-290998442a2b,Haga Södra,59.353855,18.037221,HSD,,,,,,,Europe/Stockholm,
4f780e00-0cf8-48cc-b9df-4d5322715f75,Hagondange,49.253941,6.167932,HGE,,,,,,,Europe/Paris,
7bc5d786-569b-4f30-9173-a964d0a3bb83,Halblech (center),47.631087,10.820801,HBL,,,,,,,Europe/Berlin,
dcbb27d4-9603-11e6-9066-549f350fcb0c,Halle (Saale) central bus station,51.477534,11.984321,HAL,,,,,,,Europe/Berlin,
dcc39041-9603-11e6-9066-549f350fcb0c,Halmstad (Resecentrum) Flixbus Stop,56.670016,12.865489,HMS,,,,,,,Europe/Stockholm,
dcbada9a-9603-11e6-9066-549f350fcb0c,Hamburg central bus station,53.551767,10.011657,HH,,,,,,,Europe/Berlin,
bfed86f1-7013-4584-b698-93580cd9e222,Hamm (Westf) Central Station (FlixTrain),51.67829,7.808612,EHM,,,,,,,Europe/Berlin,
95f592e5-e4bc-4843-97ed-17a9001b030f,Hanau Central Station (FlixTrain),50.121508,8.929718,FH N,,,,,,,Europe/Berlin,
571ccc44-c964-4d48-bed2-992214dfa35d,Handlová (centrum),48.727982,18.759976,H1C,,,,,,,Europe/Bratislava,
dcbb2109-9603-11e6-9066-549f350fcb0c,Hanover central bus station,52.378922,9.740987,H,,,,,,,Europe/Berlin,
4bdc726e-ba7b-457d-bb07-83ec24dc9455,Harrachov (Sklárna),50.780672,15.419735,H1S,,,,,,,Europe/Prague,
017f7dd6-9b2e-4439-8e8f-b03afad6e999,Harthill Services (Eastbound),55.863826,-3.758275,HHSS,,,,,,,Europe/London,
9b6a414e-3ecb-11ea-8017-02437075395e,Haskovo,41.933052,25.561396,HSK,,,,,,,Europe/Sofia,
dcc531f9-9603-11e6-9066-549f350fcb0c,Hasselt Station,50.931727,5.326435,HAS,,,,,,,Europe/Brussels,
dcbac076-9603-11e6-9066-549f350fcb0c,Heidelberg central train station,49.406053,8.673417,HD,,,,,,,Europe/Berlin,
dcbf6e33-9603-11e6-9066-549f350fcb0c,Heilbronn central train station,49.141512,9.206945,HN,,,,,,,Europe/Berlin,
dcc5fcea-9603-11e6-9066-549f350fcb0c,Heiligenhafen (Wilhelmsplatz),54.371944,10.986181,HEH,,,,,,,Europe/Berlin,
a5b2891c-4efc-45d1-afe5-e6bc5d28922c,"Helleland (Skjerpeveien) Eigersund, Rogaland",58.526768,6.126325,EGER,,,,,,,Europe/Oslo,
dcc39148-9603-11e6-9066-549f350fcb0c,Helsingborg,56.042698,12.695847,HSB,,,,,,,Europe/Stockholm,
9b6b38dd-3ecb-11ea-8017-02437075395e,Helsinki Bus Station (Kamppi),60.169405,24.933535,HKK,,,,,,,Europe/Helsinki,
9b6b1ee3-3ecb-11ea-8017-02437075395e,Hendaye,43.351134,-1.783269,HDY,,,,,,,Europe/Paris,
15414b1c-a955-4ce4-9b45-2df7e10e941e,Herford (FlixTrain),52.119295,8.664089,EHFD,,,,,,,Europe/Berlin,
dcbf94ff-9603-11e6-9066-549f350fcb0c,Heringsdorf station (Usedom),53.949396,14.169608,HGD,,,,,,,Europe/Berlin,
dcbc14a0-9603-11e6-9066-549f350fcb0c,Herne central bus station,51.544482,7.218346,HER,,,,,,,Europe/Berlin,
683b248f-8da1-4d89-9deb-746c7455f448,Herning FlixBus stop,56.131728,8.978066,HNG,,,,,,,Europe/Copenhagen,
dcbaeb7e-9603-11e6-9066-549f350fcb0c,Hildesheim central bus station,52.159141,9.950779,HI,,,,,,,Europe/Berlin,
dcbc9ef1-9603-11e6-9066-549f350fcb0c,Himmelkron (service area),50.05431,11.62295,HIM,,,,,,,Europe/Berlin,
dcbc0833-9603-11e6-9066-549f350fcb0c,Hof central train station,50.308409,11.924688,HO,,,,,,,Europe/Berlin,
037c4c20-63b7-4211-82c4-4be690f2e54c,Holstebro Trafikterminal,56.364364,8.620707,HLS,,,,,,,Europe/Copenhagen,
dcbb844d-9603-11e6-9066-549f350fcb0c,Homburg (Saar) central train station,49.327597,7.33821,HOM,,,,,,,Europe/Berlin,
6485b212-0b5a-4738-898f-88362250972e,Honfleur (Central Bus Station),49.418804,0.238384,HON,,,,,,,Europe/Paris,
39e7e424-36ad-4c23-a6b9-26691d093c8e,Horsens Trafikterminal,55.862028,9.836924,HRS,,,,,,,Europe/Copenhagen,
bb6105f8-0f85-46ba-a31f-3628dc616551,Hradec Králové (Terminal),50.216934,15.812995,HRK,,,,,,,Europe/Prague,
30bc1f5d-c1b2-4acc-a0f7-1fe1dba5fd03,Hreljin,45.285799,14.591865,YHR,,,,,,,Europe/Zagreb,
9b6a6366-3ecb-11ea-8017-02437075395e,"Hrubieszów, Piłsudskiego, Stokrotka",50.803584,23.899246,HRU,,,,,,,Europe/Warsaw,
f701e77d-923e-4069-8aa8-b82b99a85846,Huedin,46.863765,23.029964,HDN,,,,,,,Europe/Bucharest,
8cf137d5-fc8c-4bfc-9c23-6a22d0d7069f,Huelva (Bus Station),37.257426,-6.956984,HUA,,,,,,,Europe/Madrid,
b3be5a45-1d87-4146-b776-caff0a080d15,"Humniska, Środek",49.6803,22.044862,HMN,,,,,,,Europe/Warsaw,
67e9fac4-7ccf-4f67-a5d1-5f633dd84a12,Hunedoara,45.758038,22.909119,HUN,,,,,,,Europe/Bucharest,
dcc14409-9603-11e6-9066-549f350fcb0c,Hyères,43.116885,6.1339,HYE,,,,,,,Europe/Paris,
04ea607e-4d6f-4ad4-a8ac-849623b776fb,Håneskrysset E18,58.165641,8.090559,HONE,,,,,,,Europe/Oslo,
4626d5e3-8ee0-42d9-9739-082fa58f6b90,Iași (Vest bus station),47.173745,27.554224,IASI,,,,,,,Europe/Bucharest,
5116975b-42bc-4dee-84b7-ebe5b725ff3a,Iernut (statie bus),46.450732,24.235291,IER,,,,,,,Europe/Bucharest,
4c777cf7-b611-4839-8556-e2b88790373f,Igea Marina (bus stop 40),44.133729,12.483143,IMO,,,,,,,Europe/Rome,
fedb5723-1a8c-4d09-9341-4e49f30106fc,Igrane,43.199,17.1391,YIG,,,,,,,Europe/Zagreb,
dcc054d6-9603-11e6-9066-549f350fcb0c,Ilmenau (bus station),50.686033,10.922204,ILM,,,,,,,Europe/Berlin,
9b3a5b38-8aa4-47a9-ac44-b045508712e4,"Ilowa (Iłowa), Orlen restauracja Rivista",51.52385,15.215358,ILA,,,,,,,Europe/Warsaw,
dcc41f5e-9603-11e6-9066-549f350fcb0c,Imotski Autobusni kolodvor,43.445886,17.221169,QIM,,,,,,,Europe/Zagreb,
e92873f1-a105-4b73-b0fa-cb34a042c441,Imperia,43.890415,8.039467,IMP,,,,,,,Europe/Rome,
9b6ba629-3ecb-11ea-8017-02437075395e,Industrial Park Hohenlohe / Kochertalbahn,49.205785,9.682048,KUE,,,,,,,Europe/Berlin,
dcbc91b1-9603-11e6-9066-549f350fcb0c,Ingolstadt (Nordbahnhof),48.772328,11.432825,IN,,,,,,,Europe/Berlin,
dcbcb402-9603-11e6-9066-549f350fcb0c,Innsbruck Südbahnstraße,47.258351,11.39982,INN,,,,,,,Europe/Vienna,
1f2b61e4-9e6c-4a01-8f3b-c99833f1944c,"Inowrocław, Laubitza",52.799743,18.262939,INW,,,,,,,Europe/Warsaw,
9b6c1ded-3ecb-11ea-8017-02437075395e,Interlaken Station East,46.690472,7.870361,I-E,,,,,,,Europe/Zurich,
7695f95d-cc3c-4a16-af45-d382859f4f6f,International Interconnection Hub,42.077505,-4.210196,SRX,,,,,,,Europe/Madrid,
7c34dfd8-1c2e-4caa-829f-ebae7b815ca1,Inverness (Bus Station),57.480797,-4.224986,INVE,,,,,,,Europe/London,
a01bfa7f-9e7e-4af8-b615-6ea8e4270928,Irun (Bus Station),43.339476,-1.80124,IRU,,,,,,,Europe/Madrid,
efd38601-e969-4fe6-9d30-52c5b02fbba4,Isernia,41.597532,14.235631,ISR,,,,,,,Europe/Rome,
dcbc5f82-9603-11e6-9066-549f350fcb0c,Isselburg Autohof,51.819003,6.44582,ISS,,,,,,,Europe/Berlin,
9674a98e-6915-4e77-b0de-d4790a0f454d,Ivanić Grad AS,45.707331,16.39651,ZGA,,,,,,,Europe/Zagreb,
9b6a644b-3ecb-11ea-8017-02437075395e,Ivano-Frankivsk (Bus Station No.2),48.94395,24.690572,IVF,,,,,,,Europe/Kyiv,
9b6a8396-3ecb-11ea-8017-02437075395e,Izmir bus station,38.43075,27.213881,IZ1,,,,,,,Europe/Istanbul,
286f40e4-550a-409b-8ca6-eeeda2ecea4c,Jablonec nad Nisou (bus station),50.722748,15.174021,J1S,,,,,,,Europe/Prague,
bc3d6764-f7ac-4f54-a9c3-9df70d928e51,Jadranovo,45.232828,14.626495,YJA,,,,,,,Europe/Zagreb,
9b6a4031-3ecb-11ea-8017-02437075395e,Jaen,37.771241,-3.787139,JEN,,,,,,,Europe/Madrid,
d88f2739-f1ab-4894-b175-8df592e015c8,Jantar nr 22 i 53,54.331817,19.025904,JNT,,,,,,,Europe/Warsaw,
9b6a6126-3ecb-11ea-8017-02437075395e,"Janów Lubelski, Dworzec Autobusowy",50.706579,22.410094,XJL,,,,,,,Europe/Warsaw,
1dcf6c68-1278-45c2-8f58-82fdfc989578,"Jarosław, Dworzec Autobusowy",50.011359,22.676247,JDA,,,,,,,Europe/Warsaw,
9b6b209d-3ecb-11ea-8017-02437075395e,"Jastrowie, ul. Mickiewicza 36",53.418564,16.817292,JAS,,,,,,,Europe/Warsaw,
e2dbd74b-5c60-46d1-b446-13675dc60823,"Jastrzębia Góra, Pucka 08",54.830858,18.300646,JGD,,,,,,,Europe/Warsaw,
1df51b9a-686e-471b-9585-7cec351d2bc7,"Jastrzębie-Zdrój, Dworzec Główny ul. Sybiraków",49.955408,18.602411,JDG,,,,,,,Europe/Warsaw,
981b7311-702a-4c55-a66d-552892259287,"Jasło, Metzgera 22 i 81A",49.737626,21.469911,JSM,,,,,,,Europe/Warsaw,
f15213ee-2fce-47bc-bdeb-5288297267c5,"Jelenia Góra, 1-go Maja ""Dworzec Kolejowy"" 03",50.902462,15.75443,JEG,,,,,,,Europe/Warsaw,
9b6b085a-3ecb-11ea-8017-02437075395e,"Jelgava, Railway Station",56.640913,23.731936,JEA,,,,,,,Europe/Riga,
0afb53d0-cb5b-47f7-9869-9d107438a329,Jelšava (námestie),48.630222,20.235172,J1N,,,,,,,Europe/Bratislava,
dcbb590e-9603-11e6-9066-549f350fcb0c,Jena bus station (Paradies station),50.925717,11.587604,J,,,,,,,Europe/Berlin,
17d4064b-4d7c-4d4f-af6a-e7fddebd68b3,Jenbach station,47.387696,11.7781,JEB,,,,,,,Europe/Vienna,
495e7c26-0f7b-45de-a147-6e7eccad76f4,Jerez de la Frontera,36.679449,-6.126666,JER,,,,,,,Europe/Madrid,
a7e242f5-c024-499d-9d24-5837ea2f0d39,Jezera (Murter),43.789892,15.632318,JZR,,,,,,,Europe/Zagreb,
dcc272ee-9603-11e6-9066-549f350fcb0c,Jihlava (bus station),49.399515,15.581137,JIH,,,,,,,Europe/Prague,
f9b862d0-5f70-4e5d-9488-b41657232c3b,Jindřichův Hradec (bus station),49.154076,15.004813,JHR,,,,,,,Europe/Prague,
cdb3b67f-b5b8-45e4-a50f-d4445630ac58,Jirkov (bus station),50.498425,13.450141,J1V,,,,,,,Europe/Prague,
c40670ba-7a59-4507-851a-e27f5342644d,Jičín (bus station),50.434106,15.355318,JIC,,,,,,,Europe/Prague,
2f290738-4483-4356-b4a0-37db4911cc08,Järva Krog (towards Arlanda),59.378064,18.013536,JKN,,,,,,,Europe/Stockholm,
9b6b18d0-3ecb-11ea-8017-02437075395e,"Jõhvi, Bus Station",59.35787,27.417956,JOH,,,,,,,Europe/Tallinn,
dcc3929a-9603-11e6-9066-549f350fcb0c,Jönköping (ReseCentrum) Flixbus Stop,57.784265,14.164449,JON,,,,,,,Europe/Stockholm,
dcbb4a14-9603-11e6-9066-549f350fcb0c,Kaiserslautern central train station,49.436595,7.767545,KL,,,,,,,Europe/Berlin,
9b6b1899-3ecb-11ea-8017-02437075395e,"Kalisz Pomorski, Toruńska nr 7",53.300167,15.911467,KPM,,,,,,,Europe/Warsaw,
9b6a75ab-3ecb-11ea-8017-02437075395e,"Kalisz, Dworzec Autobusowy",51.743151,18.068372,KIZ,,,,,,,Europe/Warsaw,
126b2eb8-1fda-4ac3-960c-e93197279121,Kalmar Station,56.66159,16.359355,KLM,,,,,,,Europe/Stockholm,
9b6bd7e9-3ecb-11ea-8017-02437075395e,Kalush,49.012482,24.352525,KSH,,,,,,,Europe/Kyiv,
ee92bdc6-5d19-41a5-a668-553b23c5e97a,Kamenjak,43.464724,17.04972,WKN,,,,,,,Europe/Zagreb,
00308c11-2e6c-44e5-916f-f6286ebbb339,Kamenmost,43.429554,17.172177,WKM,,,,,,,Europe/Zagreb,
9b6acd19-3ecb-11ea-8017-02437075395e,"Kamienna Góra, Dworzec Autobusowy",50.784618,16.022722,KNG,,,,,,,Europe/Warsaw,
9b6a7307-3ecb-11ea-8017-02437075395e,Kamień Pomorski Dworzec Autobusowy,53.96595,14.772412,KKP,,,,,,,Europe/Warsaw,
9b6a416a-3ecb-11ea-8017-02437075395e,Kardzali,41.633533,25.377623,KRDZ,,,,,,,Europe/Sofia,
dcc29305-9603-11e6-9066-549f350fcb0c,Karlovac (Bus Station),45.488384,15.550233,QKL,,,,,,,Europe/Zagreb,
dcc224e0-9603-11e6-9066-549f350fcb0c,Karlovy Vary (Terminal),50.229908,12.863974,KB,,,,,,,Europe/Prague,
3a60555c-ef49-4287-bef1-e9d69314d8db,Karlskoga (bus station),59.326894,14.511848,KAA,,,,,,,Europe/Stockholm,
9b6837d7-3ecb-11ea-8017-02437075395e,Karlskrona,56.165521,15.586784,KARL,,,,,,,Europe/Stockholm,
dcbacb9f-9603-11e6-9066-549f350fcb0c,Karlsruhe central train station,48.991468,8.400453,KA,,,,,,,Europe/Berlin,
dd5e6677-34c6-4be2-86c6-3fbdfb6ec5e7,Karlstad (bus station),59.379174,13.492887,KAR,,,,,,,Europe/Stockholm,
eff16fde-bdbe-4d97-8d4c-17624e686cfa,"Karpacz, Bachus",50.775121,15.757708,KPZ,,,,,,,Europe/Warsaw,
834f61c1-edc1-4b39-8ea8-991652302845,"Karwia, Wojska Polskiego 22 i 13",54.83052,18.212253,KRW,,,,,,,Europe/Warsaw,
dcbb8a76-9603-11e6-9066-549f350fcb0c,Kassel (Wilhelmshöhe train station),51.31227,9.44807,KS,,,,,,,Europe/Berlin,
dcbd04b6-9603-11e6-9066-549f350fcb0c,Katowice Sądowa Dworzec,50.259179,19.010395,KTW,,,,,,,Europe/Warsaw,
9b6b03bb-3ecb-11ea-8017-02437075395e,Kaunas bus station,54.889395,23.928025,KAU,,,,,,,Europe/Vilnius,
9b6a68bb-3ecb-11ea-8017-02437075395e,"Kazimierz Dolny, Dworzec Autobusowy",51.323569,21.9482,KZD,,,,,,,Europe/Warsaw,
c095f0d7-bcc6-43dc-a9d8-696fa466e804,Kaštel Sucurac,43.550806,16.431554,QKS,,,,,,,Europe/Zagreb,
dcbac756-9603-11e6-9066-549f350fcb0c,Kehl train station,48.576428,7.807702,KHL,,,,,,,Europe/Berlin,
dcbb6501-9603-11e6-9066-549f350fcb0c,Kempten (Allgäu),47.719819,10.317048,KE,,,,,,,Europe/Berlin,
47ae38fc-bd1a-4ff6-9823-8ef279d9635a,Khmelnytskyi (BS-1),49.43229,27.025532,KHM,,,,,,,Europe/Kyiv,
9563e4ca-0972-4805-a7b0-62d52b86793c,"Kielce, dworzec autobusowy",50.875679,20.621443,KCE,,,,,,,Europe/Warsaw,
dcbd0906-9603-11e6-9066-549f350fcb0c,Klagenfurt central train station (bus station),46.616335,14.311549,KLA,,,,,,,Europe/Vienna,
dcbcae2d-9603-11e6-9066-549f350fcb0c,Klausen (Chiusa) station,46.641651,11.572782,BZK,,,,,,,Europe/Rome,
dcc4f762-9603-11e6-9066-549f350fcb0c,Klek,42.946044,17.564909,QKE,,,,,,,Europe/Zagreb,
a348d416-9480-451f-8812-4cb330339966,Kljenovac,43.457079,17.066529,WKL,,,,,,,Europe/Zagreb,
c86781ff-622d-49b5-96d2-e893ac751e06,"Kluszkowce, Kluszkowce 32 i Kluszkowce Borek 57",49.450932,20.295312,KLU,,,,,,,Europe/Warsaw,
9b6aa1bf-3ecb-11ea-8017-02437075395e,Klášterec nad Ohří (bus station),50.387178,13.192641,KNOA,,,,,,,Europe/Prague,
870f904b-23e1-4cf8-9780-b9a44d23c092,Kneževo autobusno stajalište,45.838687,18.646192,ZKE,,,,,,,Europe/Zagreb,
dcc422e4-9603-11e6-9066-549f350fcb0c,Knin bus station,44.03548,16.198036,QKN,,,,,,,Europe/Zagreb,
a40c8ad3-679b-49de-9e7e-432bd9b3368a,Knöstad (E18 Bytespunkten),59.24854,12.833021,KNO,,,,,,,Europe/Stockholm,
dcc18970-9603-11e6-9066-549f350fcb0c,Kolding bus station,55.492308,9.483467,KOL,,,,,,,Europe/Copenhagen,
9b6a6468-3ecb-11ea-8017-02437075395e,Kolomyia (Bus Station),48.524925,25.026592,KMA,,,,,,,Europe/Kyiv,
b3c18829-90ca-45ac-9cf1-31b92b8f85d8,"Konin, Dworzec PKP 350 - 02",52.231226,18.24945,KNN,,,,,,,Europe/Warsaw,
e36bb1b8-7f52-446f-a432-8731e6e5f0cd,Koper Banka,45.543984,13.730632,KPB,,,,,,,Europe/Ljubljana,
dcc516ae-9603-11e6-9066-549f350fcb0c,Koprivnica bus station,46.164827,16.817504,QKV,,,,,,,Europe/Zagreb,
dcc42598-9603-11e6-9066-549f350fcb0c,Korenica,44.743868,15.706596,QKR,,,,,,,Europe/Zagreb,
dcc2e318-9603-11e6-9066-549f350fcb0c,Kornwestheim,48.862463,9.179332,KWH,,,,,,,Europe/Berlin,
9b6a63fd-3ecb-11ea-8017-02437075395e,Korosten (Bus Station),50.952204,28.637166,KRSN,,,,,,,Europe/Kyiv,
1f5788d0-6d79-4569-a4ee-e1ffccd7696c,Korswandt,53.918875,14.164759,KWD,,,,,,,Europe/Berlin,
53ca45bb-c724-482b-937c-c8291fb68a41,Kortrijk (Kinepolis XPO),50.805027,3.276925,KRT,,,,,,,Europe/Brussels,
4cc53fcd-dee1-4e85-81fb-1aa3a2abb6cc,Koserow,54.050042,13.999013,KOW,,,,,,,Europe/Berlin,
9b6ada8a-3ecb-11ea-8017-02437075395e,"Kostrzyn nad Odrą, ul. Dworcowa 22 i 17",52.590261,14.647152,KOZ,,,,,,,Europe/Warsaw,
b581af3b-6e1f-40cd-95af-15eda4de6c0f,"Koszalin,  Dworzec Autobusowy",54.189635,16.170632,KIN,,,,,,,Europe/Warsaw,
9b6a3d1d-3ecb-11ea-8017-02437075395e,Kovel (Bus Station),51.219793,24.711049,KEL,,,,,,,Europe/Kyiv,
fce5c9e1-a4ab-41d1-908b-c3a78e6d39dc,Kozarac autobusno stajalište,45.720363,18.675075,ZKO,,,,,,,Europe/Zagreb,
4c66fdfb-9764-4bec-83a4-ae010d0fbd45,Kočeta,43.523027,16.053355,QKOC,,,,,,,Europe/Zagreb,
6e15fdad-072e-4518-984c-06896c09c3b5,"Kołobrzeg, punkt odpraw, ul. Kolejowa",54.18147,15.571972,KDA,,,,,,,Europe/Warsaw,
2f49ebbe-31ab-4e11-a910-bca8886a3666,Košice (bus station),48.721522,21.267569,KOS,,,,,,,Europe/Bratislava,
2e945a72-272e-4865-a147-13b15a2b0ac3,Kožino autobusna stanica,44.171218,15.194234,WKZ,,,,,,,Europe/Zagreb,
0411bb51-01d1-4d5b-88f4-49908e102843,Kraków Dworzec Autobusowy Czyżyny,50.075099,20.015349,KWC,,,,,,,Europe/Warsaw,
dcbd0e26-9603-11e6-9066-549f350fcb0c,"Kraków, Dworzec Autobusowy MDA",50.067614,19.94951,KRK,,,,,,,Europe/Warsaw,
9b6a6348-3ecb-11ea-8017-02437075395e,"Krasnystaw, Dworzec Autobusowy",50.986239,23.171599,K5T,,,,,,,Europe/Warsaw,
b3565b98-3c48-4ff6-9927-e75788a0ab07,"Kraśnik, Przystanek Kraśnik",50.922439,22.227272,KRN,,,,,,,Europe/Warsaw,
dcbc0ba5-9603-11e6-9066-549f350fcb0c,Krefeld central bus station,51.32466,6.569686,KR,,,,,,,Europe/Berlin,
9b684730-3ecb-11ea-8017-02437075395e,Kristiansand rutebilstasjon,58.144956,7.989392,KRIS,,,,,,,Europe/Oslo,
eb6950c9-97bd-4486-bdf2-ca7401b0c911,Kristinehamn (ReseCentrum),59.316499,14.108322,KRI,,,,,,,Europe/Stockholm,
e3cb0d7e-5cd8-4691-827e-1f1a5d9107ee,Krivodol,43.435421,17.122144,QKD,,,,,,,Europe/Zagreb,
efcb0ce0-ce4e-4d07-9cdf-00bbc9d61181,Križišće,45.260713,14.611116,YKR,,,,,,,Europe/Zagreb,
5789ee4a-09da-4724-b03c-af55caa3a6a6,Krk (Ulica Slavka Nikolića),45.028656,14.567096,KRR,,,,,,,Europe/Zagreb,
0dca7499-d85a-41f6-ab4b-7377f25f795f,Kroměříž (Milíčovo náměstí),49.296589,17.390574,K1Z,,,,,,,Europe/Prague,
9b6892ab-3ecb-11ea-8017-02437075395e,Krosno Odrzańskie,52.055704,15.094493,KR2,,,,,,,Europe/Warsaw,
846cd7b1-83e6-47be-a80c-584d2de59e50,"Krosno, Dworzec Autobusowy",49.695184,21.74746,KRO,,,,,,,Europe/Warsaw,
c00cff55-4070-47e5-be9f-2168ad8ff6a8,Krościenko nad Dunajcem - Rynek,49.440581,20.428762,KRD,,,,,,,Europe/Warsaw,
f60cf7d7-b5ce-46b0-97a3-9c69a9a42c8d,Krvavica,43.32774,16.985227,QKI,,,,,,,Europe/Zagreb,
1d9c09a0-cab2-44d6-a40f-05fc8bfc417f,Krynica Morska Dworzec Autobusowy,54.38081,19.445887,KRM,,,,,,,Europe/Warsaw,
4f82691a-9ff2-44b4-af23-ea79b7bc82ef,"Krynica-Zdrój, Hawana 01 i 76",49.424371,20.957098,KRY,,,,,,,Europe/Warsaw,
e9311b56-ffa0-4c50-a2e0-7ecb61caee47,"Kudowa Zdrój, ul. Główna 11, Dworzec PKP",50.4307,16.244467,KUD,,,,,,,Europe/Warsaw,
9b6840e8-3ecb-11ea-8017-02437075395e,Kungälv resecentrum E6,57.871296,11.967452,Kgv,,,,,,,Europe/Stockholm,
dcc41e60-9603-11e6-9066-549f350fcb0c,Kutina bus station,45.479599,16.772601,QKU,,,,,,,Europe/Zagreb,
8e198f4f-9910-462d-a8ca-21fb57f844cd,Kuševac autobusno stajalište,45.348715,18.422665,WKU,,,,,,,Europe/Zagreb,
25ceb178-cbc9-4248-9c8f-066fff4b7891,Kyiv (Kyiv Bus Station),50.442721,30.493251,KYI,,,,,,,Europe/Kyiv,
528ed2a4-d710-446f-a700-eb2595704112,Kölpinsee station,54.035125,14.0226,KNS,,,,,,,Europe/Berlin,
dcbfb791-9603-11e6-9066-549f350fcb0c,Kühlungsborn Ost train station,54.147957,11.75903,KBO,,,,,,,Europe/Berlin,
6de8a3e3-a347-4bce-a0bd-f766f7be1aea,"Kąty Rybackie, Janosikówka",54.33578,19.213852,KJA,,,,,,,Europe/Warsaw,
2ccf33c5-ecb0-47d1-a1b5-b4e743e837c1,"Kłodzko, Kościuszki (Targowisko) 15 i 16",50.437457,16.648529,KLO,,,,,,,Europe/Warsaw,
dcc3f73e-9603-11e6-9066-549f350fcb0c,L'Aquila,42.360361,13.377405,LAQ,,,,,,,Europe/Rome,
d7734cdc-8424-4f92-ac97-7a1d03830e99,La Baule,47.288565,-2.391516,LBL,,,,,,,Europe/Paris,
caf0da1d-ec0c-4f0c-96c5-ae2876203ded,La Jonquera,42.405744,2.871518,LAJO,,,,,,,Europe/Madrid,
dcc0a8be-9603-11e6-9066-549f350fcb0c,La Rochelle (Pôle d'échanges Jean Moulin),46.152918,-1.14093,LAR,,,,,,,Europe/Paris,
dcc2f7c0-9603-11e6-9066-549f350fcb0c,La Spezia (Via Carducci),44.113766,9.847507,SP,,,,,,,Europe/Rome,
3251585b-e2d7-42ff-867d-9a524344e454,Lagonegro (Dilinergie),40.133557,15.763602,LNR,,,,,,,Europe/Rome,
ebc6e937-2043-4b61-a051-1c035b615c19,Lagos,37.107361,-8.676404,RLG,,,,,,,Europe/Lisbon,
36911654-4476-4f03-bd73-19fad871cd4f,Laigueglia,43.981755,8.158948,LGL,,,,,,,Europe/Rome,
678850d5-fe1a-47f3-ba37-5c3d8f5c8a1a,Lamezia Terme,38.92096,16.255419,LMZ,,,,,,,Europe/Rome,
dcbcac4d-9603-11e6-9066-549f350fcb0c,Lana (Lido),46.608785,11.175297,BZL,,,,,,,Europe/Rome,
f4a78e0d-1468-40ce-ae0d-8c07b48c3362,Lancaster (University),54.01025,-2.78538,LANC,,,,,,,Europe/London,
a66e8745-929c-4ef4-93b0-e501a9607c88,Lanciano,42.26599,14.43387,LCO,,,,,,,Europe/Rome,
dcbb87b3-9603-11e6-9066-549f350fcb0c,Landau (Pfalz) central train station,49.196735,8.125738,LD,,,,,,,Europe/Berlin,
1d28ee97-ad7e-4b32-b4cc-919179aa8c8e,Langon (Péage Ouest),44.544518,-0.262519,LGO,,,,,,,Europe/Paris,
1eea41e7-0473-453b-b962-5e27acfe6cbb,Langres (North Tollgate),47.936025,5.287282,LNN,,,,,,,Europe/Paris,
d17fdbbd-6d03-42c3-8c0e-e966929d7439,Lapalisse (RN7 aire des vérités),46.246352,3.611507,LAP,,,,,,,Europe/Paris,
ab3103f5-9153-4b07-855c-15162b3d9484,Larvik (Farriseidet),59.055305,10.008371,LVK,,,,,,,Europe/Oslo,
dcc05da5-9603-11e6-9066-549f350fcb0c,Lausanne (P+R Vélodrome),46.536324,6.623189,LAU,,,,,,,Europe/Zurich,
4e0822b3-77a8-46b5-8674-63c6e4d810bc,Laval (Bus Station),48.076139,-0.759644,LAL,,,,,,,Europe/Paris,
dcc5be1b-9603-11e6-9066-549f350fcb0c,Lavello,41.051769,15.793953,LVL,,,,,,,Europe/Rome,
5faeba35-2aab-4e17-a394-98f3f69528d3,Lazise,45.506675,10.73488,LZS,,,,,,,Europe/Rome,
dcc14569-9603-11e6-9066-549f350fcb0c,Le Havre (central bus station),49.492236,0.126149,LEH,,,,,,,Europe/Paris,
095188d7-3889-4f6f-a1b3-9e483c2fa18c,Le Lavandou,43.138194,6.364211,LOU,,,,,,,Europe/Paris,
dcc14685-9603-11e6-9066-549f350fcb0c,Le Mans,48.017473,0.149493,LEM,,,,,,,Europe/Paris,
dcc33cde-9603-11e6-9066-549f350fcb0c,Le Mont Saint-Michel,48.612077,-1.50914,LMS,,,,,,,Europe/Paris,
dcc1a2f6-9603-11e6-9066-549f350fcb0c,Lecce,40.363064,18.168364,LCC,,,,,,,Europe/Rome,
646a9915-5646-4504-9b47-6df213aa7654,Lecco,45.855744,9.396452,LCT,,,,,,,Europe/Rome,
9b698006-3ecb-11ea-8017-02437075395e,Leeds (Kirkgate),53.795576,-1.537214,LEE,,,,,,,Europe/London,
dcbbefbb-9603-11e6-9066-549f350fcb0c,Leer ZOB,53.230905,7.464173,LER,,,,,,,Europe/Berlin,
131ebf3e-8499-47f4-98b5-269d7e36e415,"Legnica, Dworzec Autobusowy",51.212909,16.166565,LGC,,,,,,,Europe/Warsaw,
8de58594-a599-42ea-a170-b01e3c4f85ff,Legoland (Billund),55.735001,9.132273,LEL,,,,,,,Europe/Copenhagen,
9b69e4e3-3ecb-11ea-8017-02437075395e,Leicester (Fosse Park),52.598953,-1.177798,LET,,,,,,,Europe/London,
dcbad0e0-9603-11e6-9066-549f350fcb0c,Leipzig central train station,51.345057,12.384724,L,,,,,,,Europe/Berlin,
ea2165b8-9656-44bb-beb9-e75e8dc79ec9,Leiria (Bus Station),39.745175,-8.805293,LEI,,,,,,,Europe/Lisbon,
2fbe82c3-5340-46a7-abef-2618ef074086,Lekenik,45.584971,16.21036,LKK,,,,,,,Europe/Zagreb,
3286f04e-089a-4b4c-8a44-e4beda540b9b,Leon (Bus Station),42.593408,-5.579101,LEX,,,,,,,Europe/Madrid,
5494958f-17cf-4cbf-aca1-71feabeb3c5a,Les Ulis,48.683284,2.188614,ULS,,,,,,,Europe/Paris,
73192ec5-b578-43e4-8133-e3e2f7a2c0a4,Lesina,41.860553,15.355066,LIA,,,,,,,Europe/Rome,
d65f2dd3-ff1a-4b65-aecf-7023dfd04a50,"Lesko, Dworzec Autobusowy",49.475988,22.32522,LSK,,,,,,,Europe/Warsaw,
15ece947-4901-4c5d-b701-d7460306e387,"Leszno, Dworzec Autobusowy",51.844227,16.566782,LEO,,,,,,,Europe/Warsaw,
dcbc9b53-9603-11e6-9066-549f350fcb0c,Leutkirch station,47.826803,10.017229,LEU,,,,,,,Europe/Berlin,
dcc0a9fe-9603-11e6-9066-549f350fcb0c,Leuven Station (Perron 15),50.884089,4.714237,LVN,,,,,,,Europe/Brussels,
dcbac956-9603-11e6-9066-549f350fcb0c,Leverkusen (Mitte station),51.032368,6.991052,K,,,,,,,Europe/Berlin,
3f6f3c5a-bff8-404e-a9a3-1e25ca32263c,Levoča (bus station),49.018881,20.586786,L2V,,,,,,,Europe/Bratislava,
dcc45202-9603-11e6-9066-549f350fcb0c,Liberec (bus station),50.763871,15.046145,LBC,,,,,,,Europe/Prague,
b21e9b82-eb37-48a4-ab37-65d3f0350da9,Lido di Jesolo,45.508669,12.640006,LDJ,,,,,,,Europe/Rome,
dcbf8aeb-9603-11e6-9066-549f350fcb0c,Lille,50.639197,3.076202,LIL,,,,,,,Europe/Paris,
dcc0636f-9603-11e6-9066-549f350fcb0c,Limburg a. d. Lahn (ICE Station),50.381778,8.09525,LIM,,,,,,,Europe/Berlin,
dcc148a5-9603-11e6-9066-549f350fcb0c,Limoges (central bus station),45.835897,1.268347,LES,,,,,,,Europe/Paris,
0ca088ef-7d9d-44b6-baa0-cf9ea1b6bf73,Lindau (Blaukreuzstrasse),47.552715,9.708916,LBQ,,,,,,,Europe/Berlin,
dcc39396-9603-11e6-9066-549f350fcb0c,Linköping (Fjärrbussterminal) Flixbus Stop,58.418175,15.621091,LKO,,,,,,,Europe/Stockholm,
dcc5abc6-9603-11e6-9066-549f350fcb0c,Linz Industriezeile,48.299634,14.322007,LII,,,,,,,Europe/Vienna,
dcbd1d67-9603-11e6-9066-549f350fcb0c,Linz central train station (Wissensturm),48.290632,14.288931,LIW,,,,,,,Europe/Vienna,
7485d109-0894-4e7a-bca8-30533346741a,"Lipno, Dworzec Autobusowy",52.847743,19.1795,LPN,,,,,,,Europe/Warsaw,
46d0cce3-232b-4ff0-82ba-31904ed08c8e,Liptovský Mikuláš (bus station),49.09082,19.607525,LMI,,,,,,,Europe/Bratislava,
9a30aab4-4caa-4ee6-9e33-739752be7cd0,Lisbon (Oriente),38.76793,-9.100857,LBO,,,,,,,Europe/Lisbon,
5d6c907a-5699-46e6-a0c0-8cb0fe626e2f,Litomyšl (bus station),49.866535,16.311329,LT0,,,,,,,Europe/Prague,
84f3d1ce-374f-49bd-9d51-3d3a1a198e84,Liverpool (One Bus Station),53.40188,-2.987914,LVP,,,,,,,Europe/London,
d173639f-74e7-43ff-b75f-48dc4f77c461,Livingston (Deer Park),55.914896,-3.526478,LVDP,,,,,,,Europe/London,
dcc1a081-9603-11e6-9066-549f350fcb0c,Livorno (Piazza Dante),43.553777,10.335535,LV,,,,,,,Europe/Rome,
dcbd25cc-9603-11e6-9066-549f350fcb0c,Liège Guillemins,50.62405,5.568636,LUT,,,,,,,Europe/Brussels,
d532a3e7-3cc6-4e57-a601-a6fd88900bd4,Ljuba,43.490159,17.099923,WLJ,,,,,,,Europe/Zagreb,
dcbd21fc-9603-11e6-9066-549f350fcb0c,Ljubljana bus station,46.057722,14.510167,LBJ,,,,,,,Europe/Ljubljana,
dcc43bc7-9603-11e6-9066-549f350fcb0c,Ljubuški bus station,43.198271,17.549289,QLU,,,,,,,Europe/Sarajevo,
abb6ef5a-94c7-49f3-a945-f09534527e46,Ljungby (Busstation) Flixbus Stop,56.831941,13.937341,LJU,,,,,,,Europe/Stockholm,
dcc3ad95-9603-11e6-9066-549f350fcb0c,Lloret de Mar (Bus Station),41.701087,2.84235,LLO,,,,,,,Europe/Madrid,
a17109ed-05e2-4362-aead-95eeb01569d7,Loano (dir. Ovest),44.133019,8.26172,LNO,,,,,,,Europe/Rome,
b387079a-6fdd-4b23-8328-85709fec3e70,Locorotondo,40.755648,17.318169,LCN,,,,,,,Europe/Rome,
ac6eb6fd-bac5-406f-8af4-1eeb5d08c3d8,London Finchley Road (Stop CL),51.547914,-0.180742,LFR,,,,,,,Europe/London,
9b6be210-3ecb-11ea-8017-02437075395e,London Hammersmith Bridge Road,51.492232,-0.225715,LHA,,,,,,,Europe/London,
9b6a34b8-3ecb-11ea-8017-02437075395e,"London Heathrow Airport (Central Bus Station, T2 and T3)",51.471267,-0.453333,LHR,,,,,,,Europe/London,
8ba1bb5b-593c-4005-9f85-e8f2aefb0f48,London Marble Arch,51.511998,-0.157442,LMB,,,,,,,Europe/London,
9b6a8a0d-3ecb-11ea-8017-02437075395e,London Stratford- Montifichet Road Stop U,51.543563,-0.003804,LSTR,,,,,,,Europe/London,
dcc0f769-9603-11e6-9066-549f350fcb0c,London Victoria Coach Station,51.492186,-0.149079,LVC,,,,,,,Europe/London,
dcc55ba7-9603-11e6-9066-549f350fcb0c,Longarone,46.267257,12.3016,LGRE,,,,,,,Europe/Rome,
64e78ca8-5549-41cd-8aaf-97d9e8ec00aa,Loreto,43.448053,13.620278,LRE,,,,,,,Europe/Rome,
dcc149bb-9603-11e6-9066-549f350fcb0c,Lorient (central bus station),47.755365,-3.364491,LOR,,,,,,,Europe/Paris,
e0ba2cdf-7df4-435a-af0b-8bad82d84dce,Louny (bus station),50.354808,13.804554,L1Y,,,,,,,Europe/Prague,
6ac9ffce-6723-42ef-be90-8bbed96b90e2,Lourdes (Bus Station SNCF),43.100244,-0.041102,LRD,,,,,,,Europe/Paris,
6448076c-0549-4d46-af38-f13d791575cc,Lourosa,40.973352,-8.53669,LUA,,,,,,,Europe/Lisbon,
7edbbda3-bc82-4e60-9be0-cddbd9ee5130,Lovinac,44.390119,15.682438,LVNC,,,,,,,Europe/Zagreb,
329c11ba-c2a2-4b2a-b2d0-2caf42fe36f4,Lovrec,43.487969,16.98468,QLV,,,,,,,Europe/Zagreb,
9b6b7a52-3ecb-11ea-8017-02437075395e,"Lubartów, DH Jubilat",51.462587,22.608655,L5T,,,,,,,Europe/Warsaw,
9b6ad544-3ecb-11ea-8017-02437075395e,"Lubawka, ul. Kombatantów",50.706271,16.00101,LBW,,,,,,,Europe/Warsaw,
17192d26-a05b-4d5e-bc9c-e9581ba5c73d,Lubenec (u dálnice),50.136219,13.320215,LNC,,,,,,,Europe/Prague,
3920384b-f434-48e8-a879-4bb6796388e7,"Lubin, Dworzec Autobusowy",51.402306,16.201353,LUI,,,,,,,Europe/Warsaw,
deff7f45-3d10-4bb0-a5bd-7ddc327d9f41,"Lublin, Dworzec Lublin nr 3420",51.231567,22.56598,LBI,,,,,,,Europe/Warsaw,
dcc2fc18-9603-11e6-9066-549f350fcb0c,Lucca,43.83843,10.505039,LUC,,,,,,,Europe/Rome,
dcbc87a8-9603-11e6-9066-549f350fcb0c,Lugano (Via Ciani),46.02244,8.963193,LUG,,,,,,,Europe/Zurich,
da1c779d-b9af-4474-8cda-80320fcb2b6f,Lugoj (MOL petrol station),45.675536,21.909051,QLM,,,,,,,Europe/Bucharest,
dcc47c34-9603-11e6-9066-549f350fcb0c,Lund (Centralen),55.708531,13.187669,LUN,,,,,,,Europe/Stockholm,
dcc5dfdb-9603-11e6-9066-549f350fcb0c,Lunel,43.688418,4.13342,LUL,,,,,,,Europe/Paris,
ecc9c968-d901-4e17-8eb2-9aaaff514ad6,"Lutowiska, Ośrodek Zdrowia",49.254354,22.690337,LWA,,,,,,,Europe/Warsaw,
9b6a3ce8-3ecb-11ea-8017-02437075395e,Lutsk Bus Station,50.760471,25.354688,LTK,,,,,,,Europe/Kyiv,
dcc5d357-9603-11e6-9066-549f350fcb0c,"Luxembourg, P+R Bouillon",49.599985,6.105047,LUX,,,,,,,Europe/Luxembourg,
e7c8ed17-43b8-4766-8c0c-3f215ae7aca9,Luzern (Landenberg),47.046915,8.315742,LUZ,,,,,,,Europe/Zurich,
35b53a7c-4cab-4446-bd3d-f7f62213b9e0,Luzzi,39.448136,16.260571,LZI,,,,,,,Europe/Rome,
ccb91939-36f1-4614-a55e-8a286a3efe5b,Lučenec (bus station),48.334347,19.668063,L1N,,,,,,,Europe/Bratislava,
dcc4c90f-9603-11e6-9066-549f350fcb0c,Lviv (Stryiskyi Bus Station),49.786781,24.016486,LVS,,,,,,,Europe/Kyiv,
30c10b2a-9677-4eea-ba1a-7319569e161d,Lyngdal (Rom terminal),58.156139,7.102171,LGDL,,,,,,,Europe/Oslo,
dcc0aca2-9603-11e6-9066-549f350fcb0c,Lyon Perrache (Central Bus Station - Galerie D),45.749276,4.827632,LYO,,,,,,,Europe/Paris,
75a0f982-b111-4328-bdff-db3e45d44111,Lyon Saint Exupéry Airport,45.718496,5.078983,SXP,,,,,,,Europe/Paris,
888179e8-112b-4ba0-ae48-e03a38bf9138,Lysaker stasjon,59.912911,10.638137,LYSA,,,,,,,Europe/Oslo,
dcbac26f-9603-11e6-9066-549f350fcb0c,Lörrach central train station,47.615973,7.665964,LRR,,,,,,,Europe/Berlin,
d4487cdf-1dfe-4528-aaa8-3abf02c50ed1,Lübeck Holstentor,53.865664,10.679335,HLHT,,,,,,,Europe/Berlin,
b56b93fe-7463-4eab-804f-ad1aab7fb43a,Lüneburg (FlixTrain),53.249789,10.419764,ALBG,,,,,,,Europe/Berlin,
bd08a4aa-065a-4f7c-b443-29b13bbf6b1c,"Lębork, Dworcowa",54.533396,17.74826,LRK,,,,,,,Europe/Warsaw,
147b8195-7848-46f2-a504-64489182927b,M6 Rugby (Driver change - no drop off),52.41019,-1.247324,M6RB,,,,,,,Europe/London,
dcbd7a02-9603-11e6-9066-549f350fcb0c,Maastricht (International Bus Station),50.852543,5.705562,MST,,,,,,,Europe/Amsterdam,
99a03c3e-e34b-4207-b27f-3024f74f8df1,Macedo de Cavaleiros,41.539487,-6.971677,MEC,,,,,,,Europe/Lisbon,
91fa80a3-269a-4e91-ac52-080801240622,Macerata (Autostazione),43.299722,13.444112,MNE,,,,,,,Europe/Rome,
765c44fe-f070-4e9c-8238-71c078e8734f,Madrid (South Bus Station),40.395255,-3.677876,MAD,,,,,,,Europe/Madrid,
dcbb26d9-9603-11e6-9066-549f350fcb0c,Magdeburg central bus station,52.13118,11.62435,MD,,,,,,,Europe/Berlin,
7dc992eb-de2b-4ba3-a176-2d078917f473,Maglie,40.121817,18.305321,MGL,,,,,,,Europe/Rome,
dcbb7f98-9603-11e6-9066-549f350fcb0c,Mainz central train station (exit West),50.000435,8.258504,MZ,,,,,,,Europe/Berlin,
dcc42696-9603-11e6-9066-549f350fcb0c,Makarska bus station,43.29799,17.01849,MKK,,,,,,,Europe/Zagreb,
5e27bb0b-8dfe-4399-be62-b23800957ce7,Malaga (Bus Station),36.712426,-4.434925,MGA,,,,,,,Europe/Madrid,
dcc4d8d8-9603-11e6-9066-549f350fcb0c,Malinska,45.122428,14.526459,QML,,,,,,,Europe/Zagreb,
dcbd7d00-9603-11e6-9066-549f350fcb0c,Malmö central train station FlixBus stop,55.607909,13.000309,MAL,,,,,,,Europe/Stockholm,
d513c47c-16ad-4f48-be57-bf0da5289345,Manchester (Shudehill Interchange),53.485286,-2.238568,MHI,,,,,,,Europe/London,
18988422-f436-497a-8d7f-c58616f512a9,Mandal (Marnarkrysset),58.032396,7.484979,MAND,,,,,,,Europe/Oslo,
6b744e4e-e86c-4b11-ba5a-109b4d2b74d0,Mandatoriccio,39.524763,16.893097,MDT,,,,,,,Europe/Rome,
354346f6-234c-4ddf-baa7-b7fd73b2920e,Manduria,40.406607,17.642372,MND,,,,,,,Europe/Rome,
dcc3aa12-9603-11e6-9066-549f350fcb0c,Manfredonia,41.626458,15.913033,MFD,,,,,,,Europe/Rome,
28a57702-08c4-4219-980f-9f5420cf590d,Mangualde,40.604482,-7.757226,MGE,,,,,,,Europe/Lisbon,
dcbac575-9603-11e6-9066-549f350fcb0c,Mannheim central bus station,49.47808,8.472819,MA,,,,,,,Europe/Berlin,
dcc59b9c-9603-11e6-9066-549f350fcb0c,Mantua (Strada Cipata),45.162408,10.812224,MNT,,,,,,,Europe/Rome,
919c7fa8-f1f8-44d1-8403-4d5fab461fed,Marbella (Bus Station),36.519653,-4.892437,MBA,,,,,,,Europe/Madrid,
dcbc700c-9603-11e6-9066-549f350fcb0c,Marburg central train station (Krummbogen),50.817354,8.774438,MR,,,,,,,Europe/Berlin,
dcbd7eba-9603-11e6-9066-549f350fcb0c,Maribor bus station,46.558917,15.655222,MRB,,,,,,,Europe/Ljubljana,
dcc041d9-9603-11e6-9066-549f350fcb0c,Marienberg (Reitzenhainer Straße),50.648005,13.159747,MAB,,,,,,,Europe/Berlin,
9b6b03e0-3ecb-11ea-8017-02437075395e,"Marijampole, autobusų stotis",54.556594,23.363455,MRP,,,,,,,Europe/Vilnius,
c81bc48f-ecf3-41ff-beba-7263e87526c8,Marina autobusno stajalište,43.520988,16.137941,QMX,,,,,,,Europe/Zagreb,
654542aa-8b03-449d-a019-d868c64a8065,Marinha Grande,39.745453,-8.931279,MHD,,,,,,,Europe/Lisbon,
dcbfc41f-9603-11e6-9066-549f350fcb0c,Markdorf (Ravensburger Straße),47.719829,9.391456,MDF,,,,,,,Europe/Berlin,
dcc226e2-9603-11e6-9066-549f350fcb0c,Marktredwitz station,50.003986,12.082828,MAK,,,,,,,Europe/Berlin,
dcbcaa4d-9603-11e6-9066-549f350fcb0c,Marling (Marlengo),46.657776,11.144922,BZG,,,,,,,Europe/Rome,
dcc2e206-9603-11e6-9066-549f350fcb0c,Marseille (central bus station St Charles),43.304081,5.37999,MAA,,,,,,,Europe/Paris,
e7813085-5122-4af6-8aa8-ebe960a72aa1,Martigny,46.10525,7.080065,MGY,,,,,,,Europe/Zurich,
d75d96f3-caf4-42f9-91f0-fc788cb65c65,Martina Franca,40.705875,17.34186,MF,,,,,,,Europe/Rome,
fa792e35-b0fd-41bb-862b-25d7012e2b73,Martinsicuro,42.885944,13.914014,MSI,,,,,,,Europe/Rome,
4ca12bcf-cb68-4120-ba9f-3370fa1c14eb,Massa (CC Carrefour),44.021453,10.110448,MSSC,,,,,,,Europe/Rome,
dcc3f548-9603-11e6-9066-549f350fcb0c,Matera,40.677114,16.590159,MAT,,,,,,,Europe/Rome,
1d1209af-c6db-4eea-ab69-0520f6dab874,Mece autobusno stajalište,45.621007,18.718269,ZME,,,,,,,Europe/Zagreb,
1ecb27fb-2237-4d6e-bd68-82b3064bb60b,Medgidia (Blvd. Independentei 69),44.26066,28.2627,MGD,,,,,,,Europe/Bucharest,
8c21e3f0-420e-4a6d-94a2-5d8348c0e04b,Mediaș (Autogara BAT),46.160995,24.351988,MDI,,,,,,,Europe/Bucharest,
8a124fab-88b4-48f0-b5b6-26297a08ffa7,"Medyka, Granica",49.802276,22.940362,MEX,,,,,,,Europe/Warsaw,
dcbab81d-9603-11e6-9066-549f350fcb0c,Meersburg,47.695249,9.271471,MBK,,,,,,,Europe/Berlin,
a0df420d-2846-416d-a7e7-ccf8b600855c,Meja,45.293212,14.585574,YME,,,,,,,Europe/Zagreb,
cfef8c93-6375-4fb0-bc2b-c4fabd9d5f67,Melgaço (Bus Staion),42.10988,-8.26167,MGG,,,,,,,Europe/Lisbon,
dcbc9487-9603-11e6-9066-549f350fcb0c,Memmingen Allgäu airport,47.989529,10.232261,MMF,,,,,,,Europe/Berlin,
dcbb680f-9603-11e6-9066-549f350fcb0c,Memmingen central bus station,47.98401,10.18656,MM,,,,,,,Europe/Berlin,
dcc359c2-9603-11e6-9066-549f350fcb0c,Mendig (Rasthof),50.38234,7.27016,MDG,,,,,,,Europe/Berlin,
dcbca8e9-9603-11e6-9066-549f350fcb0c,Meran (Merano) - Terme,46.668917,11.159333,BZM,,,,,,,Europe/Rome,
eaa329bd-d24e-4cfc-bb87-f2fdf2b5e1ad,Merida (Bus Station),38.914315,-6.357948,MDA,,,,,,,Europe/Madrid,
dcbc0f08-9603-11e6-9066-549f350fcb0c,Merseburg bus station,51.356425,11.991397,MER,,,,,,,Europe/Berlin,
dcbc0aab-9603-11e6-9066-549f350fcb0c,Merzig bus station,49.437092,6.634771,MRZ,,,,,,,Europe/Berlin,
dcbb8c61-9603-11e6-9066-549f350fcb0c,Meschede bus station,51.349065,8.280059,MES,,,,,,,Europe/Berlin,
682f1f0b-ebbd-424b-8e95-58f88bb23901,Messina,38.186057,15.560744,MSN,,,,,,,Europe/Rome,
3b6d0648-b164-45d0-81c8-6a242b9f93a9,Metaponto,40.369274,16.814631,MTO,,,,,,,Europe/Rome,
dcc4b935-9603-11e6-9066-549f350fcb0c,Metković,43.053861,17.642044,QME,,,,,,,Europe/Zagreb,
dcbd8097-9603-11e6-9066-549f350fcb0c,Metz (central bus station),49.110164,6.183766,MTZ,,,,,,,Europe/Paris,
dcc43ef0-9603-11e6-9066-549f350fcb0c,Međugorje,43.195392,17.678533,QMD,,,,,,,Europe/Sarajevo,
e1c42be5-8f52-4d6f-91f2-deb180600b6f,Middelfart (Strib rasteplads),55.512173,9.767246,MIF,,,,,,,Europe/Copenhagen,
9b69e565-3ecb-11ea-8017-02437075395e,Middlesbrough (Bus Station),54.576085,-1.239545,MIB,,,,,,,Europe/London,
67e1c554-6141-49de-a044-6dbc8ba76785,"Miedzywodzie, ul. Armii Krajowej",54.004167,14.694389,MIW,,,,,,,Europe/Warsaw,
1191f632-567a-4c7a-86c1-3ca06ef64b1a,Miedzyzdroje,53.927667,14.45042,MIE,,,,,,,Europe/Warsaw,
9b6a7449-3ecb-11ea-8017-02437075395e,"Mielec, Dworzec Przesiadkowy",50.291745,21.431021,MDP,,,,,,,Europe/Warsaw,
be4cf34f-4367-421c-9358-6d34dca65e06,"Mielno, ul. Lechitów",54.254918,16.054884,MNO,,,,,,,Europe/Warsaw,
4b6a56d1-4b50-46b1-97a6-f2af837e1c95,Miercurea Ciuc (Autogara Csiki Trans),46.361885,25.792771,MCI,,,,,,,Europe/Bucharest,
30fa088f-7197-4ecf-9088-070aa9a6ccd6,"Mikoszewo, Centrum nr 14 i 61",54.333196,18.969094,MIK,,,,,,,Europe/Warsaw,
9b6a367f-3ecb-11ea-8017-02437075395e,"Mikołajki, Plac Kościelny",53.802816,21.570451,MKL,,,,,,,Europe/Warsaw,
dcbc484a-9603-11e6-9066-549f350fcb0c,Milan (Lampugnano bus station),45.489719,9.127528,MIO,,,,,,,Europe/Rome,
d4c1ca2b-e9e4-4001-b9fe-b03ec7916c07,Milazzo,38.19734,15.258125,MZZ,,,,,,,Europe/Rome,
dcc59eba-9603-11e6-9066-549f350fcb0c,Millau (Central Bus Station),44.102213,3.074826,MIL,,,,,,,Europe/Paris,
87b7b3d2-5e7d-4d25-9a2d-d43497e214a8,Mimice,43.405192,16.809525,WMM,,,,,,,Europe/Zagreb,
c896d1bd-2df0-4e65-b533-d7d8c40e77a8,Mirabilandia,44.331973,12.269094,MRL,,,,,,,Europe/Rome,
bfff0033-3665-4bd5-b472-f2b2174a7745,Mirandela,41.481527,-7.181319,MDL,,,,,,,Europe/Lisbon,
dade3fde-f55c-4a8b-a3a0-44bab1594e18,Mirto Crosia,39.60485,16.776629,MKR,,,,,,,Europe/Rome,
7b8345bc-4bd3-46fb-8f59-7f09ffc3fd1e,Misano Adriatico (Bus stop 61),43.984881,12.69007,MSA,,,,,,,Europe/Rome,
b646ae22-eecf-47b5-a079-47cff5459ed5,Miskolc Bus station,48.104812,20.791117,MKC,,,,,,,Europe/Budapest,
f29ab151-14e1-47b7-8f83-1b22a0bb9cea,Misterhult Vägskäl E22,57.477014,16.517757,MSH,,,,,,,Europe/Stockholm,
4f751c6c-87a1-4e05-b2f7-0cb0ffe4ce61,Mittenwald train station (Mühlenweg),47.440197,11.266275,MWB,,,,,,,Europe/Berlin,
9b6a6b5d-3ecb-11ea-8017-02437075395e,"Międzyrzec Podlaski, ul. Brzeska",51.986575,22.791077,MPD,,,,,,,Europe/Warsaw,
9b6bb965-3ecb-11ea-8017-02437075395e,Międzyrzecz,52.444605,15.592787,MCZ,,,,,,,Europe/Warsaw,
e5347c42-ab26-457c-bb2c-fd8057359e4d,Mjölby station,58.321181,15.132065,MJB,,,,,,,Europe/Stockholm,
a7478c38-1243-46be-b91b-7faa7ec4a475,Mladá Boleslav (bus station),50.419683,14.916227,MLA,,,,,,,Europe/Prague,
dcc1a55b-9603-11e6-9066-549f350fcb0c,Modena (Terminal via Gottardi),44.630647,10.950426,MOD,,,,,,,Europe/Rome,
82b76f86-2c26-45c5-850d-d37cdf1ba652,Modica,36.866807,14.757047,ODC,,,,,,,Europe/Rome,
c427e385-5386-43f5-9857-31f9b8ceb2c1,Modugno,41.087106,16.776608,MDU,,,,,,,Europe/Rome,
b1a593e5-1bbb-4856-802f-11f436853875,Moita da Serra,40.28693,-8.083931,EDO,,,,,,,Europe/Lisbon,
52b369a2-ec5a-40da-89b1-6a4d97ed2e85,Mola di Bari,41.055432,17.079056,MLR,,,,,,,Europe/Rome,
f1e782c4-ad49-4809-9b19-607c7d9e23a1,Mongrassano,39.538553,16.222954,MGS,,,,,,,Europe/Rome,
dcc45d4c-9603-11e6-9066-549f350fcb0c,Monopoli,40.948739,17.289121,MNP,,,,,,,Europe/Rome,
dcc0b6bb-9603-11e6-9066-549f350fcb0c,Mons Av. Léo Collard,50.459535,3.936132,MON,,,,,,,Europe/Brussels,
690940e0-9a21-428f-8812-f13953d8140e,Monselice - Colli Euganei,45.237636,11.754913,MCU,,,,,,,Europe/Rome,
8586965e-0803-4afa-8e9e-96341edf1310,Montabaur (ICE station),50.443835,7.825168,MTB,,,,,,,Europe/Berlin,
758fd64a-02f4-4183-ab2d-a14ef63fa20e,Montana bus station,43.40763,23.229183,MO,,,,,,,Europe/Sofia,
dcc354e2-9603-11e6-9066-549f350fcb0c,Montargis Ouest (Tollgate at motorway exit 18),47.992301,2.677124,MOT,,,,,,,Europe/Paris,
f6d1c60b-d77d-462b-b01a-a5756469fe5b,Montauban (Aussone),44.044706,1.389712,MTA,,,,,,,Europe/Paris,
dcc271f0-9603-11e6-9066-549f350fcb0c,Montbéliard (Acropole),47.508905,6.80187,MBL,,,,,,,Europe/Paris,
7bb3753b-bf84-4dd7-ba8f-d1a4167d3845,Monte Gordo,37.182186,-7.451808,ONT,,,,,,,Europe/Lisbon,
4f178907-0312-40f0-aa39-ca381cb06374,Montecatini,43.879821,10.781404,MTM,,,,,,,Europe/Rome,
dcc0b9bc-9603-11e6-9066-549f350fcb0c,Montpellier (Sabines),43.583932,3.860233,MTP,,,,,,,Europe/Paris,
e4b86abb-5ef1-4e0c-b495-1c6fc1c03411,Montélimar (Péage Sud),44.479406,4.76361,MOI,,,,,,,Europe/Paris,
c3fd816e-3efa-4fa0-a79e-1b6eb3151811,Monção (Bus Station),42.076488,-8.489499,MNC,,,,,,,Europe/Lisbon,
d4f84e91-7ad2-4746-b4e9-a70774ed904a,Mormanno,39.901927,15.976179,MRN,,,,,,,Europe/Rome,
4a339e86-7937-497e-a435-65fd4e966d4a,Mortagua,40.397288,-8.229828,MTG,,,,,,,Europe/Lisbon,
119b96fe-b99e-416c-9c6a-13c6bab0de31,Moss (Mosseporten senter),59.4453,10.702597,MOP,,,,,,,Europe/Oslo,
6ad22099-0c34-48f8-8a78-79d2310c4bea,Most (1. náměstí),50.50109,13.638766,M1N,,,,,,,Europe/Prague,
dcc2db39-9603-11e6-9066-549f350fcb0c,Moulins (Central Bus Station),46.56235,3.338828,MOL,,,,,,,Europe/Paris,
97228872-5f77-40d4-8120-6960b0e40fcb,Mrnjavci,43.494159,17.003203,WMN,,,,,,,Europe/Zagreb,
b4500646-ffa5-4a4b-8d30-8e723933da1e,"Mrzeżyno, ul. Kołobrzeska 3152Z 09T i 10T",54.145153,15.304985,MRE,,,,,,,Europe/Warsaw,
be435268-25ea-4761-91e8-5e3ff5814eb1,"Mrągowo, Curie-Skłodowskiej – Dworzec 01",53.862744,21.295299,MCW,,,,,,,Europe/Warsaw,
c2625c1d-cbb0-4dd5-aee2-1b71afab605b,Muccia,43.075432,13.063033,MCC,,,,,,,Europe/Rome,
9b6a651f-3ecb-11ea-8017-02437075395e,Mukachevo (Bus Station),48.439267,22.731323,MUK,,,,,,,Europe/Kyiv,
dcc0fb55-9603-11e6-9066-549f350fcb0c,Mulhouse (bus station),47.742877,7.342869,MLH,,,,,,,Europe/Paris,
dcbabbfa-9603-11e6-9066-549f350fcb0c,Munich central bus station,48.14248,11.55001,M,,,,,,,Europe/Berlin,
e3227df6-e27b-436c-8207-b77746251a53,Murcia (Bus Station),37.985089,-1.139475,MUZ,,,,,,,Europe/Madrid,
dcc4e561-9603-11e6-9066-549f350fcb0c,Murter,43.823855,15.593505,QMU,,,,,,,Europe/Zagreb,
ed086a85-718f-4221-bd80-52c8e2af73a9,Muráň (nám.),48.740253,20.046944,M1U,,,,,,,Europe/Bratislava,
0664db3c-61dd-4063-b3d1-1d79c3f3a57d,Murça,41.405209,-7.451228,MUA,,,,,,,Europe/Lisbon,
b83b904b-0510-413e-9b87-53f4b07662ea,"Muszyna, ul. Piłsudskiego PKP",49.346704,20.893129,MSZA,,,,,,,Europe/Warsaw,
e11f072a-5116-49d6-b61e-ad3868f2fb21,"Myszyniec, Dworzec Autobusowy",53.38457,21.341434,MYZ,,,,,,,Europe/Warsaw,
b0ca8ebf-11fe-41f5-bea5-d3e4bbe1eaa8,"Myślenice, Dworzec Autobusowy",49.834467,19.948885,MYS,,,,,,,Europe/Warsaw,
dcc14ebe-9603-11e6-9066-549f350fcb0c,Mâcon,46.303398,4.826976,MAC,,,,,,,Europe/Paris,
dcbbac98-9603-11e6-9066-549f350fcb0c,Mönchengladbach central train station,51.198242,6.446858,MG,,,,,,,Europe/Berlin,
0ec08e09-0ae5-4db5-be71-5335b4103c6b,Mönsterås E22,57.051947,16.439552,MOS,,,,,,,Europe/Stockholm,
4f3a5307-079d-40cd-8876-3f14db9b22f7,Mülheim (Ruhr) Central Station (FlixTrain),51.431264,6.886353,EMLR,,,,,,,Europe/Berlin,
fdabe2aa-7eac-42d7-add9-72ff0b1d8308,Müllheim (Baden) (FlixTrain),47.809885,7.599497,RML.,,,,,,,Europe/Berlin,
dcbae510-9603-11e6-9066-549f350fcb0c,Münchberg service area,50.20334,11.777464,MBG,,,,,,,Europe/Berlin,
dcbb7817-9603-11e6-9066-549f350fcb0c,Münster bus stop (Hafenstraße),51.953559,7.631869,MS,,,,,,,Europe/Berlin,
dc52e354-d90b-489a-970c-7935f2139bc0,"Mława, Dworzec Zintegrowany Stacja Mława",53.109461,20.364421,MLW,,,,,,,Europe/Warsaw,
dcc4f853-9603-11e6-9066-549f350fcb0c,Nagykanizsa (bus station),46.45686,16.98568,QNK,,,,,,,Europe/Budapest,
9b6a09d5-3ecb-11ea-8017-02437075395e,"Nakło nad Notecią, Dworzec Autobusowy PKS",53.142099,17.601666,NKN,,,,,,,Europe/Warsaw,
dcc0bb38-9603-11e6-9066-549f350fcb0c,Namur,50.466489,4.871021,NAM,,,,,,,Europe/Brussels,
dcc212d9-9603-11e6-9066-549f350fcb0c,Nancy,48.69483,6.190473,NAC,,,,,,,Europe/Paris,
dcc0bd39-9603-11e6-9066-549f350fcb0c,Nantes (Haluchère),47.248931,-1.520808,NAN,,,,,,,Europe/Paris,
dcc19a38-9603-11e6-9066-549f350fcb0c,Naples (Metropark Centrale),40.850931,14.273617,NAP,,,,,,,Europe/Rome,
9b6b4cee-3ecb-11ea-8017-02437075395e,Narbonne (Croix Sud),43.165266,2.98845,NRB,,,,,,,Europe/Paris,
5737927f-ea82-4f92-bd0c-224ba65bcbbf,Nardò,40.173648,18.033117,NRD,,,,,,,Europe/Rome,
1be70f5e-b178-4aad-8427-dd84a48436cb,"Narva, Bus Station",59.369115,28.199375,NVA,,,,,,,Europe/Tallinn,
5d30c33a-459d-44a5-b4af-6ba555eb94bb,Nazaré (Bus Station),39.596762,-9.068757,NZR,,,,,,,Europe/Lisbon,
dcbaccb2-9603-11e6-9066-549f350fcb0c,Neckarsulm station west (bei Heilbronn),49.188746,9.218712,NSU,,,,,,,Europe/Berlin,
dcbb8896-9603-11e6-9066-549f350fcb0c,Neheim-Hüsten train station,51.438485,7.970046,NEH,,,,,,,Europe/Berlin,
e7d03369-cf37-4d62-9d17-b4e8dcc9782b,Netretić autobusno stajalište,45.50871,15.414617,QNE,,,,,,,Europe/Zagreb,
ecd32b18-703c-4aed-9b52-67474249e681,Neu-Edingen/Friedrichsfeld (FlixTrain),49.44894,8.579218,RMF,,,,,,,Europe/Berlin,
dcbbebf2-9603-11e6-9066-549f350fcb0c,Neumünster train station,54.074655,9.979967,NMS,,,,,,,Europe/Berlin,
dcbb836b-9603-11e6-9066-549f350fcb0c,Neunkirchen (Lindenallee-Stummdenkmal),49.348623,7.175416,NK,,,,,,,Europe/Berlin,
5765bc17-3ab0-4ee7-890e-ab9975fb7faf,Neuss Central Station (FlixTrain),51.204355,6.684384,KN,,,,,,,Europe/Berlin,
dcc0041b-9603-11e6-9066-549f350fcb0c,Neustrelitz central bus station,53.359654,13.073125,NST,,,,,,,Europe/Berlin,
dcc2da4a-9603-11e6-9066-549f350fcb0c,Nevers (Central bus station),46.988998,3.150369,NEV,,,,,,,Europe/Paris,
9b69e59a-3ecb-11ea-8017-02437075395e,Newcastle-Upon-Tyne,54.974941,-1.610113,NEW,,,,,,,Europe/London,
9b6b7d12-3ecb-11ea-8017-02437075395e,Newport Train Station,51.588847,-2.999328,NWP,,,,,,,Europe/London,
c3996d55-4fc0-40ae-8fe2-62b3d07fd0d7,Nice Airport (Bus Station - Terminal 1),43.664817,7.209588,NIT,,,,,,,Europe/Paris,
2ddf8af6-ccb9-4c25-9fd1-c668d4282a14,"Nidzica, ul. Kolejowa",53.357856,20.414986,NDC,,,,,,,Europe/Warsaw,
c687d786-feab-4e6b-abb3-df0bbc9518fd,Niebylec,49.856167,21.903571,N1E,,,,,,,Europe/Warsaw,
8a9898cf-83dc-4a82-adc7-f800ae4ca24a,"Niechorze, ul. Kolejowa",54.094528,15.078528,NIE,,,,,,,Europe/Warsaw,
dcbfbb58-9603-11e6-9066-549f350fcb0c,Nienhagen (Mitte),54.157719,11.953084,NHG,,,,,,,Europe/Berlin,
dcc0bfeb-9603-11e6-9066-549f350fcb0c,Nijmegen Centraal Station (Tunnelweg),51.843691,5.855311,NIJ,,,,,,,Europe/Amsterdam,
741a1ff8-2e91-44f7-b904-9874396ff95d,Nin,44.23933,15.181405,NIN,,,,,,,Europe/Zagreb,
dcc3b2ae-9603-11e6-9066-549f350fcb0c,Niort (Pied de Fond),46.307289,-0.485253,NIO,,,,,,,Europe/Paris,
3cccd71c-88f4-4443-965f-b30b88d2dcf2,Nitra (bus station),48.303666,18.080734,N1X,,,,,,,Europe/Bratislava,
9b69e22b-3ecb-11ea-8017-02437075395e,Niš AS,43.325124,21.890843,YNI,,,,,,,Europe/Belgrade,
64ab2cba-1909-4c69-9434-2c35f2f7a1da,Nocera Inferiore,40.740444,14.645694,NIF,,,,,,,Europe/Rome,
3744c799-bc60-4392-a315-34f3770d46b4,Noli,44.205601,8.416524,NLI,,,,,,,Europe/Rome,
dcbb2201-9603-11e6-9066-549f350fcb0c,Nordhausen train station,51.493574,10.789905,NDH,,,,,,,Europe/Berlin,
dcc47b1e-9603-11e6-9066-549f350fcb0c,Norrköping (Resecentrum) Flixbus Stop,58.59681,16.187798,NOK,,,,,,,Europe/Stockholm,
5e65d841-74f9-45ac-a873-b413654dfaf3,North Greenwich- Millenium Way Stop F,51.500028,0.002444,GRN1,,,,,,,Europe/London,
c516e864-baa5-4c12-bfb0-178a7a6b5365,Northampton Town Centre (Victoria Street),52.240883,-0.895194,NGB,,,,,,,Europe/London,
9b69e4fe-3ecb-11ea-8017-02437075395e,Nottingham (Greyfriar Gate Stop C11-12),52.949175,-1.149973,NOT,,,,,,,Europe/London,
dcc4076a-9603-11e6-9066-549f350fcb0c,Nova Gradiška bus station,45.254099,17.378315,QNG,,,,,,,Europe/Zagreb,
d7943c23-014a-4757-af88-c37767f34743,Novara (Veveri A4 westbound),45.470293,8.621371,NVVO,,,,,,,Europe/Rome,
87709239-ab52-456c-8249-21e5709813db,Novi Marof,46.160945,16.334957,NMA,,,,,,,Europe/Zagreb,
5aa75596-732f-4993-a6d9-d06c8f211b6f,Novi Sad MAS,45.264536,19.828418,NS,,,,,,,Europe/Belgrade,
1bd736a1-5b5c-4672-a440-4747dbec2e77,Novi Vinodolski,45.125797,14.791629,NVK,,,,,,,Europe/Zagreb,
dcc4e9d1-9603-11e6-9066-549f350fcb0c,Novska,45.3427,16.975406,QNO,,,,,,,Europe/Zagreb,
9b6bdc85-3ecb-11ea-8017-02437075395e,Nový Jičín (bus station),49.597624,18.00944,NJC,,,,,,,Europe/Prague,
cc4273a7-9400-4ac5-bbe3-c40b0ebe38db,"Nowa Sól, ul. Towarowa",51.798389,15.709668,NSO,,,,,,,Europe/Warsaw,
fd407bfe-4eac-4343-bd54-ba013b14498d,"Nowe Kramsko, Port Lotniczy Zielona Góra-Babimost",52.13642,15.777156,ZEL,,,,,,,Europe/Warsaw,
bbc81f9a-abe7-4fae-aa84-b9d28c5669a3,"Nowy Dwór Mazowiecki, MPL Warszawa - Modlin",52.445872,20.65069,WMI,,,,,,,Europe/Warsaw,
185ecd11-d19d-45c5-a380-d52a86509fe4,Nowy Sacz Dworzec Autobusowy MDA,49.617161,20.698507,NOW,,,,,,,Europe/Warsaw,
9654da64-7fdf-493e-84ee-65cbd9a688b1,"Nowy Targ, Dworzec Autobusowy",49.478054,20.023001,NTG,,,,,,,Europe/Warsaw,
dcc34d7e-9603-11e6-9066-549f350fcb0c,Noyelles-Godault,50.413602,2.988308,NOG,,,,,,,Europe/Paris,
dcbac661-9603-11e6-9066-549f350fcb0c,Nuremberg central bus station (Willy-Brandt-Platz),49.447715,11.0855,N,,,,,,,Europe/Berlin,
dcc4eb15-9603-11e6-9066-549f350fcb0c,Nuštar,45.332497,18.841362,QNU,,,,,,,Europe/Zagreb,
b108d736-294c-4117-b1ca-fb7a83e5f476,Nyborg FlixBus stop (Circle K),55.309914,10.805283,NYB,,,,,,,Europe/Copenhagen,
850d1ad2-5508-4f55-b3ae-89e3a3527b27,Nyköping busstation Flixbus Stop,58.749226,17.00128,NYK,,,,,,,Europe/Stockholm,
9e81459a-a186-4c88-8801-332e10ff4f07,Nykøbing Falster,54.770283,11.872409,NYF,,,,,,,Europe/Copenhagen,
1ee8a088-ce6e-40da-864a-17388db1f638,Nykøbing Mors Busterminal,56.793649,8.861756,NYM,,,,,,,Europe/Copenhagen,
f42633c6-9e6b-4510-be95-6abd98c25915,"Nysa, ul. Bema",50.476745,17.340287,NYS,,,,,,,Europe/Warsaw,
c692d8be-f83f-4646-b572-835b63a44866,Náchod (bus station),50.417442,16.170312,NHD,,,,,,,Europe/Prague,
83a3ee35-472f-4172-8f7b-6609b06ac849,"Närpiö, Bus Station",62.472982,21.338559,NRP,,,,,,,Europe/Helsinki,
dcc0c16d-9603-11e6-9066-549f350fcb0c,Nîmes (Parnasse),43.817434,4.362175,NIM,,,,,,,Europe/Paris,
dcbb8185-9603-11e6-9066-549f350fcb0c,Oberhausen central train station (bus stop),51.473819,6.851949,OB,,,,,,,Europe/Berlin,
cc1f9ce1-514a-4798-9211-d982eb298eda,Obzor (bus station),42.817316,27.879034,OBZ,,,,,,,Europe/Sofia,
1d176dbb-cded-4f74-9a13-9ae6f5de26f2,Odeceixe,37.433511,-8.766455,OCX,,,,,,,Europe/Lisbon,
fdeab689-a111-4d9f-b363-ce9b65176371,Odense Parkering Syd,55.35666,10.4197,ODL,,,,,,,Europe/Copenhagen,
dcc35294-9603-11e6-9066-549f350fcb0c,Odense Station (Dannebrogsgade),55.403362,10.387038,ODE,,,,,,,Europe/Copenhagen,
1a031d47-ba49-47ef-bafe-0a3da4544365,Odesa (Odesa Bus Station),46.476858,30.708396,ODA,,,,,,,Europe/Kyiv,
a23cddf3-5bb0-4c3e-990b-b78ec3d20959,Odorheiu Secuiesc (Autogara Corundtrans),46.310436,25.297367,OSC,,,,,,,Europe/Bucharest,
8b67b5f7-4749-4a54-b26d-cb2c4257fcee,Offenbach (Main) Central Station (FlixTrain),50.099264,8.760743,FO,,,,,,,Europe/Berlin,
8111f454-465d-4ec9-8e95-ebb530e0bc38,Offenburg (FlixTrain),48.47665,7.94672,RO,,,,,,,Europe/Berlin,
70e4011f-ee79-4f88-9361-5d36ced2b465,Oglavci,43.555028,15.959088,QOG,,,,,,,Europe/Zagreb,
dcbb3d73-9603-11e6-9066-549f350fcb0c,Oldenburg central bus station,53.145191,8.223599,OL,,,,,,,Europe/Berlin,
219f8aca-6487-4b70-9c6c-e53b26cf919a,Olhão (Av. Operarios Conserveiros),37.028954,-7.835901,OAO,,,,,,,Europe/Lisbon,
ea9e1971-8b5a-4b1a-bc56-40da2e75986b,Oliveira do Hospital (Bus Station),40.362696,-7.859549,OHL,,,,,,,Europe/Lisbon,
df9aca49-5f85-4d31-9afe-09979a8721b2,Olomouc (bus station),49.58818,17.285752,OAN,,,,,,,Europe/Prague,
4d46503d-1f62-418c-b746-2fbc9c454d43,"Olsztyn, Dworzec Autobusowy",53.78488,20.499411,ODU,,,,,,,Europe/Warsaw,
5e2ac607-4ff7-4b5c-bd62-b8c6a164e671,Omiš bus station,43.444611,16.686578,OMI,,,,,,,Europe/Zagreb,
a7a587a6-30b3-4793-89ca-defa7427a6c8,Onești (bus station),46.258045,26.779345,ONE,,,,,,,Europe/Bucharest,
dcc296d0-9603-11e6-9066-549f350fcb0c,Opatija (Bus Station),45.333053,14.302562,QOP,,,,,,,Europe/Zagreb,
93598b0e-eb88-4226-b379-5824be7c85b7,"Opatów, Dworzec Autobusowy",50.800198,21.431176,ODO,,,,,,,Europe/Warsaw,
dcbd8911-9603-11e6-9066-549f350fcb0c,"Opole, Dworzec autobusowy",50.662892,17.928177,OPL,,,,,,,Europe/Warsaw,
dcc4f648-9603-11e6-9066-549f350fcb0c,Opuzen,43.014806,17.560349,QOZ,,,,,,,Europe/Zagreb,
ad835a46-1202-4cdf-a390-5c7bede3d136,Oradea (bus station Intrans),47.043072,21.958487,OR,,,,,,,Europe/Bucharest,
9b6a77fa-3ecb-11ea-8017-02437075395e,Orašac autobusno stajalište,42.699886,18.005581,ZOO,,,,,,,Europe/Zagreb,
dcc39e8f-9603-11e6-9066-549f350fcb0c,Orléans (Libération),47.919533,1.903494,ORS,,,,,,,Europe/Paris,
dcc5d5f2-9603-11e6-9066-549f350fcb0c,Orte,42.452374,12.406332,ORT,,,,,,,Europe/Rome,
63abead7-d413-49d4-8734-1bd500066f01,Orthez,43.467168,-0.749065,ORZ,,,,,,,Europe/Paris,
dd69148b-c070-4835-abf8-c76e989639a0,Ortona,42.332832,14.381665,OTO,,,,,,,Europe/Rome,
dcc58f88-9603-11e6-9066-549f350fcb0c,Orvieto Scalo,42.723478,12.126333,ORV,,,,,,,Europe/Rome,
24ae3b19-d1f1-4297-92d9-f2dda907435f,Orăștie (Zona Micro 2),45.843308,23.198093,OTI,,,,,,,Europe/Bucharest,
4145a2f5-790f-46dc-84fb-d194abffe839,"Orșova (Blvd. 1 Decembrie 1918, nr. 18)",44.723924,22.398553,OVA,,,,,,,Europe/Bucharest,
dcc500aa-9603-11e6-9066-549f350fcb0c,Osijek bus station,45.553192,18.680033,QOK,,,,,,,Europe/Zagreb,
aacb154b-2763-410d-95e6-8c900ccfc44d,Osimo stazione,43.496495,13.54719,OSI,,,,,,,Europe/Rome,
d7d9faf3-9b01-477b-9f17-1e9a3c6212d4,Oskarshamn station,57.262614,16.457328,OKH,,,,,,,Europe/Stockholm,
dcc38945-9603-11e6-9066-549f350fcb0c,Oslo (Busterminalen Galleriet),59.911605,10.759301,OSL,,,,,,,Europe/Oslo,
dcbb7621-9603-11e6-9066-549f350fcb0c,Osnabrück central train station (Eisenbahnstraße),52.273961,8.057886,OS,,,,,,,Europe/Berlin,
014f2224-3982-4329-b188-6f1a50f9d5fe,Ostrava (central bus station),49.830387,18.280333,OSA,,,,,,,Europe/Prague,
67703820-dacb-4679-a1fe-aa06e71aa0d2,"Ostrowiec Świętokrzyski, Dworzec Autobusowy",50.934784,21.381411,OSW,,,,,,,Europe/Warsaw,
c3448fcd-101e-4217-9fe7-9da2a588b504,"Ostrołęka, Dworzec Autobusowy",53.084756,21.573188,OSK,,,,,,,Europe/Warsaw,
fa5251f2-fc15-4d6d-8917-2e30a2269cb0,"Ostróda, Grunwaldzka",53.692407,19.978268,OSR,,,,,,,Europe/Warsaw,
9b6a3c98-3ecb-11ea-8017-02437075395e,"Ostrów Mazowiecka, Dworzec Autobusowy",52.799417,21.895825,OMZ,,,,,,,Europe/Warsaw,
9b6a7634-3ecb-11ea-8017-02437075395e,Ostrów Wielkopolski Centrum Przesiadkowe,51.651719,17.807041,OSO,,,,,,,Europe/Warsaw,
e12768dd-c645-488e-a83c-8d6742167cae,Ostuni (SS 379 AREA DI SERVIZIO Q8),40.791904,17.564384,OST,,,,,,,Europe/Rome,
9b5ab985-c049-4e15-9bb3-4217954fa381,Otranto,40.143068,18.494981,OTR,,,,,,,Europe/Rome,
fbde9514-4f59-4ed7-a5c5-dfc609486e43,Otrić- Seoci,43.186726,17.383439,YOS,,,,,,,Europe/Zagreb,
548ca7a4-0505-45e8-839b-b3172f9eb42f,Oulx (Stazione FS),45.038717,6.832204,OLX,,,,,,,Europe/Rome,
154647e8-4b41-41da-9aa6-77ef49f2091f,Ourense (Bus Station),42.350214,-7.873043,ORN,,,,,,,Europe/Madrid,
29e3e541-0082-4170-a08a-c3858be4c6ba,Oviedo (Bus Station),43.369147,-5.850537,OVD,,,,,,,Europe/Madrid,
11a213fc-016b-4ac3-a35b-22e8fe9d504d,"Oława, Dworzec Autobusowy",50.945047,17.298038,OAA,,,,,,,Europe/Warsaw,
9b6b1efe-3ecb-11ea-8017-02437075395e,"Pabianice, Dworzec PKP nr 9",51.660346,19.325581,PBC,,,,,,,Europe/Warsaw,
dcbdcd12-9603-11e6-9066-549f350fcb0c,Paderborn (Maspernplatz west),51.722987,8.753941,PBM,,,,,,,Europe/Berlin,
dcbd8a4d-9603-11e6-9066-549f350fcb0c,Padua,45.418751,11.873498,PAD,,,,,,,Europe/Rome,
dcc4ba98-9603-11e6-9066-549f350fcb0c,Pakoštane,43.914971,15.508683,QPK,,,,,,,Europe/Zagreb,
0a1a6f22-1936-49c6-b3d3-c915acd11d95,Palencia (Bus Station),42.016396,-4.536843,PLA,,,,,,,Europe/Madrid,
4be19091-966b-41e8-9c0d-ee8945cfa8d6,Palermo (Via Fazello),38.108565,13.366722,PML,,,,,,,Europe/Rome,
b232c755-a5b4-47f1-ac1e-e6f713e51e2c,Pamplona (Bus Station),42.811628,-1.645417,PPN,,,,,,,Europe/Madrid,
9b6b08dd-3ecb-11ea-8017-02437075395e,Panevezys Bus Station (Panevėžys),55.727543,24.36482,PNV,,,,,,,Europe/Vilnius,
452140d2-be57-4696-805c-f27ac033438a,Paola - Fuscaldo,39.391692,16.019615,PFC,,,,,,,Europe/Rome,
dcc450a5-9603-11e6-9066-549f350fcb0c,Parc Asterix (Bus Parking),49.137161,2.569371,PAX,,,,,,,Europe/Paris,
dcc5426b-9603-11e6-9066-549f350fcb0c,Paris (Bercy Seine),48.835318,2.380519,PQB,,,,,,,Europe/Paris,
dcc277af-9603-11e6-9066-549f350fcb0c,Parma,44.811147,10.327717,PR,,,,,,,Europe/Rome,
dcc4cafd-9603-11e6-9066-549f350fcb0c,Parndorf Designer Outlet,47.977626,16.849331,PAF,,,,,,,Europe/Vienna,
dcc2d369-9603-11e6-9066-549f350fcb0c,Pasewalk station,53.51406,13.98877,PW,,,,,,,Europe/Berlin,
dcbc1c77-9603-11e6-9066-549f350fcb0c,Passau central train station,48.574293,13.450371,PA,,,,,,,Europe/Berlin,
dcc0ca8b-9603-11e6-9066-549f350fcb0c,Pau,43.318988,-0.362096,PAU,,,,,,,Europe/Paris,
b9f81bb2-e892-4433-bf4e-df56d14ca40b,Pazardzhik (Avtogara),42.182826,24.317644,PAZ,,,,,,,Europe/Sofia,
41fec87b-d4a7-4c61-b724-cb12d0f26f02,Pașcani (Gara),47.253449,26.725498,PAS,,,,,,,Europe/Bucharest,
eb218fad-892e-4caa-a7bb-c6dc58e19a83,Pedaso,43.097397,13.840712,PED,,,,,,,Europe/Rome,
6094912e-6c7a-4eb8-a77f-95376e17db7b,Pedras Salgadas,41.543306,-7.6025,PGD,,,,,,,Europe/Lisbon,
dc2d677c-7c82-45d9-8fa4-71681c7299fb,Penafiel,41.202823,-8.287803,PFL,,,,,,,Europe/Lisbon,
9b6b30a4-3ecb-11ea-8017-02437075395e,Peniche (Bus Station),39.360474,-9.375273,PNE,,,,,,,Europe/Lisbon,
b263d907-0165-4fc5-882c-36370072800a,Penrith (Brunswick Road),54.664401,-2.757418,PBR,,,,,,,Europe/London,
dcc0cbed-9603-11e6-9066-549f350fcb0c,Perpignan (Central Bus station),42.695021,2.879074,PER,,,,,,,Europe/Paris,
dac25b4d-1e45-4d6b-b3fe-47906aba6737,Perth (Broxden Park & Ride),56.386882,-3.479114,BPR1,,,,,,,Europe/London,
dcc5308a-9603-11e6-9066-549f350fcb0c,Perugia (Piazza Partigiani),43.105678,12.387827,PRG,,,,,,,Europe/Rome,
5103fdce-339e-4ad6-a7d7-353af20bb10f,Pesaro (Palasport),43.904983,12.866685,PES,,,,,,,Europe/Rome,
dcc044a1-9603-11e6-9066-549f350fcb0c,Pescara,42.470014,14.204547,PE,,,,,,,Europe/Rome,
3ab1e66c-6337-4042-a642-d23ae51666f1,Peschici,41.943762,16.017861,PSH,,,,,,,Europe/Rome,
dcc46d21-9603-11e6-9066-549f350fcb0c,Peschiera del Garda (Stazione FS),45.438872,10.702388,GRD,,,,,,,Europe/Rome,
2fd2239c-7aa8-446d-bd93-2483ae02561d,Peterborough (Queensgate Bus Station),52.574596,-0.246482,PTBQ,,,,,,,Europe/London,
7053dcdc-c3df-4234-9f2c-8b4c4c97b368,Petrinja autobusno stajalište,45.441601,16.277464,TPE,,,,,,,Europe/Zagreb,
d2a7f870-e90a-466d-8055-080758a3b20c,Petroșani (st. Spital Urgenta),45.408756,23.375112,PTR,,,,,,,Europe/Bucharest,
b4dbd687-0940-406d-88b2-17934e307aa2,Petrčane autobusna stanica,44.193129,15.178754,WPT,,,,,,,Europe/Zagreb,
dcbbf59f-9603-11e6-9066-549f350fcb0c,Pforzheim central bus station (Erbprinzstraße),48.893583,8.707604,PF,,,,,,,Europe/Berlin,
a313438d-009b-41ed-9ab0-f12fe228fb85,Piacenza (Viale Sant'Ambrogio),45.056097,9.702619,PCS,,,,,,,Europe/Rome,
2083144f-489d-4354-8f4a-ca6c46872fc2,Piano Lago,39.199843,16.3135,PDL,,,,,,,Europe/Rome,
1426e90b-c277-4bee-be07-8c79d4465513,Piatra Neamț (Gara),46.928231,26.360571,PAT,,,,,,,Europe/Bucharest,
d1fba741-8204-4a7d-8514-84ae0a572a46,Picerno,40.618501,15.622571,PIC,,,,,,,Europe/Rome,
c1795186-5817-4e63-8d00-a20363fce39f,Piediripa (Macerata),43.275844,13.486051,MCT,,,,,,,Europe/Rome,
293e7f49-e0e6-410e-954c-db5144e2f445,Pietra Ligure,44.150792,8.287251,PRL,,,,,,,Europe/Rome,
36efe1b9-ffb9-4e30-8297-0c377336aa7d,Pietrapaola,39.547742,16.84898,PTP,,,,,,,Europe/Rome,
be9851dc-77c3-4ae7-924a-7afbca29e3f7,Pineto,42.606699,14.064624,NET,,,,,,,Europe/Rome,
dcc2f19d-9603-11e6-9066-549f350fcb0c,Pinggau (Park+Ride Schäffernsteg),47.4243,16.090282,PGG,,,,,,,Europe/Vienna,
a1edc725-deb1-4d4e-95f1-45f44386aad5,Piotrków Tryb. Pl. Niepodległości,51.406778,19.694833,PTY,,,,,,,Europe/Warsaw,
dcbb86aa-9603-11e6-9066-549f350fcb0c,Pirmasens central train station,49.206104,7.598325,PS,,,,,,,Europe/Berlin,
dcc40892-9603-11e6-9066-549f350fcb0c,Pirovac (Jadranska magistrala),43.82123,15.67049,QPV,,,,,,,Europe/Zagreb,
dcc1a1c8-9603-11e6-9066-549f350fcb0c,Pisa (Pietrasantina car park),43.729521,10.389915,PI,,,,,,,Europe/Rome,
dcc53720-9603-11e6-9066-549f350fcb0c,Pistoia,43.929383,10.914857,PIS,,,,,,,Europe/Rome,
66ba1f95-c60a-4e84-a458-49b52b489f53,Pitești (bus station Astra Tours),44.851929,24.885439,PIT,,,,,,,Europe/Bucharest,
5ca08223-3714-4472-8ce8-0028963bd852,Pitlochry (Fishers Hotel),56.703148,-3.73438,PITL,,,,,,,Europe/London,
dcc5105a-9603-11e6-9066-549f350fcb0c,Pitomača,45.948274,17.232248,QPI,,,,,,,Europe/Zagreb,
7b40bec2-d140-494f-801b-d8c5876cddaa,"Piła, Centrum Przesiadkowe",53.145089,16.744931,IAP,,,,,,,Europe/Warsaw,
7126cc94-779b-42bb-b6d9-416f9ed35765,Piškorevci autobusno stajalište,45.251672,18.410325,PKR,,,,,,,Europe/Zagreb,
ba5eeaba-64cd-4c15-98ef-114787d80b20,Plauen station Mitte,50.493209,12.148242,PL,,,,,,,Europe/Berlin,
dcc52192-9603-11e6-9066-549f350fcb0c,Plitvička Jezera,44.881857,15.623422,PVJ,,,,,,,Europe/Zagreb,
cc58ce42-ac6c-4c53-b815-0d7c0fb4897c,Ploce,43.048771,17.434234,WPE,,,,,,,Europe/Zagreb,
328dfb36-935b-4b46-b85c-e55e482271c2,Ploermel (Réhumpol Bus Station),47.926956,-2.385393,POE,,,,,,,Europe/Paris,
dcc2b031-9603-11e6-9066-549f350fcb0c,Ploiești (bus station Sud),44.92527,26.026711,QPT,,,,,,,Europe/Bucharest,
e74c94ee-a6d3-4620-b158-dc430a2a273a,Plovdiv Bus Station South,42.135654,24.744214,PVV,,,,,,,Europe/Sofia,
f603367b-dbd0-4145-bff5-9b1540cf129e,Plymouth Coach Station,50.372771,-4.14366,PLY,,,,,,,Europe/London,
dcbd8d4c-9603-11e6-9066-549f350fcb0c,Plzeň (central bus station),49.746366,13.36309,PIL,,,,,,,Europe/Prague,
cd5154fe-df36-43ea-985a-d2f64e54ce9a,"Pobierowo, ul. Jana z Kolna",54.060083,14.934083,POB,,,,,,,Europe/Warsaw,
ce3840a2-a36a-43a3-8653-1afc30798571,Podača,43.123705,17.302363,QPOD,,,,,,,Europe/Zagreb,
e684fb12-006d-4590-b726-6260fef2baa8,Podgora,43.236842,17.078928,YPO,,,,,,,Europe/Zagreb,
4eb07f6e-a6ca-4a9b-ac02-0deba68670bb,Podorljak autobusno stajalište,43.530374,16.027299,QPX,,,,,,,Europe/Zagreb,
032b1b13-fcd7-4969-90e0-0d93405c33ff,Podstrana,43.489486,16.543315,WPS,,,,,,,Europe/Zagreb,
dcc58d6e-9603-11e6-9066-549f350fcb0c,Poggibonsi,43.468264,11.153432,PGS,,,,,,,Europe/Rome,
b274feec-7748-4685-8a4c-87d21d9cab55,"Pogorzelica, Wojska Polskiego",54.102361,15.114528,POG,,,,,,,Europe/Warsaw,
dcc17ff6-9603-11e6-9066-549f350fcb0c,Poitiers (Central bus station),46.584507,0.335627,POI,,,,,,,Europe/Paris,
03bba251-22ce-4702-ab45-d9e7c57a75c1,"Polanica-Zdrój, Dworzec Autobusowy",50.40822,16.51524,PZD,,,,,,,Europe/Warsaw,
dcc4c177-9603-11e6-9066-549f350fcb0c,Polača,44.016121,15.518289,QPL,,,,,,,Europe/Zagreb,
f37843e8-a89d-44a4-b066-d54b09608ec0,"Polańczyk, ul. Zdrojowa",49.372061,22.431195,PAK,,,,,,,Europe/Warsaw,
0e69120c-6009-4f78-94fd-2775c262d198,Polch commuter parking,50.31181,7.304837,PLC,,,,,,,Europe/Berlin,
ebf9a7c6-f4e7-4dde-9e39-930ba33e25b3,Policoro,40.208574,16.671773,POC,,,,,,,Europe/Rome,
dcc45e3d-9603-11e6-9066-549f350fcb0c,Polignano a Mare,40.991186,17.217068,POL,,,,,,,Europe/Rome,
dcc4cde6-9603-11e6-9066-549f350fcb0c,Poličnik,44.171362,15.375192,QPN,,,,,,,Europe/Zagreb,
b9d3dbfb-93c5-4e5c-ac02-909d177e47d0,"Polkowice, ul. Młyńska",51.5065,16.065306,POK,,,,,,,Europe/Warsaw,
45f3f5f5-b140-4d71-9647-f277c170399f,Polla,40.517085,15.504507,LLP,,,,,,,Europe/Rome,
9b6b9091-3ecb-11ea-8017-02437075395e,Poltava (Bus Station-1),49.566602,34.490733,PTV,,,,,,,Europe/Kyiv,
ea6ad3dc-6d9b-481d-b360-b8db86b3e941,Pombal (Bus Station),39.916254,-8.631469,OMB,,,,,,,Europe/Lisbon,
dcc46f5f-9603-11e6-9066-549f350fcb0c,Pompei,40.748023,14.505355,POM,,,,,,,Europe/Rome,
4dd18a88-01aa-44ce-a9b8-1d7c3fbcea0a,Ponte de Lima (Bus Station),41.759879,-8.579715,PTL,,,,,,,Europe/Lisbon,
747c651a-3484-42ff-9d01-652fe032dee7,Poprad (bus station),49.059098,20.29316,POP,,,,,,,Europe/Bratislava,
1fb675f9-1740-4352-9414-5abfab90ccbe,Pordenone,45.957506,12.653739,POR,,,,,,,Europe/Rome,
dcc409a1-9603-11e6-9066-549f350fcb0c,Poreč bus station,45.224498,13.597662,QPC,,,,,,,Europe/Zagreb,
6c5dddd8-8db9-43d2-b659-6e0e350b5aaf,"Pori, Travel Center",61.477867,21.788841,PCO,,,,,,,Europe/Helsinki,
3d3b4c58-6834-4deb-b63d-24151c219981,Port Aventura World,41.087066,1.145952,PAW,,,,,,,Europe/Madrid,
d61f071b-881a-455f-811f-7bb2b48d323c,Port Talbot Bus Station,51.595779,-3.786187,PTAL,,,,,,,Europe/London,
5cf3c8bb-5abd-478e-8f43-0a13bc8ef3a5,Portimao,37.14705,-8.535018,PIM,,,,,,,Europe/Lisbon,
cd022a5c-a591-46fe-86a1-f7ca0ebbaf37,Porto (TIC - Campanhã),41.151826,-8.582975,PGA,,,,,,,Europe/Lisbon,
dcc4ccdf-9603-11e6-9066-549f350fcb0c,Posedarje,44.217132,15.465393,QPS,,,,,,,Europe/Zagreb,
dcc3f45a-9603-11e6-9066-549f350fcb0c,Potenza,40.629093,15.807061,PTZ,,,,,,,Europe/Rome,
17c7c138-25ba-4a6f-93eb-9ec72e7c82ab,Potpoletnica,43.418317,16.901648,WPO,,,,,,,Europe/Zagreb,
dcbf89f9-9603-11e6-9066-549f350fcb0c,Potsdam central train station,52.39055,13.06755,P,,,,,,,Europe/Berlin,
9aeb6d7b-f31a-4fae-afc9-045ad99dd39e,Považská Bystrica (bus station),49.119225,18.424145,PBY,,,,,,,Europe/Bratislava,
9ebfe75d-ccd5-4cb9-a635-e657f783b240,Povoa do Varzim (Bus Station),41.389045,-8.759412,PVR,,,,,,,Europe/Lisbon,
dcc3dad0-9603-11e6-9066-549f350fcb0c,"Poznań, Dworzec Autobusowy Poznań Główny",52.402757,16.913948,POZ,,,,,,,Europe/Warsaw,
01aed0f1-7c53-4dc4-9aeb-e55289d10605,Pozzallo,36.729335,14.850325,PZO,,,,,,,Europe/Rome,
dcbc6452-9603-11e6-9066-549f350fcb0c,Prague (Central Bus Station Florenc),50.089346,14.44005,PRA,,,,,,,Europe/Prague,
dcc2de9d-9603-11e6-9066-549f350fcb0c,Prato (Piazzale Del Museo),43.859506,11.107381,PO,,,,,,,Europe/Rome,
dcbfe25d-9603-11e6-9066-549f350fcb0c,Prerow,54.442541,12.577683,PRE,,,,,,,Europe/Berlin,
f3eaf6bb-7ef1-4e71-95a8-846659aa15ff,Preston Bus Station,53.761161,-2.696224,PRES,,,,,,,Europe/London,
3843dac0-05d1-4f85-880f-6cc5e2effdb2,Prešov (bus station),48.984528,21.250421,PRS,,,,,,,Europe/Bratislava,
aebdc60f-bd62-4639-ae54-7174d8c63b1d,Prgomet,43.607838,16.221477,QPG,,,,,,,Europe/Zagreb,
34151961-f5e6-41f6-9058-41b7eb880f3a,Prievidza (bus station),48.774437,18.617439,P1T,,,,,,,Europe/Bratislava,
dcc52045-9603-11e6-9066-549f350fcb0c,Primošten (Zagrebačka ulica),43.588196,15.925508,QPR,,,,,,,Europe/Zagreb,
60fb6831-0b44-455c-af34-4b4a936f9139,Prolozac,43.474908,17.142487,WPZ,,,,,,,Europe/Zagreb,
621440df-5228-4d5d-affa-19ad20d40abc,Promajna autobusno stajalište,43.338457,16.974956,QRX,,,,,,,Europe/Zagreb,
d27fcd0f-ee6d-4b0c-9e19-6cbc48e48419,Prora (Galileo Wissenswelt),54.441542,13.565556,PRO,,,,,,,Europe/Berlin,
a07c578b-a453-44ef-b30e-54cbe54b1746,Prosika autobusno stajalište,43.845248,15.622344,QPY,,,,,,,Europe/Zagreb,
42e28a9a-55a1-4c29-ab09-67a796de1e6b,Prpusa,43.4797,16.930674,WPR,,,,,,,Europe/Zagreb,
5e6e0763-74d9-4b71-a3ea-e5057aaf9dc4,"Przemyśl, Dworzec Autobusowy",49.784125,22.775361,PRM,,,,,,,Europe/Warsaw,
b9e76e4b-d18d-4374-8c42-baa7556caef7,Ptuj - Ormoska,46.41696,15.880324,PJO,,,,,,,Europe/Ljubljana,
e1cc2436-9564-4a05-a14a-6eac1136b619,Puebla de Sanabria,42.05652,-6.638411,PBL,,,,,,,Europe/Madrid,
083d4cea-9200-4525-8ebc-f87c4deb3891,Puget-sur-Argens,43.456957,6.689371,LPG,,,,,,,Europe/Paris,
dcc40e83-9603-11e6-9066-549f350fcb0c,Pula bus station,44.876111,13.855089,QPA,,,,,,,Europe/Zagreb,
8ba5f49e-11fc-4139-a3a4-538136b518b9,"Pustkowo, Kamieńska",54.066278,14.970306,PUS,,,,,,,Europe/Warsaw,
4bc0357d-c2bb-43d4-b192-205dd1d771a5,Putignano,40.849832,17.120046,PUT,,,,,,,Europe/Rome,
dcbd9091-9603-11e6-9066-549f350fcb0c,Puttgarden ferry terminal,54.50082,11.225913,PTF,,,,,,,Europe/Berlin,
56cd648e-d77c-41b6-9255-cf8e4cd064c9,"Pułtusk, ul. Nowy Rynek",52.700975,21.086261,PUK,,,,,,,Europe/Warsaw,
820e3a43-ee44-4b9c-a989-a5a53de2148d,"Pyrzowice, Port Lotniczy Katowice",50.470164,19.073541,PWO,,,,,,,Europe/Warsaw,
9b6b06e0-3ecb-11ea-8017-02437075395e,"Pärnu, Central Bus Station",58.38587,24.5049,PBJ,,,,,,,Europe/Tallinn,
ec04463a-f51e-4ac0-b2ab-cffe3753c993,Périgueux (Créavallée Nord),45.143126,0.698508,PGX,,,,,,,Europe/Paris,
33569ae9-a1fc-46c1-a00f-51e558e58b12,Písek (bus station),49.2995,14.14612,PSK,,,,,,,Europe/Prague,
0d69483a-e42b-4723-bbbc-b1f8c6f5259c,"Płock, Dworzec Autobusowy",52.552347,19.711879,PLK,,,,,,,Europe/Warsaw,
9b6a6831-3ecb-11ea-8017-02437075395e,"Płońsk, ul. Warszawska 01",52.617945,20.381819,PNK,,,,,,,Europe/Warsaw,
100142d9-6a1a-40e3-9094-e8c233d9e028,Příbor (u kostela),49.640877,18.140665,PRB1,,,,,,,Europe/Prague,
cc047c57-723b-425a-95d5-eb82e10de783,Quarteira (Bus Station),37.067835,-8.10029,QUA,,,,,,,Europe/Lisbon,
d19c4773-4b0e-4af9-8901-86d8234ae90f,Quiberon (SNCF Station),47.486128,-3.118777,QBN,,,,,,,Europe/Paris,
dcc27994-9603-11e6-9066-549f350fcb0c,Quimper (Central Bus Station),47.994691,-4.093783,QUP,,,,,,,Europe/Paris,
cc3d90e3-e2d9-4d4d-9a07-fc286104d757,"Rabka-Zdrój, Dworzec Busów",49.6109,19.962514,RKZ,,,,,,,Europe/Warsaw,
6caf963e-0be6-4925-abab-6a5931666154,"Radom, WPA PKS Radom",51.392653,21.158228,RDO,,,,,,,Europe/Warsaw,
9b6baec5-3ecb-11ea-8017-02437075395e,Radzyn Podlaski Dworzec Autobusowy,51.779268,22.621191,RPD,,,,,,,Europe/Warsaw,
fb7fac57-0d40-47a7-a657-a78edf9f3c1a,Ragusa,36.91447,14.72133,RAA,,,,,,,Europe/Rome,
a2d18264-006e-4d3b-a31b-afa78383696d,"Raisio, Keskusta",60.486518,22.16681,RRO,,,,,,,Europe/Helsinki,
e5b278a7-4094-47c8-b720-371091afcb0c,Randers FlixBus stop  (Busterminal),56.458532,10.039803,RAN,,,,,,,Europe/Copenhagen,
9b68120f-3ecb-11ea-8017-02437075395e,Rastatt central bus station,48.860507,8.21456,RSZ,,,,,,,Europe/Berlin,
12f164ce-0d46-49e2-8aa3-a491ef630af5,"Rauma, Bus Station",61.130634,21.511702,ABO,,,,,,,Europe/Helsinki,
dcc2d17a-9603-11e6-9066-549f350fcb0c,Ravenna,44.418605,12.228604,RA,,,,,,,Europe/Rome,
dcbca2cf-9603-11e6-9066-549f350fcb0c,Ravensburg ZOB,47.785822,9.607206,RAV,,,,,,,Europe/Berlin,
9b6a76ed-3ecb-11ea-8017-02437075395e,"Rawa Mazowiecka, Dworzec Autobusowy",51.767081,20.247659,RWA,,,,,,,Europe/Warsaw,
69b55441-6330-4ed4-b03d-b7344d92a0e0,Razgrad bus station,43.522541,26.533253,RAZ,,,,,,,Europe/Sofia,
20423e1a-67d7-4877-80bd-2f96c8017f3e,Reading (Mereoak Park and Ride),51.406028,-0.980073,REP,,,,,,,Europe/London,
dcbbf708-9603-11e6-9066-549f350fcb0c,Regensburg central train station,49.012488,12.097515,R,,,,,,,Europe/Berlin,
c1ea7c16-046e-4281-aad8-7bcb5366383f,Reggio Calabria,38.103086,15.636148,RLR,,,,,,,Europe/Rome,
dcc19dfb-9603-11e6-9066-549f350fcb0c,Reggio Emilia central bus station,44.699154,10.642623,RGE,,,,,,,Europe/Rome,
3e8cfaff-4b9e-4b23-90f0-4b231bd190b9,Reghin (Autogara Tram),46.780605,24.718824,REG,,,,,,,Europe/Bucharest,
dcbfeac0-9603-11e6-9066-549f350fcb0c,Reims - Champagne Ardenne TGV,49.215159,3.994506,RCA,,,,,,,Europe/Paris,
dcc365c5-9603-11e6-9066-549f350fcb0c,Remscheid (Station Lennep),51.189902,7.253731,RLP,,,,,,,Europe/Berlin,
f8f1b312-8934-49cd-b2d7-814dc33494a9,Rende (Cosenza Nord),39.353548,16.237665,CNQ,,,,,,,Europe/Rome,
dcbfe866-9603-11e6-9066-549f350fcb0c,Rendsburg central bus station,54.30291,9.667399,REN,,,,,,,Europe/Berlin,
dcc0cced-9603-11e6-9066-549f350fcb0c,Rennes (Central bus station),48.103896,-1.670617,RNS,,,,,,,Europe/Paris,
dcbf88ee-9603-11e6-9066-549f350fcb0c,Reutlingen central bus station,48.49614,9.211314,RTL,,,,,,,Europe/Berlin,
3a9ad0a4-906d-45e9-a3fa-5a1cef265081,Revúca (bus station),48.682758,20.114712,R1A,,,,,,,Europe/Bratislava,
5121dbce-c3d6-4c02-b5f5-875334a0006c,"Rewal, ul. Westerplatte",54.081333,15.016667,REW,,,,,,,Europe/Warsaw,
4369afd1-c753-4d31-a6d3-0a6d22c67845,Rheinfelden (Baden) station,47.556803,7.785123,RHN,,,,,,,Europe/Berlin,
c17cd02c-d147-48f8-8a09-9566d1af13f9,Riccione (Piazzale Curiel),44.003507,12.659573,RIE,,,,,,,Europe/Rome,
9b6b069d-3ecb-11ea-8017-02437075395e,Riga Bus Station,56.943746,24.111686,RI5,,,,,,,Europe/Riga,
dcc297e0-9603-11e6-9066-549f350fcb0c,Rijeka bus station,45.327907,14.436863,QRJ,,,,,,,Europe/Zagreb,
27dfbf3c-7e48-4020-ab99-597897341f90,Rimavská Sobota (bus station),48.383995,20.028439,RIS,,,,,,,Europe/Bratislava,
dcc03c6e-9603-11e6-9066-549f350fcb0c,Rimini (Centro Studi),44.049722,12.582369,RN,,,,,,,Europe/Rome,
9b6c11cd-3ecb-11ea-8017-02437075395e,Ringe (Hovedvejen),55.236216,10.490441,RIH,,,,,,,Europe/Copenhagen,
9b693086-3ecb-11ea-8017-02437075395e,Ringkøbing St.,56.092129,8.250853,RIG,,,,,,,Europe/Copenhagen,
bf7c4cc7-4727-4e9c-aa08-2379dad479d2,Rive de Gier,45.542554,4.642763,IVG,,,,,,,Europe/Paris,
ca1e29f6-63b5-416c-b670-b1655e2c30d8,Rivne (Bus Station),50.614662,26.282771,RIW,,,,,,,Europe/Kyiv,
dcc2f416-9603-11e6-9066-549f350fcb0c,Roanne (Central bus station),46.039094,4.062023,ROA,,,,,,,Europe/Paris,
24780ea5-5cfe-40d1-9801-8079eca988f5,Roccaraso,41.85512,14.069126,RSO,,,,,,,Europe/Rome,
dcc4fc86-9603-11e6-9066-549f350fcb0c,Rochefort,45.947043,-0.963174,ROC,,,,,,,Europe/Paris,
b575ef35-971b-49d6-a159-9975f7469842,Rodange,49.541185,5.814841,RDE,,,,,,,Europe/Luxembourg,
5287cbe4-dbc7-4e16-9eeb-003cbf50cc55,Rodi Garganico,41.926681,15.87824,RDI,,,,,,,Europe/Rome,
4a33c410-d993-4a30-92b2-ab5441ca1f83,Roermond (Station),51.193256,5.993563,RMD,,,,,,,Europe/Amsterdam,
49937066-9473-495a-906b-06f0d80bb1db,Rogotin autobusno stajalište,43.04591,17.477554,QRT,,,,,,,Europe/Zagreb,
b74bca50-be1b-4ddd-8448-da461daac44c,"Rogowo 11T, 12T",54.15054,15.336403,ROG,,,,,,,Europe/Warsaw,
dcc51efe-9603-11e6-9066-549f350fcb0c,Rogoznica,43.541145,15.96892,QRG,,,,,,,Europe/Zagreb,
0f2b8ebb-c477-401b-b6ef-cccd0b0a757e,Rokovci autobusno stajalište,45.228247,18.741592,WRC,,,,,,,Europe/Zagreb,
70d041cd-544b-4878-8e93-51f9456ba7b1,Roman (Gara),46.934875,26.920658,RMN,,,,,,,Europe/Bucharest,
ce5af29e-fad4-48cb-a0e9-2bb4970f5522,Rome Anagnina,41.842307,12.587723,RMA,,,,,,,Europe/Rome,
7e25a3ff-a8f7-41b6-a895-e5e73b1047a8,Rome Ciampino Airport,41.798908,12.590829,CIA,,,,,,,Europe/Rome,
0596ef1c-bd52-4f7c-9a40-68d40aadb0dc,Rome Fiumicino Airport,41.794331,12.250398,FCO,,,,,,,Europe/Rome,
dcbd9538-9603-11e6-9066-549f350fcb0c,Rome Tiburtina Bus station,41.909362,12.528317,ROM,,,,,,,Europe/Rome,
01d5c260-ef8b-42c7-9a1d-e163ce3c5ccf,"Ropczyce, Dworzec Autobusowy",50.053013,21.604808,RCZ,,,,,,,Europe/Warsaw,
89f97411-0dc8-467b-be5a-92c0c369091d,Rosarno,38.477917,15.994237,RSN,,,,,,,Europe/Rome,
f04160ce-2883-4c35-b76a-abb4409e415e,Rosenheim station,47.851028,12.119389,ROB,,,,,,,Europe/Berlin,
1c4a09ea-797b-443b-b891-1479aabefb00,Roseto degli Abruzzi (stazione FS) - direz. Sud,42.677433,14.014338,ZRZ,,,,,,,Europe/Rome,
12dcaef9-7add-4d68-9d36-1c3a415afe61,Rosiorii de Vede,44.114187,24.988923,ROSI,,,,,,,Europe/Bucharest,
7426bc08-a1e2-4b50-9f54-eafb3a7c18a7,Roskilde Festival,55.617837,12.092748,RFE,,,,,,,Europe/Copenhagen,
0dde91f3-228e-4b26-a7e3-a98dfbb91564,Rossano,39.602808,16.640648,RNO,,,,,,,Europe/Rome,
dcbb121a-9603-11e6-9066-549f350fcb0c,Rostock central bus station,54.076458,12.130252,HRO,,,,,,,Europe/Berlin,
dcbfe5ff-9603-11e6-9066-549f350fcb0c,Rotterdam Central Station,51.923584,4.466564,RTM,,,,,,,Europe/Amsterdam,
04db6ed7-70dc-42cf-bcc9-76a3127d25b4,Rouen (Avenue Champlain),49.434194,1.092699,RAC,,,,,,,Europe/Paris,
d0fb9c6e-6ae2-41f8-b206-a8a89851eb23,Rovereto,45.891387,11.034533,RVT,,,,,,,Europe/Rome,
dcc61067-9603-11e6-9066-549f350fcb0c,Rovigo (Piazza Riconoscenza),45.075378,11.781744,RVG,,,,,,,Europe/Rome,
a5405361-ef16-4e66-a624-09b54be11b20,Rovinari,44.899743,23.15967,RVN,,,,,,,Europe/Bucharest,
dcc40fd4-9603-11e6-9066-549f350fcb0c,Rovinj bus station,45.080724,13.638708,QVJ,,,,,,,Europe/Zagreb,
9a147bb5-74ad-4858-9760-65bb5af509c6,"Rowy, Centrum",54.664788,17.051843,RO1,,,,,,,Europe/Warsaw,
dcc489fa-9603-11e6-9066-549f350fcb0c,Roye (Péage),49.706844,2.769223,ROY,,,,,,,Europe/Paris,
c94ce7cb-ae4e-46a4-aabf-027d21df7ea2,"Rozewie, latarnia",54.829271,18.332392,RZW,,,,,,,Europe/Warsaw,
353b13f2-838a-4496-a305-ce8dafc05241,Rožňava (bus station),48.660379,20.534876,R1Z,,,,,,,Europe/Bratislava,
9b6a520f-3ecb-11ea-8017-02437075395e,"Ruciane-Nida, ul. Dworcowa",53.649305,21.563087,RUI,,,,,,,Europe/Warsaw,
9b6c11ea-3ecb-11ea-8017-02437075395e,Rudkøbing Færge Terminal,54.937373,10.704131,RUF,,,,,,,Europe/Copenhagen,
1a7ab23b-9928-48c8-bdf7-83a195d847ed,Rudkøbing v. Ringvejen,54.940851,10.721777,RUD,,,,,,,Europe/Copenhagen,
1b68f18d-e9c5-40dd-94b7-2b09ebe6d57c,Ruma NAS,44.990184,19.825705,RUM,,,,,,,Europe/Belgrade,
a3ea33ad-d6fb-4845-8b82-6c14f0092615,Ruse (Centralna Avtogara),43.83491,25.957792,RUS,,,,,,,Europe/Sofia,
71e6af4a-767d-496a-be7e-6e1218710abe,Ruskamen,43.409512,16.748202,WRK,,,,,,,Europe/Zagreb,
dcbac180-9603-11e6-9066-549f350fcb0c,Rust (Europa park),48.269733,7.721382,EPR,,,,,,,Europe/Berlin,
a96ea6e8-c3e1-4202-9dcf-5024649a7cec,Ruvo di Puglia,41.115185,16.492845,RdP,,,,,,,Europe/Rome,
c050b24a-adf6-4a08-8be2-738431127b35,Ružomberok (bus station),49.083531,19.307875,RUZ,,,,,,,Europe/Bratislava,
58d286ae-de57-4ebd-b08f-f53052e3c481,"Rybnik, Dworzec Autobusowy",50.101153,18.533637,RYB,,,,,,,Europe/Warsaw,
9b6a689f-3ecb-11ea-8017-02437075395e,"Ryki, Dworzec Autobusowy",51.623631,21.934257,Ryki,,,,,,,Europe/Warsaw,
9b6a369a-3ecb-11ea-8017-02437075395e,"Ryn, Plac Wolności 01/02",53.938435,21.544509,RYN,,,,,,,Europe/Warsaw,
1e654961-92b5-4486-af65-bb2da87c91c9,Rzeszow (Rzeszów) Jasionka Airport,50.115474,22.026036,RJL,,,,,,,Europe/Warsaw,
dcc3ea96-9603-11e6-9066-549f350fcb0c,"Rzeszów, Dworzec Lokalny",50.043069,21.994399,RZS,,,,,,,Europe/Warsaw,
edd3a226-9490-42b5-83fa-8644dd39b806,Râmnicu Sărat (bus stop Turist),45.382182,27.038359,RAM,,,,,,,Europe/Bucharest,
aed47b44-fccd-4f0a-8e59-4595e2d6d548,Râmnicu Vâlcea (bus station Antares Transport),45.096526,24.365063,RVA,,,,,,,Europe/Bucharest,
797f7617-7fb8-4e62-ac7d-9eca293b69df,"Różan, ul. Przemysłowa",52.88771,21.387715,RZN,,,,,,,Europe/Warsaw,
dcbd93dd-9603-11e6-9066-549f350fcb0c,Rødbyhavn (ferry terminal),54.655054,11.354309,ROD,,,,,,,Europe/Copenhagen,
dcbba89b-9603-11e6-9066-549f350fcb0c,Saarbrücken bus station (Dudweilerstraße),49.242021,6.999785,SB,,,,,,,Europe/Berlin,
e5e07072-d722-4c1a-8fd2-62bf15cacdae,Sabunike autobusna stanica,44.256005,15.155408,WSA,,,,,,,Europe/Zagreb,
dcc30f95-9603-11e6-9066-549f350fcb0c,Saint-Brieuc (Central bus station),48.507021,-2.767777,SBC,,,,,,,Europe/Paris,
9b6a17a2-3ecb-11ea-8017-02437075395e,Saint-Cyr-l'Ecole (Versailles),48.800416,2.0753,SCY,,,,,,,Europe/Paris,
dcc218d0-9603-11e6-9066-549f350fcb0c,Saint-Dizier,48.625909,4.96473,SDZ,,,,,,,Europe/Paris,
e60e7aef-2167-4d59-b977-dded267d9ec0,Saint-Gervais-les-Bains - Le Fayet,45.906032,6.701282,SGV,,,,,,,Europe/Paris,
dcc0d812-9603-11e6-9066-549f350fcb0c,Saint-Jean-de-Luz (Central bus station),43.386359,-1.660108,STJ,,,,,,,Europe/Paris,
1b0eb969-7c8e-4242-b5c8-75124d37763a,Saint-Malo (Office de Tourisme),48.650082,-2.021857,SAMO,,,,,,,Europe/Paris,
dcc19252-9603-11e6-9066-549f350fcb0c,Saint-Étienne,45.4425,4.402861,SET,,,,,,,Europe/Paris,
b9242fb9-fc4b-408b-9fe8-7f251feb3430,Sainte-Maxime,43.315205,6.633225,STX,,,,,,,Europe/Paris,
6b59be1c-aa16-4a2b-a018-2c24d01639a7,Saintes (Hyper U - Brûlerie),45.755492,-0.651536,STS,,,,,,,Europe/Paris,
4d67487b-abf1-42ff-9cae-ac7028fc619d,Sala Consilina,40.421664,15.555367,SAC,,,,,,,Europe/Rome,
432e742d-77dc-496d-a84a-22da6809cddd,Salamanca (Bus Station),40.97042,-5.674751,SMC,,,,,,,Europe/Madrid,
dcc31543-9603-11e6-9066-549f350fcb0c,Salerno (Piazza Concordia),40.673844,14.770179,SA,,,,,,,Europe/Rome,
1d32d03d-3567-4dbf-8647-7652e7432480,Sallanches (Bus Station),45.935543,6.636226,SAH,,,,,,,Europe/Paris,
28b5d473-7c30-4519-803e-61a602e63c42,"Salo, Bus Station",60.387388,23.121359,SBU,,,,,,,Europe/Helsinki,
f024d8e2-1c0e-47b4-bf0c-25e3921dc136,Salzburg South (Hellbrunner Landesstraße),47.76996,13.070769,SZB,,,,,,,Europe/Vienna,
dcbd9abc-9603-11e6-9066-549f350fcb0c,Salzgitter (Rathaus Lebenstedt),52.15607,10.32664,SZL,,,,,,,Europe/Berlin,
dcc3ecbd-9603-11e6-9066-549f350fcb0c,San Benedetto del Tronto (Piazza Cesare Battisti 5/7),42.949909,13.87727,SBN,,,,,,,Europe/Rome,
7517c5e5-6dff-4165-ab20-4d68b51bafb3,San Candido,46.734521,12.278827,SCD,,,,,,,Europe/Rome,
b00e4b5d-48fd-470a-bc52-338029c2dc70,San Giovanni Rotondo,41.70701,15.724553,SGR,,,,,,,Europe/Rome,
2f39d1bc-a64e-4928-a525-0d7b3f0f1f77,San Giovanni in Fiore,39.260602,16.70025,SGF,,,,,,,Europe/Rome,
c9bb7204-cf93-4384-a108-8e48468266de,San Lorenzo al mare,43.853478,7.963904,SZN,,,,,,,Europe/Rome,
d7d2254f-9f69-4dd4-81f7-61804f4c449b,San Salvo Marina,42.067334,14.775111,SSA,,,,,,,Europe/Rome,
dcc17134-9603-11e6-9066-549f350fcb0c,San Sebastian / Donostia (Bus Station),43.317169,-1.977218,SSD,,,,,,,Europe/Madrid,
dcc3be82-9603-11e6-9066-549f350fcb0c,San Severo,41.684741,15.391742,SSV,,,,,,,Europe/Rome,
dcc563b8-9603-11e6-9066-549f350fcb0c,San Vito di Cadore,46.463849,12.204677,SVT,,,,,,,Europe/Rome,
bd9c9806-3719-4e7d-9b45-b17a82c093b5,Sandanski,41.553273,23.27195,SNY,,,,,,,Europe/Sofia,
9b684777-3ecb-11ea-8017-02437075395e,Sandnes (Ruten),58.851443,5.736632,SANS,,,,,,,Europe/Oslo,
cb29d5ce-e770-47f5-83b9-8aa9c256fd7f,"Sandomierz, Dworzec Autobusowy",50.689508,21.741598,SNO,,,,,,,Europe/Warsaw,
dcc2863e-9603-11e6-9066-549f350fcb0c,Sankt Pölten (Mariazeller Straße),48.182846,15.616461,QSP,,,,,,,Europe/Vienna,
57d3184a-4eb8-4b89-a7cc-febbd006e843,"Sanok, Dworzec Multimodalny",49.552334,22.210646,SN2,,,,,,,Europe/Warsaw,
b078a735-53a2-4886-a40a-c6158bec8c5d,Sanremo,43.814235,7.771807,SRM,,,,,,,Europe/Rome,
104eae26-96ca-4e1e-95c7-38bb0a6ce48d,Sant'Agnello,40.630269,14.398599,GNL,,,,,,,Europe/Rome,
b7830fdb-cf38-4f84-88ad-eb34a33451d4,Santa Comba Dao,40.397535,-8.129588,COB,,,,,,,Europe/Lisbon,
d80ecb6a-d45f-40dc-ab17-dc789cc6eb50,Santa Maria degli Angeli (Palina Baltour),43.056355,12.577568,SMG,,,,,,,Europe/Rome,
68769316-8849-4100-996a-259dd34dccdd,Santander (Bus Station),43.459177,-3.809943,SND,,,,,,,Europe/Madrid,
0ba408f8-91e0-4718-aac8-8026e4b11e21,Santarem,39.236241,-8.687867,SAN,,,,,,,Europe/Lisbon,
37cef2cb-4233-4e38-8313-39314025cdd0,Santhià (motorway A4 westbound),45.38197,8.137976,SNW,,,,,,,Europe/Rome,
1b753e9f-d9e5-4af7-b75f-183b191c4884,Santiago de Compostela (Bus Station),42.87058,-8.543415,SDC,,,,,,,Europe/Madrid,
6277b087-c7b9-4781-b653-c0c05ebe5e6e,Sao Joao da Madeira,40.897647,-8.493977,SJA,,,,,,,Europe/Lisbon,
5040526c-38a5-4f8f-917e-71b14848544b,Sarbinowo Pętla,54.248396,15.94826,SAW,,,,,,,Europe/Warsaw,
9b6a642c-3ecb-11ea-8017-02437075395e,Sarny (Bus Station),51.32175,26.620291,SRNY,,,,,,,Europe/Kyiv,
226c7112-13d5-4f88-b6dc-a6c0290d800d,Saronno,45.625692,9.031313,SRN,,,,,,,Europe/Rome,
28722d45-d75a-4e21-a285-14c3ba6c7897,Sarpsborg E6 Lekevollkrysset,59.296634,11.066894,SAP,,,,,,,Europe/Oslo,
abde0819-81c4-42bf-a9a3-bfce6037523c,Satu Mare (Autogara Orizont),47.795309,22.892217,QSM,,,,,,,Europe/Bucharest,
dcc2eadc-9603-11e6-9066-549f350fcb0c,Saumur Nord -Vivy,47.310084,-0.031614,SAU,,,,,,,Europe/Paris,
dcc47058-9603-11e6-9066-549f350fcb0c,Savona (Stazione FS),44.307071,8.4714,SVN,,,,,,,Europe/Rome,
7dd0f84c-5b52-4f96-8f23-34b069dd01bb,Scalea,39.815456,15.788069,CLE,,,,,,,Europe/Rome,
2b0df609-2f71-4b85-acb8-58c783da59cc,Scerne,42.644264,14.039652,ENE,,,,,,,Europe/Rome,
2cad1f73-b3a5-44bd-a6cd-22f24e67d9a5,Schaffhausen station,47.698117,8.631738,SHS,,,,,,,Europe/Zurich,
6be63440-a409-4955-a59b-91ad97754ed3,Schiavonea,39.651576,16.540554,CGS,,,,,,,Europe/Rome,
dcbc8aa6-9603-11e6-9066-549f350fcb0c,Schleiz (Industriestraße),50.55203,11.79002,SCZ,,,,,,,Europe/Berlin,
dcbfe98b-9603-11e6-9066-549f350fcb0c,Schleswig (Schleihallenparkplatz),54.511334,9.5453,SWG,,,,,,,Europe/Berlin,
9b694284-3ecb-11ea-8017-02437075395e,Schmilka (Sächsische Schweiz),50.892067,14.229749,SMK,,,,,,,Europe/Berlin,
b2882c17-7892-4cbb-8fe5-8e22e24a028f,Schongau station,47.812709,10.902026,SGA,,,,,,,Europe/Berlin,
dcbc1905-9603-11e6-9066-549f350fcb0c,Schwandorf bus station,49.32723,12.102584,SAD,,,,,,,Europe/Berlin,
16735da7-6de7-4d29-b279-1baa3acf9c3b,Schwangau (Neuschwanstein Castle),47.556743,10.740918,NSS,,,,,,,Europe/Berlin,
dcbc4acb-9603-11e6-9066-549f350fcb0c,Schweinfurt central train station,50.036072,10.211078,SWF,,,,,,,Europe/Berlin,
dcbbed29-9603-11e6-9066-549f350fcb0c,Schwerin central train station,53.634453,11.408879,SN,,,,,,,Europe/Berlin,
ee77e4bc-51ed-4fd8-b83d-e75bbbbf05ca,Schönefeld station (FlixTrain),52.391041,13.51304,BFHS,,,,,,,Europe/Berlin,
dcc2b35a-9603-11e6-9066-549f350fcb0c,Sebeș (bus station),45.957561,23.579114,QSS,,,,,,,Europe/Bucharest,
dcbbbbc9-9603-11e6-9066-549f350fcb0c,Seefeld (Rosshütte),47.331097,11.199976,SEF,,,,,,,Europe/Vienna,
fd600fa1-26c1-4822-949e-afeecb5efe6d,Seget Donji,43.51889,16.229752,QSG,,,,,,,Europe/Zagreb,
88da56e0-0ec2-4f3b-84d8-4ac4fccc007e,Seia (Bus Station),40.420182,-7.706446,EIA,,,,,,,Europe/Lisbon,
9b6a3dca-3ecb-11ea-8017-02437075395e,"Sejny, ul. Parkowa nr 2528B",54.104643,23.350527,SEJ,,,,,,,Europe/Warsaw,
dcbc16fa-9603-11e6-9066-549f350fcb0c,Selb (Goetheplatz),50.17393,12.12654,SEL,,,,,,,Europe/Berlin,
06bc34fb-f260-4ce4-a157-1d34ba110035,Selce,45.158361,14.723707,YCE,,,,,,,Europe/Zagreb,
dcbc0245-9603-11e6-9066-549f350fcb0c,Sellin (Rügen),54.376064,13.690455,SLN,,,,,,,Europe/Berlin,
15e1d058-c300-4c19-8aef-3bf8b0554781,Senftenberg bus station,51.526191,14.00371,SEN,,,,,,,Europe/Berlin,
dcc45f5b-9603-11e6-9066-549f350fcb0c,Senigallia,43.715824,13.221381,SGL,,,,,,,Europe/Rome,
9eef24b7-206c-4049-85a3-f9208edf8d41,Senj,44.989609,14.90018,SNJ,,,,,,,Europe/Zagreb,
dcc45848-9603-11e6-9066-549f350fcb0c,Serravalle Scrivia (Outlet),44.735223,8.837485,SER,,,,,,,Europe/Rome,
20dfe5a0-347c-4be9-a200-306cd1e7d3f2,Sestanovac,43.453729,16.91095,WSE,,,,,,,Europe/Zagreb,
fa310edc-66bb-417d-bdbf-8b835f65eecc,Setubal (Interface),38.529236,-8.885798,SBL,,,,,,,Europe/Lisbon,
4763b0c9-cd32-4764-acfb-b68f6a2bee21,Seville (Bus Station Plaza de Armas),37.392,-6.004,SLV,,,,,,,Europe/Madrid,
1852b254-b7ec-4aac-9c39-15168f477f51,Sfântu Gheorghe (Autogara),45.864339,25.809717,SFGA,,,,,,,Europe/Bucharest,
9b6bdb9a-3ecb-11ea-8017-02437075395e,Sheffield (Meadowhall Interchange),53.416635,-1.412881,SM,,,,,,,Europe/London,
a3272000-dfa7-4261-8afe-4be336d0c1d5,Shumen (Avtogara),43.270357,26.942369,SHU,,,,,,,Europe/Sofia,
9b6b08ae-3ecb-11ea-8017-02437075395e,Siauliai Bus Station (Šiauliai Busturas),55.927782,23.307675,SIU,,,,,,,Europe/Vilnius,
3b306672-e15d-4c8c-805d-06f392190f4a,Sibari,39.748627,16.45483,SBA,,,,,,,Europe/Rome,
dcc2b64a-9603-11e6-9066-549f350fcb0c,Sibiu (Autogara Turnisor),45.794391,24.130337,QSU,,,,,,,Europe/Bucharest,
a891ebb8-4203-465c-a1e2-d71c5fe66f29,Sicignano,40.61117,15.294439,SCG,,,,,,,Europe/Rome,
dcbc4e77-9603-11e6-9066-549f350fcb0c,Siedlinghausen (Hochsauerlandstraße),51.252743,8.472049,SLH,,,,,,,Europe/Berlin,
dcbba427-9603-11e6-9066-549f350fcb0c,Siegen (Koblenzer Straße),50.872373,8.016938,SI,,,,,,,Europe/Berlin,
9b6a73df-3ecb-11ea-8017-02437075395e,"Siemiatycze, ul. Grodzieńska",52.427941,22.870657,SIZ,,,,,,,Europe/Warsaw,
dcc2789b-9603-11e6-9066-549f350fcb0c,Siena (Stazione FS),43.331378,11.323178,SIE,,,,,,,Europe/Rome,
5961115c-c4dc-4881-ae35-3e424d63a260,Sieradz Dworzec Autobusowy,51.592517,18.726827,SIR,,,,,,,Europe/Warsaw,
d89893da-c095-4894-bffa-a8d621c97224,Sighetu Marmației,47.936388,23.889237,SMA,,,,,,,Europe/Bucharest,
09261e4b-8207-4493-8c69-d93c9f8481c9,Sighișoara (Autogara),46.225825,24.797378,SGH,,,,,,,Europe/Bucharest,
b9506de9-6dce-4c5f-939d-7f97773d52e6,Silkeborg (Station),56.164078,9.54248,SIL,,,,,,,Europe/Copenhagen,
e47657f2-5876-48a4-95fe-cfea1a97eece,"Sillamäe, Bus Station",59.391181,27.773446,IME,,,,,,,Europe/Tallinn,
73b3a549-1208-4656-807b-8e295415473d,Silvi Marina,42.558864,14.109873,IVM,,,,,,,Europe/Rome,
dcbc619e-9603-11e6-9066-549f350fcb0c,Simbach bus station,48.263654,13.024632,SIB,,,,,,,Europe/Berlin,
ec9f3492-3f94-4457-afdd-913074730e8a,Sinaia (railway station),45.353171,25.552767,SNI,,,,,,,Europe/Bucharest,
9b6b2fed-3ecb-11ea-8017-02437075395e,Sines,37.957441,-8.862665,PSI,,,,,,,Europe/Lisbon,
dcc429e1-9603-11e6-9066-549f350fcb0c,Sinj,43.700508,16.643538,QSI,,,,,,,Europe/Zagreb,
fa9594f2-e8e1-4298-ae65-140078b26b5d,Sintra (Portela),38.802432,-9.375881,SIA,,,,,,,Europe/Lisbon,
2b9458e6-b38f-408b-a089-959b61762261,Sion (Rue Traversière),46.22322,7.348153,SON,,,,,,,Europe/Zurich,
539da411-e88f-4532-828f-18a272f5dfd4,Siracusa,37.067844,15.281194,SRC,,,,,,,Europe/Rome,
2e3909ad-1586-4b16-9ad8-47e2872423eb,Sirmione Colombare 201,45.465652,10.606953,SCO,,,,,,,Europe/Rome,
be9f521f-13f2-42ef-a74f-5f1045fa4218,Sisak autobusni kolodvor,45.491861,16.372361,ZSI,,,,,,,Europe/Zagreb,
dcc5b8d6-9603-11e6-9066-549f350fcb0c,Sittensen (Autohof),53.292987,9.503863,SIT,,,,,,,Europe/Berlin,
407849f1-9c67-41c3-a52f-7981eae6feae,Siófok (Bus station),46.907891,18.05542,SIO,,,,,,,Europe/Budapest,
aad96e11-b1d1-478f-b8d8-14e74c36fdde,Skanderborg Station,56.04322,9.92368,SKA,,,,,,,Europe/Copenhagen,
df58bfb5-3ed4-4d17-81b4-a75652a4461f,Skarżysko-Kamienna,51.11613,20.879789,SKK,,,,,,,Europe/Warsaw,
ac37b1d3-5d4e-4181-96b7-89de985cb5b6,Skavsta Airport (General Schybergs Väg),58.78332,16.928749,SKF,,,,,,,Europe/Stockholm,
02a3f868-b028-462c-b7de-ec93bbc0d7d7,Skive Busterminal,56.562333,9.025419,SKV,,,,,,,Europe/Copenhagen,
e5aca33b-daba-4eb8-8ab6-3eac102e71da,Skjelsvik knutepunkt (Porsgrunn),59.094897,9.68787,SKJJ,,,,,,,Europe/Oslo,
32bbaa12-0d2b-4c10-acdb-a4f56f0caacf,Skjern Rutebilstation,55.945992,8.4938,SKJ,,,,,,,Europe/Copenhagen,
dcc5254c-9603-11e6-9066-549f350fcb0c,Skradin,43.817735,15.923945,QSC,,,,,,,Europe/Zagreb,
9976d799-8a18-4282-a256-5190beea8397,Slagelse (Stop 39),55.387566,11.362261,SLG,,,,,,,Europe/Copenhagen,
a85d9f22-8d08-44bb-ac39-7aed114928b6,Slano,42.788268,17.890813,WSO,,,,,,,Europe/Zagreb,
dcc50a22-9603-11e6-9066-549f350fcb0c,Slatina (HR) bus station,45.706352,17.704407,QSL,,,,,,,Europe/Zagreb,
dcc410d7-9603-11e6-9066-549f350fcb0c,Slavonski Brod bus station,45.162829,18.009094,QSD,,,,,,,Europe/Zagreb,
55dd565e-f2d9-493c-9d8b-cadb4ab6b4dc,Slobozia (stadium parking lot),44.561891,27.37279,SLO,,,,,,,Europe/Bucharest,
4c8267fe-19e4-4056-875e-52c4b4c18f73,Smerek,49.176506,22.438094,ERK,,,,,,,Europe/Warsaw,
c167b214-b831-47b1-956a-ac52b7b7bf2d,Snapparp E6 Circle K,56.540974,12.970016,SNAP,,,,,,,Europe/Stockholm,
dcc1910a-9603-11e6-9066-549f350fcb0c,Sofia (Serdika bus station),42.710984,23.322164,SOF,,,,,,,Europe/Sofia,
f847213f-49ad-42ed-bccf-52c91efbe54e,Sokolov (Terminal),50.18552,12.642721,SOK,,,,,,,Europe/Prague,
3515c819-dc5d-4792-8175-3db9e4412323,Solin,43.530477,16.493259,WSI,,,,,,,Europe/Zagreb,
dcc0232e-9603-11e6-9066-549f350fcb0c,Soltau (service area Soltau south),52.94543,9.880908,SFE,,,,,,,Europe/Berlin,
75059d13-6370-4a1e-a2ee-fe510be6f1da,Sopot R,45.279543,18.798848,QSOP,,,,,,,Europe/Zagreb,
db8dec0b-cc98-4f2e-b602-e3365c25852f,"Sopot, PKP Niepodległości 01 i 02",54.438587,18.560716,SOP,,,,,,,Europe/Warsaw,
6123a8c5-3915-4a29-8175-4a357e22ce71,"Sopron, autóbusz-állomás",47.68847,16.586144,S0P,,,,,,,Europe/Budapest,
a19f9e3c-2cee-4a23-8045-1059e9e053fa,Sora (Via pisacane),41.716505,13.616907,SOA,,,,,,,Europe/Rome,
1ee62d71-bfa0-43e6-9f36-f0ebb27a0499,Sorrento,40.626663,14.380087,SRT,,,,,,,Europe/Rome,
427efa4a-627a-40f2-bbcd-0dbaa06e14c9,"Sosnowiec, Dworzec Kolejowy",50.278447,19.127098,SOS,,,,,,,Europe/Warsaw,
95e3a84c-ab07-4cd6-8bcd-8926cd54df76,Spar,43.488349,17.10472,WSP,,,,,,,Europe/Zagreb,
9b6b6b1c-3ecb-11ea-8017-02437075395e,Spišské Podhradie (námestie),49.001413,20.752026,SPE1,,,,,,,Europe/Bratislava,
dcc29b84-9603-11e6-9066-549f350fcb0c,Split bus station,43.504111,16.44279,QS,,,,,,,Europe/Zagreb,
cca8cf2e-23be-4e2a-9dde-37ad1ce98a0b,Splügen (Dorf),46.552262,9.319545,SLE,,,,,,,Europe/Zurich,
dcc4fb63-9603-11e6-9066-549f350fcb0c,Spoleto,42.727677,12.735254,SPT,,,,,,,Europe/Rome,
62dd64f8-af4c-4cf8-9361-48e2f2dfdefc,Spotorno,44.227051,8.416494,SPN,,,,,,,Europe/Rome,
dd7eec2d-406d-44fd-a859-48a63d7f87fd,Srima,43.746343,15.805031,SRMA,,,,,,,Europe/Zagreb,
dcbd9ed5-9603-11e6-9066-549f350fcb0c,St. Gallen train station,47.422274,9.366621,STG,,,,,,,Europe/Zurich,
a20c45ef-c96d-4d98-b19d-060db544838d,St. Gangloff (Kreuzstraße),50.861808,11.857976,SGK,,,,,,,Europe/Berlin,
9b6a6972-3ecb-11ea-8017-02437075395e,"Stalowa Wola, Dworzec Autobusowy",50.56912,22.057438,SWW,,,,,,,Europe/Warsaw,
dcc4c2bb-9603-11e6-9066-549f350fcb0c,Stankovci,43.906909,15.694877,QST,,,,,,,Europe/Zagreb,
9b6b187e-3ecb-11ea-8017-02437075395e,"Stargard, Zintegrowane Centrum Przesiadkowe",53.339156,15.030469,SRD,,,,,,,Europe/Warsaw,
9b6847d0-3ecb-11ea-8017-02437075395e,Stavanger bussterminal,58.966618,5.733116,STAV,,,,,,,Europe/Oslo,
140a2c2c-367b-479c-8982-0a1e465f9d3b,"Stegna, Dworzec Autobusowy",54.326956,19.119207,SDW,,,,,,,Europe/Warsaw,
3b138bf0-0d31-49b3-9df1-7fd22c82ac45,Steingaden (Ammergauer Sraße),47.703858,10.863388,SGD,,,,,,,Europe/Berlin,
e01f3daa-ddc2-4acf-85c0-f783ea40691b,Stendal Central Station (FlixTrain),52.595063,11.854688,LS,,,,,,,Europe/Berlin,
dcbcb2d7-9603-11e6-9066-549f350fcb0c,Sterzing (Vipiteno),46.88959,11.434131,BZS,,,,,,,Europe/Rome,
11f8b58f-689f-4c54-ac07-c95455687713,Stevenage Station (Stop L),51.90147,-0.20573,STVN,,,,,,,Europe/London,
84b3496a-bd26-49ea-96ea-0e358b6cf841,Stirling (Castleview P&R),56.131039,-3.967254,SCPR,,,,,,,Europe/London,
663f0333-1d41-48c5-b02f-396fe7014e47,Stobrec,43.499755,16.522351,WSB,,,,,,,Europe/Zagreb,
6457c047-5aa9-4bb3-a829-e3720bf0146b,Stockach station,47.850244,9.005535,SOC,,,,,,,Europe/Berlin,
dcc03476-9603-11e6-9066-549f350fcb0c,Stockholm (Cityterminalen),59.331127,18.056648,STO,,,,,,,Europe/Stockholm,
08028e09-af16-498d-9a9d-3c7f7ae59cb7,Stoke-on-Trent (Hanley Bus Station),53.02266,-2.174216,SOT,,,,,,,Europe/London,
eea11c71-c7b7-4ab4-950c-04ff4f7fb409,Stollberg station,50.709654,12.774587,SEG,,,,,,,Europe/Berlin,
13a1d061-bb24-48b1-a8a1-dcb8771dfecc,Ston,42.837873,17.697208,GST,,,,,,,Europe/Zagreb,
dcc8d431-89bc-47be-a480-25cd2eef24ff,Stralsund (Bahnhofstraße),54.308787,13.079755,HSTB,,,,,,,Europe/Berlin,
dcbac843-9603-11e6-9066-549f350fcb0c,Strasbourg,48.574179,7.754266,STB,,,,,,,Europe/Paris,
dcbff9ae-9603-11e6-9066-549f350fcb0c,Straubing train station,48.877502,12.574444,SR,,,,,,,Europe/Berlin,
f4de12a0-ae4c-437c-8b08-f2bbc8b76f43,Strongoli Marina,39.243229,17.10895,MSR,,,,,,,Europe/Rome,
9b6bd7cb-3ecb-11ea-8017-02437075395e,Stryi (Railway Station),49.259853,23.842517,SYI,,,,,,,Europe/Kyiv,
c6756187-b7aa-419d-922a-a8ee01200cee,"Strzelce Opolskie, Hotel Leśny",50.516135,18.289114,SOH,,,,,,,Europe/Warsaw,
a384c701-7225-442a-a263-8f6efbabca0d,Strömstad(Blomsholmsmotet),58.965679,11.235883,BLOM,,,,,,,Europe/Stockholm,
a5854912-b3f2-4852-8aa0-35d33da8b2df,Studenci,43.527842,17.028688,WSN,,,,,,,Europe/Zagreb,
f5daa427-3ef8-46f8-972a-fca2dc04b97c,Stupin,43.539341,15.994027,QSTP,,,,,,,Europe/Zagreb,
dcbf78bb-9603-11e6-9066-549f350fcb0c,Stuttgart Airport Busterminal (SAB),48.691588,9.196743,STF,,,,,,,Europe/Berlin,
dcbac388-9603-11e6-9066-549f350fcb0c,Stuttgart Vaihingen station,48.726828,9.111393,S,,,,,,,Europe/Berlin,
343378a4-085a-47a3-ad80-06d422b6dd39,Subotica AS,46.094994,19.673938,APS,,,,,,,Europe/Belgrade,
c9634363-d8bf-4047-833c-abc9182b3106,Suceava (bus station Tasa),47.661564,26.252721,SUC,,,,,,,Europe/Bucharest,
dcc4cfcc-9603-11e6-9066-549f350fcb0c,Sukošan,44.052962,15.309211,QSN,,,,,,,Europe/Zagreb,
9b6b764b-3ecb-11ea-8017-02437075395e,"Sulechów, dworzec autobusowy",52.08352,15.626564,SSU,,,,,,,Europe/Warsaw,
7e60f723-f816-4d68-b375-5abf1d851d76,Sulmona - Pratola Peligna,42.101243,13.864851,SUP,,,,,,,Europe/Rome,
9b69e57e-3ecb-11ea-8017-02437075395e,Sunderland Interchange,54.902313,-1.384206,SDL,,,,,,,Europe/London,
05db8f10-afa8-4937-9c87-ebebcf3b45eb,Sunny Beach (bus station),42.691456,27.706462,SUB,,,,,,,Europe/Sofia,
9b6c026d-3ecb-11ea-8017-02437075395e,"Suwałki, MOP INEES, Mickiewicza",54.099203,22.922454,SWL,,,,,,,Europe/Warsaw,
2cd3cf87-c095-40b4-a225-95d1077e2f51,Svendborg Vest,55.055523,10.581472,SVW,,,,,,,Europe/Copenhagen,
dcc4d0ca-9603-11e6-9066-549f350fcb0c,Sveti Filip i Jakov,43.963936,15.42465,QSF,,,,,,,Europe/Zagreb,
9b6b7cd7-3ecb-11ea-8017-02437075395e,Swansea City Bus Station (Bay B and C),51.617724,-3.946049,SWS,,,,,,,Europe/London,
d73540ae-d2fb-4671-b368-c8f0dc711a27,Swansea University (Bay Campus),51.620388,-3.880043,SWU,,,,,,,Europe/London,
9b6a6e3e-3ecb-11ea-8017-02437075395e,Swornegacie 10 i 19 DW236,53.861103,17.501685,SWR,,,,,,,Europe/Warsaw,
a0f10d03-3ff7-46f9-88ac-6e72c53c4ea1,"Szczawnica, Głowna",49.426797,20.475037,SC2,,,,,,,Europe/Warsaw,
9b6801c7-3ecb-11ea-8017-02437075395e,Szczecin Dworzec Autobusowy PKS,53.420481,14.55246,ST2,,,,,,,Europe/Warsaw,
560f0fe7-278e-4e9b-b33f-cec8df8ac3ba,Szeged (Autóbuszállomás),46.257077,20.140728,SZE,,,,,,,Europe/Budapest,
0d9b93de-9ab6-43c3-9636-31ced6e2c604,"Szklarska Poręba Górna 10, Plac PKS",50.826752,15.523398,SKL,,,,,,,Europe/Warsaw,
661f54b5-96dd-4bcd-afb2-afbd50cf46ec,"Szklarska Poręba, Jakuszyce, IV - Pętla końcowa, nr 88 /V - Bieg PIASTÓW, nr 11",50.81474,15.430024,SZJ,,,,,,,Europe/Warsaw,
f72d1c44-4edf-49ab-bc0b-cd6a4d75039f,"Sztutowo, Gdańska",54.325903,19.174005,SUO,,,,,,,Europe/Warsaw,
e72d0e33-7953-4de2-80fb-78ea1ae13f6c,"Szydłowiec, Dworzec Autobusowy",51.229727,20.860732,SZW,,,,,,,Europe/Warsaw,
d39be4aa-f160-468e-8ed9-85de9f9f8951,Székesfehérvár (bus station),47.187636,18.411514,SKHR,,,,,,,Europe/Budapest,
dcc2c93c-9603-11e6-9066-549f350fcb0c,Sète,43.412022,3.695866,XSE,,,,,,,Europe/Paris,
9d3a6305-68e4-4fb4-b16a-bce33585135d,Söderköping busstation,58.477979,16.323541,SDK,,,,,,,Europe/Stockholm,
ed70d522-452d-4a6a-a5f1-97d974ad66f7,Sønderborg Rutebilstation,54.910378,9.793976,SOG,,,,,,,Europe/Copenhagen,
7a79db18-8a27-4434-8ea2-61d6dadd1dba,Søndervig,56.11928,8.12014,SØNV,,,,,,,Europe/Copenhagen,
c3b9c230-d9e5-4518-944a-cc4855f99ba5,"Sędziszów Małopolski, ul. Wesoła - os. Młodych",50.069137,21.68713,SOW,,,,,,,Europe/Warsaw,
3af9d15d-9aec-4d1a-9a2a-ae9880ee3d5d,"Sępólno Krajeńskie, Dworzec Autobusowy",53.458806,17.533121,SKR,,,,,,,Europe/Warsaw,
43fe4c0d-4343-4989-911e-499d78115b31,Słubice  Plac Frankfurcki,52.349396,14.560007,SPF,,,,,,,Europe/Warsaw,
41e05335-e38a-438c-a1d5-700c8405ddcb,Słubice Collegium Polonicum,52.348099,14.558464,SLB,,,,,,,Europe/Warsaw,
92df0de8-9302-4b5b-84c0-f189bc734a9c,"Słupsk, Dworzec Autobusowy",54.468345,17.019126,5LU,,,,,,,Europe/Warsaw,
dcc55c9b-9603-11e6-9066-549f350fcb0c,Tai Di Cadore (Piazzale Dolomiti),46.422676,12.359471,TAI,,,,,,,Europe/Rome,
edca5315-fc45-484c-8961-6b2a7f431c84,Talavera de la Reina (Bus Station),39.962401,-4.825442,TVA,,,,,,,Europe/Madrid,
9b6b06b9-3ecb-11ea-8017-02437075395e,"Tallinn, Bus Station",59.42712,24.77374,TNN,,,,,,,Europe/Tallinn,
73c30aa9-b702-4cee-967d-3440f286d4ab,Tangen (Kragerø),58.895694,9.284561,TANG,,,,,,,Europe/Oslo,
c09b82ea-29f0-46f2-80a7-13c86a855564,Tanum Rasta,58.720401,11.351081,TNM,,,,,,,Europe/Stockholm,
9070422c-d126-4b9d-998c-4c35796ef809,Taranto (Terminal Cimino),40.466206,17.300833,TTTC,,,,,,,Europe/Rome,
dcc394dc-9603-11e6-9066-549f350fcb0c,Tarbes (Avenue Pierre de Coubertin),43.221762,0.076963,TAB,,,,,,,Europe/Paris,
21b39d83-7a43-4fc4-bd11-ef45e4dd2324,Tarnaveni,46.328383,24.297868,TNI,,,,,,,Europe/Bucharest,
9b6a6957-3ecb-11ea-8017-02437075395e,"Tarnobrzeg, Dw. Autobusowy",50.565975,21.667247,TBG,,,,,,,Europe/Warsaw,
0e7aa37d-bdb2-423d-b47c-1bab99bb72e4,"Tarnów, Do Huty 04 P&R",50.004258,20.974129,TNW,,,,,,,Europe/Warsaw,
dcc173e3-9603-11e6-9066-549f350fcb0c,Tarragona (Bus Station),41.118068,1.244547,TAR,,,,,,,Europe/Madrid,
bab14a2f-c66c-4f2c-a634-5267e649caa2,Tarsia,39.58499,16.24379,TAS,,,,,,,Europe/Rome,
9b6b0943-3ecb-11ea-8017-02437075395e,"Tartu, Bus Station",58.378137,26.731958,TBU,,,,,,,Europe/Tallinn,
0b381d3e-0d36-4f13-a09b-4e4f2fb44d5d,Tatranská Javorina (pošta),49.265697,20.141602,TAJ,,,,,,,Europe/Bratislava,
bbe20c46-3827-4a01-9187-c77f2bb0c9f6,Tauberbischofsheim central bus station,49.625649,9.664153,TBH,,,,,,,Europe/Berlin,
e8f7f25a-2caf-47aa-b799-a4566b0459e0,Taunton BP Garage,51.017659,-3.066075,TBP,,,,,,,Europe/London,
9b6b3051-3ecb-11ea-8017-02437075395e,Tavira (Bus Station),37.127221,-7.652881,TEV,,,,,,,Europe/Lisbon,
2e61de5c-7f31-425b-b4d9-df559bd2988e,Tecuci (bus station GEGI),45.84034,27.430785,TEC,,,,,,,Europe/Bucharest,
84a6f9ed-f88b-4b33-a463-373cc8eca5ef,Teiuș,46.202461,23.690183,TUS,,,,,,,Europe/Bucharest,
213c36dd-a3f2-43cc-9caa-0f74c136aac0,Telč (bus station),49.181952,15.464048,T7C,,,,,,,Europe/Prague,
f11e04fe-75fa-4d78-bc48-8b7c046b189d,Teplice (Benešovo náměstí),50.642195,13.826639,TPB,,,,,,,Europe/Prague,
dcc3f83d-9603-11e6-9066-549f350fcb0c,Teramo,42.66047,13.706947,TRM,,,,,,,Europe/Rome,
a354034d-7dd8-49c5-b85f-4ae8f4e90a62,Terme Spezzano,39.700592,16.299257,TSP,,,,,,,Europe/Rome,
f06f76a9-aa70-4c10-87ed-34da9281c017,Termini Imerese,37.976814,13.688246,TEM,,,,,,,Europe/Rome,
dcc60b3e-9603-11e6-9066-549f350fcb0c,Termoli,41.999058,14.986072,TRL,,,,,,,Europe/Rome,
dcc49111-9603-11e6-9066-549f350fcb0c,Terni,42.569497,12.65236,TER,,,,,,,Europe/Rome,
e4f17481-4ba1-404d-83c5-1223d19e185d,Ternopil (Bus Station 1),49.544069,25.596996,TPL,,,,,,,Europe/Kyiv,
dcbcd8bb-9603-11e6-9066-549f350fcb0c,The Hague (Central Station),52.0798,4.3255,DHA,,,,,,,Europe/Amsterdam,
9b68df74-3ecb-11ea-8017-02437075395e,Thessaloniki,40.644121,22.929807,TNK,,,,,,,Europe/Athens,
1df935db-dd7e-40d1-8c46-60979a75ad56,Thiers (Péage A89),45.86032,3.503093,THR,,,,,,,Europe/Paris,
46beab17-a5d1-4de6-b745-5955ac922d85,Thionville,49.353969,6.1684,THI,,,,,,,Europe/Paris,
57374ca8-270d-4f77-8177-7cda3e16edb7,Thisted Trafikterminal,56.952748,8.68801,THS,,,,,,,Europe/Copenhagen,
9b68f226-3ecb-11ea-8017-02437075395e,Thonon-les-Bains (Bus Station),46.368776,6.480822,THO,,,,,,,Europe/Paris,
8e4b4150-7981-47de-adf6-28c462a1df90,Tilburg Station (Burgemeester Brokxlaan),51.56199,5.083848,TIU,,,,,,,Europe/Amsterdam,
dcc2b934-9603-11e6-9066-549f350fcb0c,Timișoara (Bus station Normandia),45.744775,21.254256,QTS,,,,,,,Europe/Bucharest,
0cebaa11-8e12-4283-9b17-4146046d96b2,Tisno raskrižje aut. stajalište,43.807408,15.701637,QTN,,,,,,,Europe/Zagreb,
823d0454-afab-469b-81bb-b3a3bca46ab8,Tisovec (námestie),48.68005,19.943222,T1M,,,,,,,Europe/Bratislava,
dcbad395-9603-11e6-9066-549f350fcb0c,Titisee Badeparadies Schwarzwald,47.90772,8.159376,TSB,,,,,,,Europe/Berlin,
dfb0165f-ed49-4230-a109-b4b8e4a11b14,Todi (Pian di Porto),42.813412,12.405493,TOD,,,,,,,Europe/Rome,
9b6bccbe-3ecb-11ea-8017-02437075395e,Toledo (Bus station),39.865421,-4.020033,TLD,,,,,,,Europe/Madrid,
f2ea5156-2a0f-45e4-b6fa-13e22f08e216,Tolentino,43.211785,13.285231,TIO,,,,,,,Europe/Rome,
1e129049-3c62-4f30-9d61-c8af5a5f7042,Tomar (Bus Station),39.599195,-8.412731,TMR,,,,,,,Europe/Lisbon,
9b6a76bd-3ecb-11ea-8017-02437075395e,"Tomaszów Mazowiecki, Plac Kościuszki",51.530536,20.005815,TMZ,,,,,,,Europe/Warsaw,
1ba1d1ca-12ac-4189-8996-fbaecf0bf89f,Tomašanci autobusno stajalište,45.378764,18.442483,WTO,,,,,,,Europe/Zagreb,
9fa15068-37c1-4ade-8223-224a86d600f7,Tondela,40.519475,-8.089306,TDL,,,,,,,Europe/Lisbon,
0dcdd56a-4641-4dc8-a10b-bae2d7f338d2,Torano Castello,39.502783,16.21114,TCT,,,,,,,Europe/Rome,
ba0d46fe-c1db-4c1e-98b9-966a4fbaaf4b,Tordesillas (Bus Station),41.502858,-5.004618,TOE,,,,,,,Europe/Madrid,
e6211d4b-c07f-4e84-940e-1a4ae5f5315f,Torre Melissa,39.304247,17.107893,TOM,,,,,,,Europe/Rome,
cf053839-2ba4-4f01-bc57-52003165a08e,Torres Novas (Bus Station),39.47774,-8.536491,TNA,,,,,,,Europe/Lisbon,
d238a522-3eea-4aaa-afde-529b720ccd50,Torres Vedras (Bus Station),39.092505,-9.265344,TVS,,,,,,,Europe/Lisbon,
3f7d7dfa-73b6-49ee-88e9-8b0cbd8fdf1f,Torretta Crucoli,39.4517,17.038094,TTT,,,,,,,Europe/Rome,
690e73bd-c552-432a-91a4-e0b8b5186f2f,Tortora (dist. ENI),39.933172,15.768911,RTI,,,,,,,Europe/Rome,
8819e9fd-847b-4997-9eed-bca0a3776dae,"Toruń, dworzec autobusowy",53.015688,18.607645,TDM,,,,,,,Europe/Warsaw,
dcc21600-9603-11e6-9066-549f350fcb0c,Toulon (Central Bus Station),43.127795,5.930736,TLN,,,,,,,Europe/Paris,
dcc0e74b-9603-11e6-9066-549f350fcb0c,"Toulouse (Central Bus Station ""Pierre Sémard"")",43.612522,1.452612,TOU,,,,,,,Europe/Paris,
dcc1f3fa-9603-11e6-9066-549f350fcb0c,Tourcoing,50.721307,3.162876,TRC,,,,,,,Europe/Paris,
dcc193b5-9603-11e6-9066-549f350fcb0c,Tours (Parking les Peupliers),47.383381,0.702355,TRS,,,,,,,Europe/Paris,
cf8d11b1-dd28-4de5-b91f-3c2dd0db465a,Trapani (Papa Giovanni Paolo II),38.015302,12.527638,TPN,,,,,,,Europe/Rome,
ea444db3-12b9-423b-adc4-ef2d1cfd5252,Trauchgau (Guesthouse Post),47.644291,10.828101,TRG,,,,,,,Europe/Berlin,
317df829-6723-453c-9bd5-81bb6d6d0f2b,Trebisacce,39.866794,16.532731,TBS,,,,,,,Europe/Rome,
dcc0ea9c-9603-11e6-9066-549f350fcb0c,Trento (Lungadige Monte Grappa),46.069037,11.115381,TNT,,,,,,,Europe/Rome,
32196cc8-c013-4ecd-a558-66b2f957704f,Trenčín (bus station),48.896156,18.051694,TEI,,,,,,,Europe/Bratislava,
06f09d4d-2a27-4b9d-8f19-1b9e3e48dfef,Treviso,45.660258,12.246319,TVO,,,,,,,Europe/Rome,
dcc4e44d-9603-11e6-9066-549f350fcb0c,Tribunj,43.756237,15.7457,QTB,,,,,,,Europe/Zagreb,
dcbf7bd9-9603-11e6-9066-549f350fcb0c,Trier central train station (Kürenzer St.),49.758208,6.653136,TRK,,,,,,,Europe/Berlin,
dcbda963-9603-11e6-9066-549f350fcb0c,Trieste (Autostazione),45.657193,13.770828,TRT,,,,,,,Europe/Rome,
dcc42f2a-9603-11e6-9066-549f350fcb0c,Trilj,43.619342,16.723165,QTJ,,,,,,,Europe/Zagreb,
cf460566-03a0-44ed-a469-5e5f64812bc0,Trnava (bus station),48.370727,17.584396,TNV,,,,,,,Europe/Bratislava,
dcc29c9d-9603-11e6-9066-549f350fcb0c,Trogir,43.518442,16.251513,QTG,,,,,,,Europe/Zagreb,
1a09c915-9448-4313-bdb8-ab48eb6704fa,Troyes (Bus Station),48.297767,4.06427,TOY,,,,,,,Europe/Paris,
9b6a7829-3ecb-11ea-8017-02437075395e,Trsteno autobusno stajalište,42.714046,17.978952,ZTT,,,,,,,Europe/Zagreb,
9b69ea14-3ecb-11ea-8017-02437075395e,Truskavets,49.288479,23.505513,TRTS,,,,,,,Europe/Kyiv,
e2cca084-7b6d-4daa-b028-e290899e91af,Trutnov (bus station),50.564571,15.908202,T1N,,,,,,,Europe/Prague,
aa9370fb-ce4b-4ca6-a7aa-63f266fff506,"Trzebiatów, Torowa 04",54.061319,15.2776,TBT,,,,,,,Europe/Warsaw,
cf9c4808-0fb4-4e8d-8d74-53ccecf4ab52,"Trzęsacz, Kamieńska",54.076167,14.99075,TRZ,,,,,,,Europe/Warsaw,
9b6a6c7b-3ecb-11ea-8017-02437075395e,"Tuchola, Dworzec PKP",53.584145,17.860655,TUC,,,,,,,Europe/Warsaw,
0ae04f27-b58c-48b5-bab9-640361779415,Tulcea (Autogara Conex Trans),45.181187,28.792391,TLC,,,,,,,Europe/Bucharest,
28f6f5b5-edad-4e7f-aa9f-408cfb318fc6,Tulle (Péage Nord),45.328486,1.765148,TUP,,,,,,,Europe/Paris,
58fab872-5d74-46b2-9a82-10fe118a06f7,Turda (bus station Sens Vest),46.565705,23.779327,TRD,,,,,,,Europe/Bucharest,
dcbfe731-9603-11e6-9066-549f350fcb0c,Turin (Vittorio Emanuele),45.07016,7.657706,TO,,,,,,,Europe/Rome,
57f5b2d4-4a53-4ddf-8b99-a99254299201,Turjaci,43.643075,16.678798,WTJ,,,,,,,Europe/Zagreb,
42eccf18-659b-410a-af81-a958ed735223,"Turku, Bus Station",60.456906,22.266659,TKU,,,,,,,Europe/Helsinki,
7f01be1b-a710-4f34-a74c-f11e8f66da93,Turčin autobusna stanica,46.254789,16.360901,QTU,,,,,,,Europe/Zagreb,
9b69dd6b-3ecb-11ea-8017-02437075395e,Tučepi,43.274825,17.049895,YTU,,,,,,,Europe/Zagreb,
9b6c000b-3ecb-11ea-8017-02437075395e,"Tylicz, Skrzyżowanie",49.395258,21.027891,TYL,,,,,,,Europe/Warsaw,
dcc2d76d-9603-11e6-9066-549f350fcb0c,Tábor (bus station),49.413928,14.675108,LTB,,,,,,,Europe/Prague,
544f64cd-5880-4979-9864-5e1e54380fd3,Târgoviște (hotel Valahia),44.92805,25.461943,TGI,,,,,,,Europe/Bucharest,
cf3b1000-3e20-4f46-810d-65d7814afa98,Târgu Frumos,47.20983,27.023134,TFR,,,,,,,Europe/Bucharest,
809d404e-ab27-4162-965c-5ea59029e518,Târgu Jiu,45.03851,23.300076,TJI,,,,,,,Europe/Bucharest,
313c8408-6e03-43ff-88bd-abc2c5d1c186,Târgu Mureş (bus station Duda Trans),46.532891,24.54932,TAM,,,,,,,Europe/Bucharest,
12aa07b2-ee41-432b-90b6-8418184c30b2,Târgu Neamț,47.203045,26.35763,TNE,,,,,,,Europe/Bucharest,
97932815-08dd-4b8f-8009-d9ea16481ea8,Târgu Secuiesc (MOL petrol station),45.994194,26.12114,TSE,,,,,,,Europe/Bucharest,
f15a36ff-6dc9-4ea2-919d-2f2cb1b5ba44,Töcksfors (Centralen),59.508586,11.841396,TOC,,,,,,,Europe/Stockholm,
74e5ba1e-8f26-445b-a80f-25ecee12a3cc,Tønsberg Sem E18 (Aulerød commuter parking),59.288599,10.331455,AULE,,,,,,,Europe/Oslo,
dcbb2f42-9603-11e6-9066-549f350fcb0c,Tübingen central station,48.516021,9.05422,TU,,,,,,,Europe/Berlin,
598ba723-2ae6-4a3a-b261-95391db7852c,Tălmaciu (parking lot Poștă),45.667826,24.26015,TAL,,,,,,,Europe/Bucharest,
24c4f719-0bc6-4be4-902e-4c8d1b0573f0,Třeboň (bus station),49.00843,14.764871,TRX,,,,,,,Europe/Prague,
788d12d5-f922-4534-8389-d5e8d32cc9fb,Třebíč (bus station),49.21456,15.875035,TIC,,,,,,,Europe/Prague,
e1d63d34-7f47-4957-b218-02cb45b9e716,Ualand (Lund),58.531544,6.334109,ULND,,,,,,,Europe/Oslo,
dcc43253-9603-11e6-9066-549f350fcb0c,Udbina,44.533717,15.765526,QUD,,,,,,,Europe/Zagreb,
7a8346e4-85de-4878-978b-42f9ce165075,Uddevalla (Torp Terminalen),58.35314,11.816637,UDD,,,,,,,Europe/Stockholm,
dcc4574b-9603-11e6-9066-549f350fcb0c,Udine (autostazione),46.057273,13.242765,UDN,,,,,,,Europe/Rome,
90b4d825-9480-42f8-a845-e1a2e835d05d,Uelzen (FlixTrain),52.969697,10.55309,HU,,,,,,,Europe/Berlin,
78b3b182-f34d-49c4-b584-4e20186df36a,Ugento,39.929658,18.166415,UGE,,,,,,,Europe/Rome,
29bb1714-76e1-42b2-b28a-dc7d64828db3,Ugljane,43.571603,16.760152,WUG,,,,,,,Europe/Zagreb,
ef348d14-f2ed-4ea3-a8f4-0e39bb858ffb,Uherské Hradiště (bus station),49.070557,17.464344,UHD,,,,,,,Europe/Prague,
dc20e5be-2dfc-4894-9784-4dea7d942fbe,Uherský Brod (transport terminal),49.022465,17.642427,UHB,,,,,,,Europe/Prague,
dcbbd372-9603-11e6-9066-549f350fcb0c,Ulm (Eberhard-Finckh-Straße),48.42568,10.01082,UL,,,,,,,Europe/Berlin,
4f496275-99de-40d5-bf47-18a10cfa772b,Ulricehamnsmotet,57.808902,13.421193,UHM,,,,,,,Europe/Stockholm,
dcc415ed-9603-11e6-9066-549f350fcb0c,Umag bus station,45.431487,13.529458,QUM,,,,,,,Europe/Zagreb,
fdf2902b-eb74-49a4-99f3-b90868501213,Uman (Bus Station),48.761159,30.219564,UMN,,,,,,,Europe/Kyiv,
89251c5e-72da-49e5-9077-e8549874c710,University of Nottingham - North Entrance (Stop UN15),52.944311,-1.191897,UoN1,,,,,,,Europe/London,
dcbc6c24-9603-11e6-9066-549f350fcb0c,Uplengen (Autohof Apen-Remels),53.26301,7.756106,UPR,,,,,,,Europe/Berlin,
b2a24dd0-2da0-475f-8067-f5c3cd299f32,Uppsala (Stationsgatan),59.857102,17.651117,UPP,,,,,,,Europe/Stockholm,
dcbf95ea-9603-11e6-9066-549f350fcb0c,Usedom (town),53.873353,13.916169,USE,,,,,,,Europe/Berlin,
0c5a57e4-24e9-4079-b6a0-b796a2441d16,Ussel,45.512429,2.257469,USS,,,,,,,Europe/Paris,
9b6a6de3-3ecb-11ea-8017-02437075395e,"Ustka, Dworzec Autobusowy",54.578959,16.862053,UDA,,,,,,,Europe/Warsaw,
dac4bbcc-cd51-4e95-ab8a-4926bb9f4cc7,"Ustronie Morskie, Wojska Polskiego 03/04",54.21516,15.75597,UMO,,,,,,,Europe/Warsaw,
5a9e050b-4d84-4182-a6bb-a020d67435c9,"Ustrzyki Dolne, ul. Dworcowa",49.429413,22.596397,UTD,,,,,,,Europe/Warsaw,
8319e837-24fc-4eb4-8ea5-63ea6c9bb662,Ustrzyki Górne,49.105309,22.649709,UKG,,,,,,,Europe/Warsaw,
dcbc53ef-9603-11e6-9066-549f350fcb0c,Utrecht Central Station,52.090407,5.105563,UT,,,,,,,Europe/Amsterdam,
c631aa93-31e6-4c6d-91eb-8838f1173d8f,Uzhhorod-1 (Central Bus Station),48.609517,22.298054,UZO,,,,,,,Europe/Kyiv,
71f2f6ec-fb74-4868-a6fa-7d8142d36ea6,"Vaasa, Bus Station",63.097268,21.622695,VAA,,,,,,,Europe/Helsinki,
f04ca8c8-3e93-43a6-930b-67423f985ef0,Vaduz (Rheinparkstadion),47.139365,9.511041,VDZ,,,,,,,Europe/Vaduz,
c20ee592-23e4-4a90-bfb5-82a0ecfe09f4,Vagos,40.553039,-8.679241,VGS,,,,,,,Europe/Lisbon,
00b5a645-29bd-4aa4-b4dc-99c606ec31a8,Val Vomano,42.607785,13.754997,VVM,,,,,,,Europe/Rome,
ce2589dc-3c4a-43d0-94b4-12fbd308a9d8,Valdemarsvik E22,58.221838,16.556683,VDV,,,,,,,Europe/Stockholm,
dcc17706-9603-11e6-9066-549f350fcb0c,Valence (Central Bus Station),44.926909,4.892386,VLC,,,,,,,Europe/Paris,
65bc658e-3c84-4f8a-8879-fc56c2e567c5,Valencia (Bus Station),39.48013,-0.387697,VAE,,,,,,,Europe/Madrid,
dcc603b5-9603-11e6-9066-549f350fcb0c,Valenciennes University,50.320047,3.512696,VAL,,,,,,,Europe/Paris,
c3ac0b1e-1021-4b0b-9d03-14dab14d4b8b,Valença do Minho,42.022564,-8.642592,VLE,,,,,,,Europe/Lisbon,
09229006-b707-445c-a541-23c1103cf0a6,Valeč,50.174301,13.254722,VALC,,,,,,,Europe/Prague,
0667ba34-c22c-40a2-a1b0-3b248c37dccf,Valladolid (Bus Station),41.641622,-4.732252,VLD,,,,,,,Europe/Madrid,
dcc5039d-9603-11e6-9066-549f350fcb0c,Valpovo bus station,45.657401,18.418132,QPO,,,,,,,Europe/Zagreb,
96317a4d-909a-45bb-8140-795ab5a6dbf5,Vandoeuvre-les-Nancy (Brabois),48.648395,6.144364,NCB,,,,,,,Europe/Paris,
dcc27a80-9603-11e6-9066-549f350fcb0c,Vannes (Central bus station),47.666401,-2.748324,VAN,,,,,,,Europe/Paris,
dcc51bfc-9603-11e6-9066-549f350fcb0c,Varaždin bus station,46.304205,16.334141,QVZ,,,,,,,Europe/Zagreb,
621c1787-a357-4d3a-a8c5-e1f1980f7d2b,Varigotti,44.182088,8.401358,VRG,,,,,,,Europe/Rome,
0a2aa125-09de-48d1-b761-1639a16083e3,Varna (bus station),43.215977,27.897222,VAR,,,,,,,Europe/Sofia,
071b4e10-388b-4c0d-9087-a61ae665ad39,Vaslui (Autogara Morandi),46.625557,27.728953,VSL,,,,,,,Europe/Bucharest,
dcc6051e-9603-11e6-9066-549f350fcb0c,Vasto,42.118665,14.70285,VST,,,,,,,Europe/Rome,
4b4fcb4a-45b1-4ad9-81ee-f7074b75d005,Vatra Dornei (bus station),47.346057,25.360548,VDO,,,,,,,Europe/Bucharest,
dcc5ee81-9603-11e6-9066-549f350fcb0c,Vechta (Autohof Bakum),52.726579,8.180352,VEA,,,,,,,Europe/Berlin,
dcc18abf-9603-11e6-9066-549f350fcb0c,Vejle Busterminal,55.706197,9.535375,VEJ,,,,,,,Europe/Copenhagen,
c2473e9a-92be-4dcb-a25e-55131666aed5,Velika Gorica Autobusni kolodvor,45.712188,16.076095,KVG,,,,,,,Europe/Zagreb,
2144d565-67de-4a60-97bf-999bcb63bfcf,Velika Kopanica,45.154649,18.402769,VKO,,,,,,,Europe/Zagreb,
dcc0139d-9603-11e6-9066-549f350fcb0c,Venice Mestre (Stazione FS),45.482223,12.233842,MTR,,,,,,,Europe/Rome,
dcc16795-9603-11e6-9066-549f350fcb0c,Venlo Station (Platform G),51.364625,6.172248,VEN,,,,,,,Europe/Amsterdam,
4542b43f-01c7-41d4-bae9-10fb5ad386ff,Ventimiglia,43.792183,7.603978,VTM,,,,,,,Europe/Rome,
b7a5b2a4-6928-4057-99d6-0fc267c112d3,Verdun (South),49.093026,5.280121,VRD,,,,,,,Europe/Paris,
9b6bab51-3ecb-11ea-8017-02437075395e,Verin (Bus Station),41.939644,-7.43393,VEI,,,,,,,Europe/Madrid,
dcbdb0fa-9603-11e6-9066-549f350fcb0c,Verona (Porta Nuova),45.431548,10.980957,VR,,,,,,,Europe/Rome,
ee8481c4-638e-43f2-b92b-e5c572081af0,Versciaco (3 Zinnen),46.732273,12.327939,IAC,,,,,,,Europe/Rome,
be119e59-4057-4004-9a63-102f25a4d742,Viana do Castelo (Bus Station),41.695257,-8.831923,VDP,,,,,,,Europe/Lisbon,
aca41e0a-8af9-411f-9100-4f25b75d72df,"Vianen, Busstation Lekbrug (West)",51.989281,5.081388,VLW,,,,,,,Europe/Amsterdam,
dcc2fb0a-9603-11e6-9066-549f350fcb0c,Viareggio,43.866894,10.244692,VIA,,,,,,,Europe/Rome,
179458ab-3c52-4415-b802-8ca340ffab81,Vibo Valentia (Palazzetto dello Sport),38.684653,16.112334,VBV,,,,,,,Europe/Rome,
825c686c-70ae-4a06-a2c0-89229f95eb46,Viborg Busterminal,56.44724,9.399779,VIB,,,,,,,Europe/Copenhagen,
dcc2e0e6-9603-11e6-9066-549f350fcb0c,Vicenza (Bus Station),45.54228,11.538316,VI,,,,,,,Europe/Rome,
56ca26de-e3c3-42aa-940f-259d56bc49bb,Vico Equense,40.663514,14.424931,VQU,,,,,,,Europe/Rome,
7492161c-f40e-445d-aca2-92ce64fcfb02,Vidago,41.640667,-7.573833,VDG,,,,,,,Europe/Lisbon,
c86fd8bc-da38-4e4f-95b6-b2df3785946e,Vidin bus station,43.984952,22.872863,VID,,,,,,,Europe/Sofia,
ba94c5a9-d45f-4ee2-9069-d0a8eee1ff20,Vielha,42.70402,0.794438,VHF,,,,,,,Europe/Madrid,
dcbdc34e-9603-11e6-9066-549f350fcb0c,Vienna Erdberg (Busterminal VIB),48.190869,16.414007,WIG,,,,,,,Europe/Vienna,
1614b09d-9437-4879-8764-2e0b383ee6a2,Vieste,41.885338,16.169187,VTE,,,,,,,Europe/Rome,
70b9b0bb-ffcc-4347-b0a7-8714936f843d,Vigeland (Livoll E39),58.087539,7.293282,VIGE,,,,,,,Europe/Oslo,
458311c9-b193-4c10-b409-b7c832ecb1b4,Vigo (Bus Station),42.234137,-8.713763,VGO,,,,,,,Europe/Madrid,
1566c8ce-6046-443f-bbb2-de61f4465e22,Vikeså,58.630642,6.078326,VKES,,,,,,,Europe/Oslo,
b694a2e5-ea04-48c0-88da-c48be13ef8ce,Vila Nova de Mil Fontes,37.72999,-8.781251,VMF,,,,,,,Europe/Lisbon,
ee921f2b-0d7a-4b22-8690-283113774637,Vila Pouca de Aguiar (Bus Station),41.502067,-7.640888,IOA,,,,,,,Europe/Lisbon,
0432395c-ff27-4fdf-add8-bf3238d217f3,Vila Praia de Ancora,41.811686,-8.859978,VPR,,,,,,,Europe/Lisbon,
1997f5d5-e189-4ba3-9626-0e6f128f601d,Vila Real (Bus Station),41.299534,-7.750082,IRA,,,,,,,Europe/Lisbon,
774f65e3-8439-49d5-b422-99cbce8e7aba,Vilamoura,37.083283,-8.117746,VLM,,,,,,,Europe/Lisbon,
653e86a7-7d03-4be7-a9c4-d47fce6c6855,Vilar Formoso,40.606918,-6.826408,VFO,,,,,,,Europe/Lisbon,
98e8df23-e91e-40ea-9255-7e274f84c05a,Villa San Giovanni,38.216645,15.634964,VGC,,,,,,,Europe/Rome,
dcc3ff22-9603-11e6-9066-549f350fcb0c,Villach Bus Station,46.61775,13.847884,VLL,,,,,,,Europe/Vienna,
dcbdb26b-9603-11e6-9066-549f350fcb0c,Villingen-Schwenningen (Rößleplatz),48.064078,8.538515,VIS,,,,,,,Europe/Berlin,
9b6b0388-3ecb-11ea-8017-02437075395e,Vilnius Bus Station,54.670718,25.281849,VUS,,,,,,,Europe/Vilnius,
fccc5f5f-621c-4528-8f98-07e650fd46ba,Vimperk (bus station),49.055962,13.786766,VMP,,,,,,,Europe/Prague,
dcc41ab1-9603-11e6-9066-549f350fcb0c,Vinkovci bus station,45.299047,18.802077,QVN,,,,,,,Europe/Zagreb,
1262af9b-ab1e-4816-85de-46893d82ef3f,Vinnytsia (Central Bus Station),49.23677,28.4829,VNS,,,,,,,Europe/Kyiv,
9f05e4c8-b369-4368-aea2-1aab4221039e,Vinterkjaer(Risør),58.724726,9.039273,VINT,,,,,,,Europe/Oslo,
dcc50d10-9603-11e6-9066-549f350fcb0c,Virovitica bus station,45.835584,17.387759,QVV,,,,,,,Europe/Zagreb,
a5234078-6906-4e59-824e-0b9ec27db343,Viseu (Bus Station),40.661542,-7.915786,VSE,,,,,,,Europe/Lisbon,
ec29a70c-933d-4056-a35b-0adc69b554aa,Vitoria-Gasteiz,42.859385,-2.684729,VIT,,,,,,,Europe/Madrid,
084df64b-21b9-4e6d-8c5d-9cf99c8a6fcd,Vittel (péage A31),48.215189,5.831324,VTL,,,,,,,Europe/Paris,
dde818c4-e548-404a-b760-c14da8cc64ec,Vittoria,36.958485,14.52499,VTA,,,,,,,Europe/Rome,
f8165a69-733c-4485-a61d-5f00130ca914,Vlaka,43.008472,17.550586,YVL,,,,,,,Europe/Zagreb,
dcc416fa-9603-11e6-9066-549f350fcb0c,Vodice bus station,43.759176,15.778415,QVD,,,,,,,Europe/Zagreb,
dc2e2453-902e-410c-8396-8d30d0621d60,Voiron (Champfeuillet),45.349926,5.567732,VOI,,,,,,,Europe/Paris,
e9747678-5b4c-48c6-b6d4-59f44e0e617e,Vratsa bus station,43.207164,23.559739,VRT,,,,,,,Europe/Sofia,
23e692d4-71ca-4867-918e-537e4e6f1815,Vrgorac autobusna stanica,43.204378,17.37385,QVG,,,,,,,Europe/Zagreb,
8621a496-4d0b-45d9-93ad-8ae064e84309,Vrpolje,45.210657,18.405693,QVP,,,,,,,Europe/Zagreb,
8c01534d-c3ff-4ae7-99c5-a6acfd673b78,Vuka autobusno stajalište,45.437078,18.506,ZVU,,,,,,,Europe/Zagreb,
dcc4ff8c-9603-11e6-9066-549f350fcb0c,Vukovar bus station,45.352796,18.998893,QVK,,,,,,,Europe/Zagreb,
747f7758-7068-4628-90ab-bf24f2b0848c,"Vysoké Tatry (Starý Smokovec, stanica)",49.140537,20.225241,STY,,,,,,,Europe/Bratislava,
8a8d8107-bdaa-4405-8ef8-2c2d59d95e2c,Värnamo (ICA Kvantum),57.175121,14.060728,VNO,,,,,,,Europe/Stockholm,
874d4dd5-c9d7-4d42-b642-ed1eeceac854,Västervik station,57.755364,16.642783,VSV,,,,,,,Europe/Stockholm,
cbb7c38b-29b4-40ea-ae49-3c9e7ef04fe7,Västerås (Resecentrum),59.608425,16.553838,VAS,,,,,,,Europe/Stockholm,
2df2ee25-9ce8-4dce-ac20-a251c45657ad,Växjö Station,56.877137,14.803517,VXO,,,,,,,Europe/Stockholm,
dcbc9d84-9603-11e6-9066-549f350fcb0c,Wangen im Allgäu (bus station),47.688632,9.830971,WIA,,,,,,,Europe/Berlin,
dcbff3f2-9603-11e6-9066-549f350fcb0c,Warendorf train station,51.950299,7.985067,WAD,,,,,,,Europe/Berlin,
dcbb14da-9603-11e6-9066-549f350fcb0c,Warnemünde Strand (Jugendherberge),54.176168,12.058414,WAS,,,,,,,Europe/Berlin,
dcbb1989-9603-11e6-9066-549f350fcb0c,Warnemünde Werft,54.168966,12.083817,WAW,,,,,,,Europe/Berlin,
732aface-2aef-42f3-b932-8937f2e48f0c,Warrington Interchange,53.391272,-2.593882,WCE,,,,,,,Europe/London,
1c0b11d0-65d5-48f4-b76e-3bdcbe9f4710,"Warsaw, Metro Marymont",52.271836,20.968272,WMR,,,,,,,Europe/Warsaw,
dcc454ac-9603-11e6-9066-549f350fcb0c,"Warszawa, Dworzec Autobusowy Warszawa Zachodnia",52.218398,20.961755,WZA,,,,,,,Europe/Warsaw,
dcc39d65-9603-11e6-9066-549f350fcb0c,"Warzymice, Osiedle Kresy",53.386419,14.481963,SW,,,,,,,Europe/Warsaw,
ce9d5a3f-6914-482d-836a-82d9f7cfd9be,Watford Junction Railway Station (Stop 6),51.662996,-0.396485,WJR,,,,,,,Europe/London,
8626617d-177c-4f70-9534-db18aed90425,Waypoint Antwerp Noorderplaats,51.228461,4.413516,opAN,,,,,,,Europe/Brussels,
5bd0b4ee-d7d2-4398-b5a5-d9f2549ed517,Waypoint Antwerp Stadspark,51.210839,4.41774,opAS,,,,,,,Europe/Brussels,
168aa93d-ebe0-4cb6-a80e-36b4a2a1d7ad,"Wałbrzych, ul. Sikorskiego",50.768782,16.273432,WAL,,,,,,,Europe/Warsaw,
d23bb9b1-9d3b-4d38-ad70-788c8fbf4299,"Wałcz, Dworzec Autobusowy",53.274899,16.48337,WCZ,,,,,,,Europe/Warsaw,
dcbc1816-9603-11e6-9066-549f350fcb0c,Weiden in der Oberpfalz,49.67027,12.155186,WEN,,,,,,,Europe/Berlin,
dcbb5cf0-9603-11e6-9066-549f350fcb0c,Weimar central train station,50.990942,11.329288,WE,,,,,,,Europe/Berlin,
dcbc25b5-9603-11e6-9066-549f350fcb0c,Weißenfels,51.202767,11.971678,WSF,,,,,,,Europe/Berlin,
f931f1f0-ab37-4fda-970a-2602a5aa719c,Wels (Eisenfeldstraße),48.165707,14.038266,WEL,,,,,,,Europe/Vienna,
d8fa775b-0e47-4f61-949e-e1c8dbb13384,Wertheim Kreisverkehr Almosenberg,49.77329,9.577591,WAG,,,,,,,Europe/Berlin,
d38f2ef4-8250-4b1c-af97-0fbd11635c47,Wetlina,49.148241,22.47743,WTI,,,,,,,Europe/Warsaw,
dcc339c2-9603-11e6-9066-549f350fcb0c,Wetzlar (Station Northern Side),50.566246,8.50251,WZ,,,,,,,Europe/Berlin,
5c712c12-7a3b-422e-88de-5f559f2b5d42,Wieck a. Darss (Bäderstraße),54.407397,12.570424,WIC,,,,,,,Europe/Berlin,
9b6bba43-3ecb-11ea-8017-02437075395e,"Wieluń, Dworzec Autobusowy",51.222459,18.576809,WUN,,,,,,,Europe/Warsaw,
dcbba9d9-9603-11e6-9066-549f350fcb0c,Wiesbaden central train station (bus station),50.070865,8.246166,WI,,,,,,,Europe/Berlin,
d59fb6e9-51f9-40f6-8ec3-34752e521ac9,Wiesloch-Walldorf (FlixTrain),49.291254,8.664485,RWS,,,,,,,Europe/Berlin,
9b6a36e9-3ecb-11ea-8017-02437075395e,Wilkasy nr 01 i 04,54.011978,21.734688,WIY,,,,,,,Europe/Warsaw,
dcbc4d1b-9603-11e6-9066-549f350fcb0c,Winterberg train station,51.199079,8.532675,WTB,,,,,,,Europe/Berlin,
dcc0f625-9603-11e6-9066-549f350fcb0c,Winterthur (Lagerhausstrasse),47.497645,8.723394,WTU,,,,,,,Europe/Zurich,
1e947ba9-075e-4290-8c77-73c6214d580e,"Wisełka, ul. Nowowiejska",53.965639,14.571722,WKA,,,,,,,Europe/Warsaw,
dcbdbd59-9603-11e6-9066-549f350fcb0c,Wismar central bus station,53.89728,11.46478,WIS,,,,,,,Europe/Berlin,
d014269f-36ce-413f-9a36-78363c5702b5,Wittlich (Berufsschule),49.981881,6.904902,WTL,,,,,,,Europe/Berlin,
6d0b5813-436a-4dc3-a349-ae14233e7500,Wolfsburg Central Station (FlixTrain),52.429036,10.787735,HWOB,,,,,,,Europe/Berlin,
881c5c64-38c6-4a3c-aa9e-6e39fcd41a0b,Wolgast Rungeplatz (Harbor),54.053299,13.780072,WOG,,,,,,,Europe/Berlin,
9b6a72ec-3ecb-11ea-8017-02437075395e,Wolin 17/18,53.847522,14.611879,WLN,,,,,,,Europe/Warsaw,
0038c230-7c73-4b50-a567-aa447870b6ac,Wolpertshausen (Hohenlohe),49.170225,9.860071,WOL,,,,,,,Europe/Berlin,
9b6b762d-3ecb-11ea-8017-02437075395e,"Wolsztyn, Dworzec Autobusowy",52.111606,16.10861,WON,,,,,,,Europe/Warsaw,
dcbcc787-9603-11e6-9066-549f350fcb0c,"Wrocław, Dworzec Autobusowy",51.096909,17.035755,WRO,,,,,,,Europe/Warsaw,
dcbb4379-9603-11e6-9066-549f350fcb0c,Wuppertal train station (Berliner Straße),51.275083,7.224487,W,,,,,,,Europe/Berlin,
dcbfde75-9603-11e6-9066-549f350fcb0c,Wustrow (Wustrow Mitte bus stop),54.34755,12.39858,WUS,,,,,,,Europe/Berlin,
dcbacee3-9603-11e6-9066-549f350fcb0c,Würzburg Main Station,49.801606,9.934321,WU,,,,,,,Europe/Berlin,
9b6a36cf-3ecb-11ea-8017-02437075395e,"Węgorzewo, Plac Wolności",54.211672,21.740873,WGW,,,,,,,Europe/Warsaw,
3d91a39d-2fb5-4103-8ae4-88350f31dad6,"Władysławowo, dworzec autobusowy",54.792991,18.402341,WLA,,,,,,,Europe/Warsaw,
e23391c7-8937-4b89-bb3b-ec4ed085709c,"Włocławek, Węzeł przesiadkowy Okrzei 13",52.653635,19.059291,WLO,,,,,,,Europe/Warsaw,
9b69e549-3ecb-11ea-8017-02437075395e,York (Memorial Gardens- Leeman Rd),53.959574,-1.089831,YOR,,,,,,,Europe/London,
161bc8e8-a659-4aad-b0fd-adce57501554,"Zabrze, Rondo Sybiraków",50.289738,18.782069,ZAB,,,,,,,Europe/Warsaw,
dcc29f68-9603-11e6-9066-549f350fcb0c,Zadar bus station,44.106432,15.241135,QZD,,,,,,,Europe/Zagreb,
953a4a6b-9521-47e9-8fd9-fe14401f352a,Zadvarje,43.432467,16.891942,WZJ,,,,,,,Europe/Zagreb,
dcbdbe76-9603-11e6-9066-549f350fcb0c,Zagreb (bus station),45.803417,15.992278,ZAG,,,,,,,Europe/Zagreb,
50008a05-ed27-4451-8840-7ba19777c71e,Zagvozd,43.401364,17.050727,YZG,,,,,,,Europe/Zagreb,
5149e4f5-cbc4-45d8-9183-79941b69ef65,"Zagórz, Pl. Obrońców Węzła Zagórskiego 01",49.513046,22.264656,ZGZ,,,,,,,Europe/Warsaw,
dcc3e987-9603-11e6-9066-549f350fcb0c,"Zakopane, Dworzec Autobusowy",49.301225,19.962728,ZAK,,,,,,,Europe/Warsaw,
9b6b7a1a-3ecb-11ea-8017-02437075395e,Zambrów Dworzec Autobusowy,52.978911,22.246433,ZAM,,,,,,,Europe/Warsaw,
e5f7846e-5fe4-437e-87cc-21919f3732ea,Zambujeira do Mar,37.52546,-8.783602,ZMA,,,,,,,Europe/Lisbon,
a23fdfe0-ea13-4a88-84f6-d7b05c6e2f10,Zamora (Bus Station),41.513903,-5.73966,ZMR,,,,,,,Europe/Madrid,
0778dbad-545c-4267-9ee3-5e99b504a219,"Zamość, Peowiaków",50.71685,23.262169,ZMP,,,,,,,Europe/Warsaw,
9cb1271c-c3ce-48b8-8f38-d5836f6ade78,Zaostrog autobusno stajalište,43.142577,17.28087,QZG,,,,,,,Europe/Zagreb,
07597a10-0f4c-49d5-84c8-abf615bd5956,Zaragoza (Delicias Station),41.659853,-0.911991,ZAR,,,,,,,Europe/Madrid,
60d79054-ad0b-463c-9a52-2ae3ae67ea7d,Zaton Veliki aut. stajalište,42.701602,18.041931,ZAZ,,,,,,,Europe/Zagreb,
0b4e5e56-3dc1-423d-a7f6-99ba95382fa2,Zaton autobusna stanica,44.21921,15.177695,WZT,,,,,,,Europe/Zagreb,
dcbc27fc-9603-11e6-9066-549f350fcb0c,Zeitz train station,51.05598,12.13537,ZZ,,,,,,,Europe/Berlin,
dcbacfe2-9603-11e6-9066-549f350fcb0c,Zella-Mehlis station,50.646203,10.674619,ZM,,,,,,,Europe/Berlin,
b772c0e3-8368-4ab9-930a-4903ad498e7d,Zempin (Hauptstraße),54.067101,13.958002,ZEM,,,,,,,Europe/Berlin,
d3f6ebba-b206-4908-9491-accf56e8a423,"Zgierz, ul. Łąkowa",51.851448,19.412675,ZGI,,,,,,,Europe/Warsaw,
cd10cafa-289d-40aa-a58c-d3d304849c4f,"Zgorzelec, ul. Armii Krajowej",51.150084,15.011586,ZGO,,,,,,,Europe/Warsaw,
f67d9eb2-7019-47d5-a5f2-bf4fc0f1d53d,Zhytomyr (Bus Station),50.268701,28.692103,ZHY,,,,,,,Europe/Kyiv,
7d65f8a0-6254-4021-9e74-b36cebf00967,Zielona Góra Dworzec Autobusowy,51.946455,15.510436,ZIG,,,,,,,Europe/Warsaw,
9b6bca55-3ecb-11ea-8017-02437075395e,"Zielona Góra, Dworzec PKP",51.946471,15.515182,ZGD,,,,,,,Europe/Warsaw,
4f241fd6-3812-4ae1-9ebd-adc44559948d,Zingst West,54.440701,12.670203,ZIW,,,,,,,Europe/Berlin,
ba980b51-10f1-4d5a-aba3-3b3892b54b45,Zinnowitz station,54.075999,13.903365,ZIO,,,,,,,Europe/Berlin,
40d6c8ce-e993-4af6-b0da-48551c6179ed,Zirchow (Kutzow),53.887281,14.128126,KUT,,,,,,,Europe/Berlin,
b7659650-7aad-4186-a99e-8a124b43af0a,Zittau station,50.903719,14.806812,ZIT,,,,,,,Europe/Berlin,
dcc3d0c6-9603-11e6-9066-549f350fcb0c,"Zlín (Malenovice, křižovatka)",49.209612,17.595418,LZM,,,,,,,Europe/Prague,
dcc273e3-9603-11e6-9066-549f350fcb0c,Znojmo (bus station),48.851655,16.056694,ZN,,,,,,,Europe/Prague,
ed2bcf0b-5a7e-4780-b7bc-a2a2848741f5,Zračna luka Zagreb,45.7396,16.08179,ZAT,,,,,,,Europe/Zagreb,
dcc037f7-9603-11e6-9066-549f350fcb0c,Zschopau (Am Zschopenberg primary school),50.741095,13.070161,ZP,,,,,,,Europe/Berlin,
03ad0933-42b1-437e-94c2-1a1148861664,Zug (Parking Area Aabachstrasse),47.176058,8.510574,ZUG,,,,,,,Europe/Zurich,
dcbab299-9603-11e6-9066-549f350fcb0c,Zurich Bus Station (Carparkplatz Sihlquai),47.380855,8.537436,ZH,,,,,,,Europe/Zurich,
a29390b1-32e1-4ba6-b141-3eb82b9a9a35,Zviahel (Bus Station),50.587541,27.604995,NVO,,,,,,,Europe/Kyiv,
ae9b2d54-5b63-45ab-9db0-2cd467787169,Zvolen (bus station),48.570777,19.118715,SVO,,,,,,,Europe/Bratislava,
dcbb853c-9603-11e6-9066-549f350fcb0c,Zweibrücken central train station,49.24726,7.357253,ZW,,,,,,,Europe/Berlin,
dcbdcbbd-9603-11e6-9066-549f350fcb0c,Zwickau central train station,50.715645,12.477722,ZWB,,,,,,,Europe/Berlin,
6c94458d-1e40-4f20-a840-a64987bdab52,"Złoty Stok, ul. Sportowa",50.445174,16.874069,ZLS,,,,,,,Europe/Warsaw,
7c6a2adf-1956-4611-926e-a5e34f52dfef,Ålgård E39,58.766908,5.862409,ALGD,,,,,,,Europe/Oslo,
77b1e6b1-df82-4ca0-96c5-6fb737df4317,Årjäng (bus station),59.39458,12.131547,ARJ,,,,,,,Europe/Stockholm,
8263a39d-b625-484c-9682-b6f2fd992630,Ås (Korsegården E6),59.662568,10.745282,ASNK,,,,,,,Europe/Oslo,
9b6c264d-3ecb-11ea-8017-02437075395e,Çanakkale bus station,40.150545,26.456528,CN1,,,,,,,Europe/Istanbul,
10981240-53a7-4df6-be7d-7353e1671a75,Étampes,48.433658,2.17208,ETM,,,,,,,Europe/Paris,
c8e874d7-664f-4788-92c6-d73ffca5b121,Ödeshög Rasta,58.233517,14.671128,OHR,,,,,,,Europe/Stockholm,
191c1ce4-c9e3-4f33-a131-53e595ac4a26,Örebro (Resecentrum),59.277501,15.210709,OER,,,,,,,Europe/Stockholm,
dcbc57e3-9603-11e6-9066-549f350fcb0c,Überlingen bus station,47.769278,9.163279,UEB,,,,,,,Europe/Berlin,
2fc2c33e-4b74-493a-b39c-8e2e7acc6112,Ückeritz,54.01376,14.047893,UCK,,,,,,,Europe/Berlin,
2fa16d04-a0e3-441f-84c7-46b7c4845b8f,Čadca (bus station),49.444763,18.785277,C1D,,,,,,,Europe/Bratislava,
dcc5b755-9603-11e6-9066-549f350fcb0c,Čakovec bus station,46.391354,16.434993,QCK,,,,,,,Europe/Zagreb,
da3f617b-f5f1-456b-bd6c-465c8968fc9b,Čazma AS,45.749311,16.615971,ZCM,,,,,,,Europe/Zagreb,
39f6a2be-0057-4cd5-a35e-d259c5948595,Čeminac autobusno stajalište,45.689096,18.676634,TCE,,,,,,,Europe/Zagreb,
9b68d9c6-3ecb-11ea-8017-02437075395e,Čepin autobusno stajalište,45.523635,18.576971,ZCP,,,,,,,Europe/Zagreb,
dcbcd234-9603-11e6-9066-549f350fcb0c,České Budějovice (bus station),48.972887,14.487246,BDW,,,,,,,Europe/Prague,
dcc2d955-9603-11e6-9066-549f350fcb0c,Český Krumlov (bus station),48.811628,14.322575,LCK,,,,,,,Europe/Prague,
dcc435b4-9603-11e6-9066-549f350fcb0c,Čitluk,43.225949,17.693285,QCL,,,,,,,Europe/Sarajevo,
0add6ad4-35bc-4282-b4f2-c89e679b98fe,Đakovo bus station,45.306586,18.416459,QDK,,,,,,,Europe/Zagreb,
dcc51356-9603-11e6-9066-549f350fcb0c,Đurđevac bus station,46.030741,17.065348,QDD,,,,,,,Europe/Zagreb,
9b6a8316-3ecb-11ea-8017-02437075395e,İstanbul Esenler bus station,41.040043,28.894496,IE1,,,,,,,Europe/Istanbul,
3ce3eb68-96e4-4af7-b764-844515b4c0d0,"Łeba, Plac Dworcowy",54.755719,17.553904,LBD,,,,,,,Europe/Warsaw,
1d8d0969-292a-490d-8a5c-9061a22619aa,"Łomża, dworzec miejski",53.172725,22.067057,LOM,,,,,,,Europe/Warsaw,
c166dcf2-1597-4d26-b10d-dca5b048184a,"Łowicz, Dworzec Kolejowy",52.105997,19.954747,LWC,,,,,,,Europe/Warsaw,
f77fa822-b04a-4ad1-9a3c-ecc1021d3be8,"Łukęcin, skrzyż. z ul. Morską",54.042917,14.873639,LUK,,,,,,,Europe/Warsaw,
e1b6a242-54f8-4108-8e51-21c195ac77d4,"Łódź, WPA Łódź Fabryczna",51.769411,19.467708,LZF,,,,,,,Europe/Warsaw,
2379578a-2fa4-40b9-8366-d5f4a94fd3b6,"Świdnica, Dworzec Autobusowy",50.841648,16.481096,SWN,,,,,,,Europe/Warsaw,
6d2f9d66-62e5-4395-97ba-a96e05ff2d00,"Świdnik, Port Lotniczy Lublin",51.235223,22.713993,LRP,,,,,,,Europe/Warsaw,
7172325b-94b5-4969-9306-ec990783ab7f,"Świebodzin, parking, ul. Wojska Polskiego",52.261357,15.533877,SWD,,,,,,,Europe/Warsaw,
e15baf17-65d7-4f85-bdaf-e7befa1d55cb,Świnoujście parking przy ul. Legionów,53.913903,14.234014,SWA,,,,,,,Europe/Warsaw,
dcc298dc-9603-11e6-9066-549f350fcb0c,Šibenik (Bus Station),43.732265,15.893073,QSB,,,,,,,Europe/Zagreb,
0edf1eab-1673-4da6-91fc-55b431bc3e82,Široko Polje autobusno stajalište,45.405255,18.466362,ZSP,,,,,,,Europe/Zagreb,
7f791d6d-564e-422b-820d-c14295ebc8ea,Šmrika,45.253967,14.595204,YSM,,,,,,,Europe/Zagreb,
3c06af94-7fb8-4c08-b932-7031df45bb69,Štitar autobusno stajalište,45.09455,18.639627,WRR,,,,,,,Europe/Zagreb,
690d35b7-39ba-4f81-b990-7a5d136096b2,Štítnik (námestie),48.658859,20.364143,S1N,,,,,,,Europe/Bratislava,
0ad54d38-98ca-4325-a286-af4a0c1d4703,"Żnin, dworzec autobusowy",52.849165,17.731944,ZNI,,,,,,,Europe/Warsaw,
26ecde01-78e8-4840-8525-7504c42a1590,"Żory, Dworzec Autobusowy",50.047773,18.694025,ZRY,,,,,,,Europe/Warsaw,
20ffa886-00b6-4463-9d06-eb6a9ce8ce3c,"Żywiec, Dworzec Autobusowy",49.679455,19.188169,ZYW,,,,,,,Europe/Warsaw,
e29090ba-64bc-475d-a4d5-168c9f97e58b,Ždiar (Tatra),49.26955,20.26677,ZDI,,,,,,,Europe/Bratislava,
3c67efc4-875b-4de9-a3c2-676db70676f5,Žiar nad Hronom (bus station),48.589115,18.857159,Z1R,,,,,,,Europe/Bratislava,
30503d8d-b92c-4db1-b532-817c56cfc42a,Žilina (bus station),49.225415,18.747716,ZIL,,,,,,,Europe/Bratislava,
0d5a03d4-2099-4321-b77c-86eabfc34002,Živogošće,43.190386,17.160014,YZI,,,,,,,Europe/Zagreb,
dcc41bb0-9603-11e6-9066-549f350fcb0c,Županja bus station,45.077537,18.695953,QZP,,,,,,,Europe/Zagreb,
